Time,F-Scale,Location,County,State,Lat,Lon,Comments
Time,Speed,Location,County,State,Lat,Lon,Comments
1435,60,5 ENE DOWLING PARK,SUWANNEE,FL,30.26,-83.16,ESTIMATED WIND GUST BETWEEN 60-70 MILES AN HOUR. RAINFALL ESTIMATED AT 2 INCHES IN 12 MINUTES WITH FAST MOVING THUNDERSTORM. DRIVEWAY FLOODED. (JAX)
1515,UNK,6 ENE DOWLING PARK,SUWANNEE,FL,30.28,-83.15,HORSE BARN ROOF BLOWN OFF BY STRONG THUNDERSTORM WINDS. (JAX)
1530,UNK,4 N PEARSON,ATKINSON,GA,31.36,-82.85,ON COLUMBUS ROAD A LARGE CYPRESS TREE FELL ON A CIRCUIT KNOCKING OUT POWER TO CUSTOMERS ON THE CIRCUIT. (JAX)
1625,UNK,COLLINS,TATTNALL,GA,32.18,-82.12,THUNDERSTORM WINDS BLEW A TREE DOWN ONTO STATE ROUTE 292. (CHS)
1757,UNK,1 SW GRAHAMVILLE,JASPER,SC,32.46,-80.98,ONE TREE DOWN ON INTERSTATE 95. TIME ESTIMATED BY RADAR. (CHS)
1835,UNK,6 E PARRIS ISLAND,BEAUFORT,SC,32.37,-80.58,SEVERAL TREES DOWN IN THE VICINITY OF LANDS END ROAD AND TUCK IN THE WOODS. TIME ESTIMATED BASED ON RADAR. (CHS)
1905,UNK,5 WSW ALACHUA,ALACHUA,FL,29.75,-82.56,STATE WARNING POINT RELAYED REPORT OF CARPORT DAMAGE AND TREES DOWN AT NW 196TH TERRACE. (JAX)
2018,UNK,3 S SHARON,YORK,SC,34.91,-81.34,YORK ELECTRIC COMPANY SAYS TREES BROUGHT DOWN POWERLINES ON BURRIS ROAD SOUTH OF SHARON. (GSP)
2204,UNK,2 S LANCASTER,LANCASTER,SC,34.69,-80.78,SHERIFF DISPATCH REPORTED A TREE DOWN ON EDGEPORT DRIVE NEAR LANCASTER. (CAE)
2219,UNK,4 W LEXINGTON,LEXINGTON,SC,33.99,-81.31,HIGHWAY PATROL REPORTED POWER LINES DOWN NEAR THE INTERSECTION OF ST. PETERS CHURCH ROAD AND HWY 378. (CAE)
2220,UNK,LOCUST,STANLY,NC,35.26,-80.43,TWO TREES DOWN IN LOCUST (RAH)
2222,UNK,2 WSW LAKE TOWNSEND,GUILFORD,NC,36.15,-79.81,TREE DOWN AT BASS CHAPEL ROAD AND NETFIELD ROAD... TIME ESTIMATED BY RADAR (RAH)
2223,UNK,6 N MARSHVILLE,UNION,NC,35.07,-80.37,TWO LARGE TREES DOWN AT OLIVE BRANCH RD AND OLD GOLD MINE RD. (GSP)
2231,UNK,1 NNW CHIEFLAND,LEVY,FL,29.5,-82.87,SEVERAL OAK TREES...BRANCHES AND POWER LINES DOWN AT RESTAURANT NEAR U.S. 19 AND CR 320. NO INJURIES. (TBW)
2300,UNK,4 NE CHIEFLAND,LEVY,FL,29.52,-82.81,SEVERAL TREES DOWN JUST NORTH OF THE NW 130TH STREET AND NW 20TH AVENUE INTERSECTION. (TBW)
2310,UNK,1 N ANSONVILLE,ANSON,NC,35.13,-80.11,FIRE DEPT RESPONDED TO A TREE BLOWN DOWN ACROSS HWY 52 JUST NORTH OF ANSONVILLE (RAH)
2315,UNK,1 SE HOPEWELL,PITTSYLVANIA,VA,36.73,-79.45,TREES POWER LINES DOWN (RNK)
2325,UNK,6 E ULAH,RANDOLPH,NC,35.63,-79.74,TREE ON A HOUSE AT 3465 FAIRVIEW FARM ROAD NEAR LIBERTY (RAH)
2351,UNK,4 SSW CONCORD,PERSON,NC,36.41,-79.08,TREE DOWN AT WAGSTAFF CARVER ROAD (RAH)
0045,UNK,1 ESE MADISONVILLE,CHARLOTTE,VA,37.18,-78.66,ROOF DAMAGE (RNK)
0104,UNK,6 ENE BAMBERG,ORANGEBURG,SC,33.33,-80.94,SHERIFF DISPATCH REPORTED A TREE DOWN IN THE CANAAN COMMUNITY. (CAE)
0141,UNK,4 NNE STATESBORO,BULLOCH,GA,32.5,-81.76,ONE TREE DOWN ALONG STILLWATER DRIVE. (CHS)
0200,UNK,BAMBERG,BAMBERG,SC,33.3,-81.03,SEVERAL TREES DOWN IN BAMBERG CITY LIMITS REPORTED BY SHERIFF. (CAE)
0546,UNK,1 E SURF CITY,PENDER,NC,34.43,-77.54,SHINGLES BLOWN OFF CAFE ROOF AND 150 FT OF CANOPY WAS RIPPED FROM HIGH WINDS. (ILM)
Time,Size,Location,County,State,Lat,Lon,Comments
1635,100,4 NNW STILLWELL,EFFINGHAM,GA,32.43,-81.28,EFFINGHAM COUNTY FIRE DEPARTMENT STATION REPORTED QUARTER SIZE HAIL. TIME WAS ESTIMATED FROM RADAR. (CHS)
1738,100,5 SW MARION,SMYTH,VA,36.79,-81.58,(RNK)
1815,150,RURAL RETREAT,WYTHE,VA,36.9,-81.27,(RNK)
1840,100,MATOAKA,MERCER,WV,37.42,-81.24,(RNK)
1846,100,5 ENE SALLEY,ORANGEBURG,SC,33.6,-81.23,CONVENIENCE STORE REPORTED QUARTER SIZE HAIL. THE HAIL COVERED THE GROUND OF SOME OF THE HOMES NEARBY. (CAE)
1850,100,1 SSW CANA,CARROLL,VA,36.57,-80.68,(RNK)
1851,100,PIREWAY,COLUMBUS,NC,34.03,-78.63,(ILM)
1907,125,CANA,CARROLL,VA,36.58,-80.67,(RNK)
1914,275,GROUNDHOG MOUNTAIN,PATRICK,VA,36.65,-80.53,REPORTED ALONG BLUE RIDGE PARKWAY ON CARROLL/PATRICK COUNTY LINE. WINDOWS BROKEN IN HOME. (RNK)
1915,100,2 NNW WURNO,PULASKI,VA,37.1,-80.73,(RNK)
1918,100,3 S ELM CITY,WILSON,NC,35.77,-77.86,NICKEL TO QUARTER SIZE HAIL LASTED APPROXIMATELY 2 MINUTES (RAH)
1924,125,3 ENE GLADE VALLEY,ALLEGHANY,NC,36.5,-81,(RNK)
1935,100,MEADOWS OF DAN,PATRICK,VA,36.73,-80.42,(RNK)
1936,100,DIXIE,NICHOLAS,WV,38.27,-81.18,(RLX)
1937,100,3 E PEARISBURG,GILES,VA,37.32,-80.68,REPORTED AT RIPPLEMEAD (RNK)
1939,100,3 WNW CHAPPELLS,NEWBERRY,SC,34.2,-81.91,NICKEL TO QUARTER SIZE HAIL ALONG THE EAST SHORE OF LAKE GREENWOOD ALONG RIVIERA ROAD. (CAE)
1956,100,WOOLWINE,PATRICK,VA,36.78,-80.28,HAIL COVERED GROUND..LARGEST 1 INCH DIAMETER (RNK)
2008,175,1 NW MOUNT HERMAN,SURRY,NC,36.55,-80.48,CAR HAD WINDSHIELD BUSTED OUT BY HAIL WHILE DRIVING ON EAST PINE STREET. (RNK)
2020,100,1 N SWANCREEK,YADKIN,NC,36.2,-80.86,(RNK)
2020,100,2 S CROOKED OAK,CARROLL,VA,36.7,-80.61,(RNK)
2029,100,MOORESVILLE,IREDELL,NC,35.58,-80.81,(GSP)
2034,100,FERRUM,FRANKLIN,VA,36.92,-80.02,(RNK)
2039,100,3 WNW CHAPPELLS,NEWBERRY,SC,34.2,-81.91,NICKEL TO QUARTER SIZE HAIL ALONG THE EAST SHORE OF LAKE GREENWOOD ALONG RIVIERA ROAD. (CAE)
2040,100,MOCKSVILLE,DAVIE,NC,35.9,-80.56,THE RALEIGH WEATHER OFFICE RELAYED A REPORT OF QUARTER SIZED HAIL WHICH STARTED IN MOCKSVILLE AT 440 PM AND WAS CONTINUING DURING THE CALL. (GSP)
2050,100,1 WNW WHITMIRE,NEWBERRY,SC,34.51,-81.63,QUARTER SIZE HAIL COVERING THE GROUND JUST NORTHWEST OF WHITEMIRE OFF OF LOVERS LANE. (CAE)
2050,100,5 N SALEMBURG,SAMPSON,NC,35.09,-78.51,HAIL FELL FOR ABOUT 7 MINUTES (RAH)
2055,100,8 SSE UNION,UNION,SC,34.63,-81.56,SPOTTER REPORTED HAIL COVERING GROUND QUARTER SIZE (GSP)
2055,100,ROCKY MOUNT,FRANKLIN,VA,37,-79.88,(RNK)
2100,100,MONETA,BEDFORD,VA,37.18,-79.63,(RNK)
2112,125,5 E MONARCH MILLS,UNION,SC,34.71,-81.49,HALF DOLLAR SIZED HAIL. HAIL COVERING THE GROUND. (GSP)
2120,100,1 N MIDWAY,DAVIDSON,NC,36,-80.27,HAIL FELL FOR SEVERAL MINUTES (RAH)
2122,100,1 SE HOWELL,LINCOLN,TN,35.22,-86.6,(HUN)
2125,150,SCRUGGS,FRANKLIN,VA,37.08,-79.66,(RNK)
2130,175,1 SW FAIRY STONE STATE,PATRICK,VA,36.79,-80.09,HAIL AT LEAST GOLF-BALL SIZE OBSERVED ON HIGHWAY 57 (RNK)
2133,100,HUDDLESTON,BEDFORD,VA,37.17,-79.48,(RNK)
2143,100,CHAPIN,LEXINGTON,SC,34.17,-81.35,WIS-TV REPORTED QUARTER SIZE HAIL IN CHAPIN. (CAE)
2145,100,LEXINGTON,DAVIDSON,NC,35.81,-80.26,1 INCH HAIL IN LEXINGTON (RAH)
2150,250,1 W JONES CREEK,HENRY,VA,36.71,-79.89,(RNK)
2151,100,1 NW ROCKWELL,ROWAN,NC,35.56,-80.42,(GSP)
2152,100,5 WSW GREAT FALLS,FAIRFIELD,SC,34.54,-80.99,PUBLIC REPORTED HAIL UP TO QUARTER SIZE ALONG HERITAGE ROAD. (CAE)
2157,150,5 E ROCKY MOUNT,FRANKLIN,VA,37,-79.79,(RNK)
2200,100,2 WSW PIEDMONT TRIAD AI,GUILFORD,NC,36.09,-79.98,(RAH)
2200,100,HENRY,FRANKLIN,VA,36.83,-79.99,(RNK)
2203,100,GILBERT,LEXINGTON,SC,33.92,-81.39,QUARTER SIZE HAIL REPORTED IN GILBERT. (CAE)
2208,250,2 NE MARTINSVILLE CITY,CITY OF MARTINSVI,VA,36.7,-79.85,(RNK)
2215,150,3 SSE ELAMSVILLE,PATRICK,VA,36.72,-80.18,(RNK)
2215,100,ROCKY MOUNT,FRANKLIN,VA,37,-79.88,(RNK)
2215,175,1 SSE EVINGTON,CAMPBELL,VA,37.22,-79.27,HAIL DAMAGED THE SIDING... BROKE ONE WINDOW... AND SEVERAL WINDOW SCREENS ON A HOME. (RNK)
2222,100,2 SE LAUREL FORK,CARROLL,VA,36.7,-80.49,(RNK)
2225,100,GILBERT,LEXINGTON,SC,33.92,-81.39,SPOTTER REPORTED HAIL JUST EAST OF GILBERT ALONG HIGHWAY 1. (CAE)
2235,100,1 S SPENCER,HENRY,VA,36.6,-80.02,LOCATED ON OLD WELL ROAD (RNK)
2240,100,5 WNW COLUMBIA,LEXINGTON,SC,34.03,-81.11,QUARTER SIZE HAIL REPORTED AT WALMART ALONG BUSH RIVER ROAD. (CAE)
2240,100,4 W PLEASANT GARDEN,GUILFORD,NC,35.97,-79.84,QUARTER SIZED HAIL AT OLD RANDLEMAN ROAD AND HIGHWAY 220 (RAH)
2245,150,THOMAS TERRACE,CAMPBELL,VA,37.37,-79.01,HAIL UP TO WALNUT SIZE STARTED AT 645PM AND LASTED UNTIL 700PM (RNK)
2252,100,2 S STONEWALL,APPOMATTOX,VA,37.39,-78.97,(RNK)
2254,100,2 S WOODLAWN,PITTSYLVANIA,VA,36.79,-79.4,LOCATED NEXT TO TIGHT SQUEEZE PLAZA SHOPPING CENTER (RNK)
2300,100,1 E PELION,LEXINGTON,SC,33.78,-81.24,PUBLIC REPORTED NICKEL TO QUARTER SIZE HAIL NEAR PELION. (CAE)
2305,100,CHERRY GROVE,CASWELL,NC,36.31,-79.46,(RNK)
2312,100,OAKVILLE,APPOMATTOX,VA,37.43,-78.86,HAIL DAMAGED GUTTERS (RNK)
2315,100,1 ESE HILLSBOROUGH,ORANGE,NC,36.06,-79.08,911 CENTER REPORTS QUARTER SIZE HAIL IN HILLSBOROUGH ON MEADOWLANDS DRIVE AND ROUTE 70A (RAH)
2318,175,3 WSW SPRING GARDEN,PITTSYLVANIA,VA,36.77,-79.35,(RNK)
2340,100,3 E CLIMAX,GUILFORD,NC,35.92,-79.67,QUARTER SIZED HAIL NEAR LIBERTY ROAD AND 421 (RAH)
2343,100,7 WNW EASTOVER,RICHLAND,SC,33.93,-80.8,QUARTER SIZE HAIL REPORTED AT MCENTIRE AIR NATIONAL GUARD STATION NEAR EASTOVER. (CAE)
2349,125,BURLINGTON,ALAMANCE,NC,36.08,-79.45,HALF DOLLAR SIZE HAIL IN BURLINGTON (RAH)
2358,100,ROXBORO,PERSON,NC,36.4,-78.98,QUARTER SIZE HAIL AT 720 NORTH MADISON IN ROXBORO (RAH)
0010,125,1 SW OAKLAND,SUMTER,SC,33.98,-80.51,HALF DOLLAR SIZE HAIL REPORTED JUST NORTH OF SHAW AIR FORCE BASE. (CAE)
0014,100,2 SSE HAW RIVER,ALAMANCE,NC,36.07,-79.35,QUARTER SIZE HAIL AT THE FLYING J (RAH)
0028,100,1 SSE HILDA,BARNWELL,SC,33.25,-81.24,COOPERATIVE OBSERVER REPORTED QUARTER SIZE HAIL JUST SOUTH OF HILDA. (CAE)
0031,100,1 NW APPOMATTOX,APPOMATTOX,VA,37.36,-78.84,(RNK)
0048,100,3 SW BAMBERG,BAMBERG,SC,33.27,-81.07,SHERIFF DISPATCH REPORTED NICKEL TO QUARTER SIZE HAIL ALONG HIGHWAY 301 SOUTHWEST OF THE CITY OF BAMBERG. (CAE)
0100,100,2 E GLENMORE,BUCKINGHAM,VA,37.67,-78.55,(RNK)
0123,100,SMITH STORE,BUCKINGHAM,VA,37.69,-78.52,(RNK)
0126,100,6 N BRANCHVILLE,ORANGEBURG,SC,33.33,-80.83,PUBLIC REPORTED QUARTER SIZE HAIL JUST NORTH OF BRANCHVILLE ON MIDDLE ROAD. HAIL FELL FOR APPROXIMATELY 20 MINUTES. (CAE)
0200,100,BAMBERG,BAMBERG,SC,33.3,-81.03,QUARTER SIZED HAIL REPORTED IN BAMBERG BY SHERIFF. (CAE)
0725,175,5 WNW MOORESVILLE,IREDELL,NC,35.61,-80.89,HAIL COVERED THE GROUND UP TO GOLF BALL SIZED (GSP)
0753,100,5 N MOORESVILLE,IREDELL,NC,35.66,-80.8,HAIL 10 INCHES DEEP WITH DRIFTS UP TO 3 FEET DEEP. MOST HAIL WAS MARBLE TO DIME SIZE. (GSP)
0817,175,CLEVELAND,ROWAN,NC,35.73,-80.68,DEPUTY REPORTED HAIL UP TO GOLF BALL SIZE. (GSP)
0855,100,COOLEEMEE,DAVIE,NC,35.81,-80.56,RELATIVE OF NWS EMPLOYEE REPORTED HAIL UP TO QUARTER SIZED. (GSP)
