Time,F_Scale,Location,County,State,Lat,Lon,Comments
Time,Speed,Location,County,State,Lat,Lon,Comments
1200,UNK,4 ENE BOONE,WATAUGA,NC,36.22,-81.6,FEW TREES DOWN (RNK)
1730,UNK,MOUNT AIRY,SURRY,NC,36.5,-80.61,MULTIPLE TREES DOWN AND SOME STREET FLOODING. (RNK)
1750,UNK,5 W ROCKINGHAM,RICHMOND,NC,34.95,-79.85,TREE BLOWN DOWN ALONG US-74 AT THE INTERSECTION OF BUSINESS 74. (RAH)
1818,UNK,2 SE LILESVILLE,ANSON,NC,34.95,-79.95,SEVERAL TREES BLOWN DOWN ACROSS HAILEYS FERRY ROAD. DOT CALLED OUT TO CLEAR THE ROADWAY. (RAH)
1825,UNK,5 NNW SPRUCE PINE,MITCHELL,NC,35.98,-82.12,A TREE WAS REPORTED DOWN IN UNSPECIFIED CENTRAL PART OF THE COUNTY. ALSO HAIL OF UNKNOWN SIZE WAS ALSO REPORTED AS STORM PASSED. (GSP)
1845,UNK,3 E BAKERSVILLE,MITCHELL,NC,36.01,-82.1,MULTIPLE TREES DOWN NEAR CANE CREEK (GSP)
1900,UNK,3 SW FAIRVIEW,UNION,NC,35.11,-80.58,SPOTTER REPORTED TREES BLOWN DOWN ON EMERALD WOODS DR. (GSP)
1900,UNK,2 N HARMONY,IREDELL,NC,35.99,-80.77,NUMEROUS TREES DOWN. (GSP)
1910,UNK,NEW BETHLEHEM,CLARION,PA,41,-79.33,TREES DOWN ON WIRES (PBZ)
1912,UNK,2 WNW LAURINBURG,SCOTLAND,NC,34.78,-79.5,TREES DOWN ON POWER LINES. (RAH)
1915,UNK,7 W YAUHANNAH,GEORGETOWN,SC,33.63,-79.3,SEVERAL LARGE TREES REPORTED BLOCKING ROADWAY NEAR THE 300 BLOCK ON CARVERS BAY ROAD. TIME OF EVENT ESTIMATED BY RADAR. (ILM)
1925,UNK,2 NW EMERICKVILLE,JEFFERSON,PA,41.15,-79.01,TREES DOWN BLOCKING THE PASSING LANE ON I-80 AT MILE MARKER 84.8 (PBZ)
1946,UNK,3 W LUGOFF,KERSHAW,SC,34.23,-80.73,SC HIGHWAY PATROL REPORTING TREES DOWN ON SC 34 AT 25 MILE CREEK RD (CAE)
1950,UNK,6 WNW CORDOVA,ORANGEBURG,SC,33.48,-81.01,ORANGEBURG COUNTY DISPATCH REPORTED 2 TREES DOWN ON NORWAY ROAD. (CAE)
1950,UNK,3 SSW EASTPORT,BOUNDARY,ID,48.95,-116.2,LARGE TREE BLOWN DOWN ONTO HIGHWAY 95 AT MILEPOST 533 (OTX)
2000,UNK,3 NW TOWN 'N' COUNTRY,HILLSBOROUGH,FL,28.04,-82.61,TREE BRANCHES AND POWER LINES DOWN IN THE WESTCHASE AREA. (TBW)
2000,UNK,3 N NINE TIMES,PICKENS,SC,34.96,-82.84,MULTIPLE TREES DOWN ON HWY 11 (GSP)
2000,UNK,6 SW ENOCHVILLE,CABARRUS,NC,35.47,-80.74,TREE DOWN ON HWY 601 AND POTNECK RD (GSP)
2007,UNK,BLOWING ROCK,WATAUGA,NC,36.13,-81.67,FEW TREES DOWN AND SOME MULTIPLE LARGE TREE LIMBS DOWN NEAR JULIAN PRICE PARK. (RNK)
2010,UNK,CLAREMONT,CATAWBA,NC,35.71,-81.15,MULTIPLE TREES DOWN AT INTERSECTION OF NORTH OXFORD STREET AND HIGHWAY 70 WITH HIGHWAY 70 CLOSED. (GSP)
2010,UNK,BARBOURVILLE,KNOX,KY,36.87,-83.88,LARGE TREE DOWN. REPORT VIA SOCIAL MEDIA. (JKL)
2012,UNK,5 N BRANDON,HILLSBOROUGH,FL,28,-82.3,NUMEROUS REPORTS OF LARGE OAK TREES DOWN. SOME TREES DOWN ON HOMES. (TBW)
2012,UNK,NORTH VERSAILLES,ALLEGHENY,PA,40.38,-79.81,TREES AND WIRES DOWN ON WALMART DRIVE (PBZ)
2015,UNK,4 ENE CLEARWATER,PINELLAS,FL,27.98,-82.71,LARGE TREE DOWN ON HOUSE IN CLEARWATER,FL (TBW)
2015,UNK,7 W YAUHANNAH,GEORGETOWN,SC,33.63,-79.3,SEVERAL LARGE TREES REPORTED BLOCKING ROADWAY NEAR THE 300 BLOCK ON CARVERS BAY ROAD. TIME OF EVENT ESTIMATED BY RADAR. (ILM)
2015,UNK,SURGOINSVILLE,HAWKINS,TN,36.47,-82.86,SEVERAL TREES AND POWER LINES DOWN ON SOUTH SIDE OF SURGOINSVILLE. (MRX)
2020,UNK,1 NW KINGSTREE,WILLIAMSBURG,SC,33.67,-79.84,REPORT OF LARGE TREE IN ROADWAY NEAR JOHNNY BOYS EXPRESS AND SC 527. TIME OF EVENT ESTIMATED BY RADAR. (ILM)
2023,UNK,4 SE PINEVILLE,BELL,KY,36.72,-83.65,SEVERAL TREES DOWN ON HWY 119 BETWEEN MILE MARKER 0 AND 5. (JKL)
2026,UNK,1 ESE AIKEN,AIKEN,SC,33.53,-81.71,PUBLIC REPORTED A TREE ON A HOME ON PALM DRIVE IN AIKEN. (CAE)
2028,UNK,2 W HUNTERSVILLE,MECKLENBURG,NC,35.42,-80.88,TREES FOUR TO SIX INCHES IN DIAMETER DOWNED BY THUNDERSTORM WINDS. (GSP)
2030,UNK,5 SSW TAMPA,HILLSBOROUGH,FL,27.89,-82.51,NUMEROUS BRANCHES AND SMALL TREES DOWN IN THE VICINITY OF SOUTH TAMPA. TIME ESTIMATED BY RADAR. (TBW)
2036,UNK,2 SE CONNELLY SPRINGS,BURKE,NC,35.73,-81.47,MEDIA REPORTED TREES DOWN ON POWER LINES ON KNOBS LANDING. (GSP)
2042,UNK,2 NE NEW ELLENTON,AIKEN,SC,33.44,-81.66,TREES DOWN NEAR NEW ELLENTON (CAE)
2050,UNK,SUMTER,SUMTER,SC,33.94,-80.39,SUMTER COUNTY DISPATCH REPORTED TREES AND POWERLINES DOWN IN THE CITY OF SUMTER. (CAE)
2056,UNK,4 NW MORGANTON,BURKE,NC,35.78,-81.76,OAK HILL AREA HAS MULTIPLE TREES DOWN AT INTERSECTION OF HIGHWAY 181 AND SPAINHOUR ROAD. HIGHWAY 181 CLOSED. (GSP)
2100,69,11 WNW SNELLING,BARNWELL,SC,33.29,-81.63,SAVANNAH RIVER SITE WIND SENSOR MEAUSURED A 69 MPH WIND GUST. SENSOR IS LOCATED AT 200 FT ABOVE GROUND. (CAE)
2100,UNK,1 NNW CAYCE,LEXINGTON,SC,33.97,-81.07,TREES DOWN ON WILKINSON ST. AT POPLAR ST. (CAE)
2100,UNK,TIGER,RABUN,GA,34.85,-83.43,MULTIPLE TREES DOWN IN TIGER (GSP)
2100,UNK,BLOUNTVILLE,SULLIVAN,TN,36.53,-82.33,SEVERAL TREES DOWN ACROSS THE COUNTY. (MRX)
2101,UNK,3 NW FOREST ACRES,RICHLAND,SC,34.05,-81.01,TREES DOWN (CAE)
2110,UNK,11 NNE WAYNESBORO,BURKE,GA,33.24,-81.94,DISPATCH REPORTED A TREE DOWN ON HWY 56 NORTH NEAR THE RICHMOND COUNTY LINE IN BURKE COUNTY. (CAE)
2110,UNK,8 N EUREKA,XXX,XX,48.99,-115.05,EQUIPMENT AT THE AIRPORT RECORDED 75 KNOT WINDS THAT LAST FOR 12 MINUTES. AN AIRCRAFT WAS FLIPPED OVER,SOME STEEL SIDING WAS TORN OFF A HANGER. ALSO REPORTED 1 INCH DI (MSO)
2115,UNK,2 ENE PENNINGTON GAP,LEE,VA,36.77,-83,TREES DOWN ON RT 630E. (MRX)
2117,UNK,1 ESE SPRINGDALE,LEXINGTON,SC,33.95,-81.1,SC HIGHWAY PATROL REPORTS TREES DOWN IN THE 2200 BLOCK OF DURHAM DR. (CAE)
2118,UNK,4 NNE REXFORD,LINCOLN,MT,48.96,-115.15,30 FOOT TALL WILLOW TREE BLOWN DOWN. (MSO)
2120,UNK,5 ENE NEW SWEDEN,AROOSTOOK,ME,46.97,-68.04,TWO POWER LINES DOWN NEAR CONNOR. (CAR)
2125,UNK,4 N ROCK HILL,YORK,SC,34.99,-81.03,A FEW TREES DOWN BETWEEN ROCK HILL AND LAKE WYLIE WITH A FEW OF THOSE FALLING ON POWER LINES. (GSP)
2128,UNK,1 S GOOCH MOUNTAIN SHEL,LUMPKIN,GA,34.64,-84.03,SEVERAL TREES REPORTED DOWN IN THE NORTHERN PART OF LUMPKIN COUNTY. (FFC)
2130,UNK,ATLANTA,FULTON,GA,33.75,-84.39,PHILIPS ARENA EVENT EMPLOYEE REPORTED A PORTION OF THE ARENA ROOF SUSTAINED DAMAGE AND A SECTION OF THE SEATING SPACE WAS EVACUATED AS A RESULT. ROOF DEBRIS WAS REPORTE (FFC)
2130,UNK,CASAR,CLEVELAND,NC,35.51,-81.62,MUTIPLE LARGE TREES UPROOTED AND POWERLINES DOWN IN CASAR. (GSP)
2133,UNK,1 E OLD SANTEE CANAL ST,BERKELEY,SC,33.2,-79.95,2 TREES DOWN ON WADBOO CREEK FARM. TIME ESTIMATED BY RADAR. (CHS)
2134,UNK,2 NW ELLENBORO,RUTHERFORD,NC,35.35,-81.78,A CALL FROM A SPOTTER FOR TREES DOWN AROUND ELLENBORO AND A PUBLIC CALL FOR TREES DOWN IN BOSTIC AREA. RADAR SHOWED 60 KNOT WIND AS STORM PASSED. (GSP)
2135,UNK,TOCCOA,STEPHENS,GA,34.58,-83.32,MULTIPLE TREES DOWN ACROSS STEPHENS COUNTY. MANY TREES DOWN ON HIGHWAY 123 ABOUT A MILE FROM LAKE HARTWELL WHERE A SEMI CRASHED INTO A FALLEN TREE ON THE HIGHWAY. ALSO (GSP)
2136,UNK,FAIRVIEW,MARION,WV,39.59,-80.25,TREE DOWN BLOCKING RT 218 IN NORTHERN MARION COUNTY (PBZ)
2145,UNK,4 NW CLARKESVILLE,HABERSHAM,GA,34.65,-83.57,MORE THAN A DOZEN TREES SOME OF THEM OLD HEALTHY QUITE LARGE TREES BLOWN DOWN AS STORM CAME THROUGH. (GSP)
2155,UNK,2 SSE CHESNEE,SPARTANBURG,SC,35.12,-81.85,NUMEROUS LARGE LIMBS DOWN IN THE ROADS IN THIS AREA. (GSP)
2200,UNK,SWANTON,FRANKLIN,VT,44.92,-73.12,TREE DOWNED ON WIRES AND ON TWO CARS IN SWANTON. TIME ESTIMATED FROM RADAR. (BTV)
2204,UNK,3 SE WASHBURN,AROOSTOOK,ME,46.76,-68.11,3 TREES DOWN ON RT 164 BETWEEN WASHBURN AND PRESQUE ISLE. (CAR)
2206,UNK,2 SW WALTERBORO,COLLETON,SC,32.89,-80.69,3 TREES DOWN IN WALTERBORO NEAR INTERSTATE 95. TIME ESTIMATED BY RADAR. (CHS)
2206,UNK,3 ENE MILEY,COLLETON,SC,32.96,-80.98,TREE DOWN AT THE INTERSECTION OF CROSS SWAMP ROAD CONNELLY ROAD. TIME ESTIMATED BY RADAR. (CHS)
2210,UNK,5 N AVON,POWELL,MT,46.66,-112.59,BARN WAS TOTALED BY STRONG WIND. ALSO SEVERAL TREES WERE UPROOTED WHILE SOME WERE BROKEN IN HALF. ONE COTTONWOOD TREE,APPROX. 24 INCHES IN DIAMETER WAS UPROOTED. (MSO)
2213,UNK,1 SE BUHLER,CALCASIEU,LA,30.32,-93.35,PUBLIC REPORT THROUGH FACEBOOK OF A TREE DOWN AND NUMEROUS BRANCHES DOWN. TIME BASED ON RADAR. (LCH)
2213,UNK,RAINBOW CITY,ETOWAH,AL,33.95,-86.04,ONE TREE SNAPPED OFF IN RAINBOW CITY. WINDS ESTIMATED AROUND 40 MPH. (BMX)
2214,UNK,3 WNW GREER,GREENVILLE,SC,34.96,-82.28,A TREE DOWN BY WIND NEAR INTERSECTION OF OWENS ROAD AND BROOKDALE DRIVE. (GSP)
2215,UNK,CHAMBLEE,DEKALB,GA,33.89,-84.3,COUNTY 911 CENTER REPORTED ABOUT 5 TREES DOWN IN THE CHAMBLEE AREA. ONE TREE ON A CAR AND SEVERAL POWERLINES DOWN. (FFC)
2215,UNK,4 SW SPARTANBURG,SPARTANBURG,SC,34.91,-81.98,TREES SNAPPED OFF...A FEW TREES DOWN AND NUMEROUS LARGE LIMBS DOWN ON THE SOUTHWEST SIDE OF SPARTANBURG NEAR THE INTERSECTION OF BLACKSTOCK ROAD AND HIDDEN HILL ROAD. (GSP)
2216,UNK,3 S REEVESVILLE,DORCHESTER,SC,33.16,-80.64,TREE DOWN ON CROSS CREEK ROAD. (CHS)
2236,60,1 NNE LEADORE,LEMHI,ID,44.7,-113.35,MESONET STATION LEODORE CREEK /LDOI1/ ELEVATION 6000 FEET. (MSO)
2244,UNK,3 NNE RUFFIN,COLLETON,SC,33.04,-80.78,LAW ENFORCEMENT REPORTED A TREE AND POWERLINE DOWN ALONG MOUNT CARMEL ROAD. VEHICLE HIT THE TREE. INJURIES AND DAMAGES UNKNOWN. TIME ESTIMATED BY RADAR. (CHS)
2245,UNK,10 S WRENS,JEFFERSON,GA,33.06,-82.39,COUNTY 911 CENTER REPORTED NUMEROUS POWER LINES AND TREES DOWN ACROSS THE COUNTY STARTING AROUND 645 PM. (FFC)
2245,UNK,2 NNW DANFORTH,AROOSTOOK,ME,45.69,-67.89,NUMEROUS TREES DOWN ALONG BANCROFT RD IN WESTON (CAR)
2251,UNK,SSW DANFORTH,WASHINGTON,ME,45.66,-67.87,WIRES DOWN ALONG RT 169 IN DANFORTH. TIME ESTIMATED. (CAR)
2258,UNK,NEWPORT,ORLEANS,VT,44.94,-72.21,NEWPORT POLICE REPORTS TREES DOWN ON POWERLINES ON SEVERAL ROADS IN NEWPORT. (BTV)
2259,UNK,9 NE ODENVILLE,ST. CLAIR,AL,33.78,-86.29,SEVERAL TREES WERE BLOWN DOWN NEAR HIGHWAY 231 AND SHOAL CREEK ROAD. (BMX)
2300,UNK,10 W LAURENS,LAURENS,SC,34.5,-82.2,HIGHWAY PATROL REPORTS MULTIPLE TREES BLOWN DOWN ACROSS THE WESTERN PART OF LAURENS COUNTY...FROM GRAY COURT TO BOYD MILL POND...TO NEAR WARE SHOALS. (GSP)
2300,UNK,2 S GREENVILLE,GREENVILLE,SC,34.81,-82.38,NUMEROUS LIMBS DOWN NEAR GREENVILLE COUNTRY CLUB. WIRES DOWN ON AUGUSTA RD NEAR BLYTHE ACADEMY. TIME ESTIMATED FROM RADAR. (GSP)
2300,77,2 SW SWAMP ANGEL,SAN JUAN,CO,37.88,-107.74,GUST MEASURED AT THE EAGLE SNOTEL (GJT)
2300,UNK,3 NW DANFORTH,AROOSTOOK,ME,45.7,-67.9,NUMEROUS TREES AND POWER LINES DOWN (CAR)
2308,UNK,HARDWICK,CALEDONIA,VT,44.5,-72.37,LARGE MAPLE TREE DOWN ON RT 15 IN HARDWICK (BTV)
2310,UNK,SANDERSVILLE,WASHINGTON,GA,32.98,-82.81,COUNTY 911 REPORTED NUMEROUS TREES AND POWERLINES DOWN ACROSS THE COUNTY BEGINNING AROUND 710 PM. (FFC)
2311,UNK,5 E GREENSBORO,GREENE,GA,33.58,-83.1,NUMEROUS TREES DOWN.HIGHWAY 278 BLOCKED. STRAIGHT LINE WINDS. (FFC)
2315,UNK,WOLCOTT,LAMOILLE,VT,44.55,-72.46,LARGE TREE BRANCH DOWN AT INTERSECTION OF RT 15 AND GULF ROAD IN WOLCOTT. TIME ESTIMATED FROM RADAR. (BTV)
2315,58,CRAFTSBURY,ORLEANS,VT,44.64,-72.37,ESTIMATED 50-60 MPH WIND GUST IN CRAFTSBURY. TIME ESIMATED BY RADAR. (BTV)
2320,UNK,6 WSW HARTWELL,HART,GA,34.32,-83.02,MULTIPLE TREES DOWN IN THAT PART OF HART COUNTY WITH MANY BLOCKING ROADS. CLEANUP STILL ONGOING LATE THIS EVENING. (GSP)
2330,60,4 SSE GRAND PRAIRIE,DALLAS,TX,32.7,-96.95,ESTIMATED WIND GUST OF 60 ON NORTH SIDE OF JOE POOL LAKE (FWD)
2330,UNK,ABBEVILLE,ABBEVILLE,SC,34.18,-82.38,EM REPORTS NUMEROUS TREES AND LIMBS BLOWN DOWN THROUGHOUT THE COUNTY. (GSP)
2335,58,4 N WALDEN,CALEDONIA,VT,44.5,-72.22,(BTV)
2340,UNK,20 S ALDER,MADISON,MT,45.03,-112.11,ONE HALF INCH DIAMETER HAIL REMAINED AFTER STORM MOVED THROUGH THE AREA 20 MILES SOUTH OF ALDER. SOME MELTING POSSIBLE. NEARBY HILLS STILL WHITE DUE TO HAIL COVERING TH (TFX)
2340,UNK,5 ENE BIG SKY,GALLATIN,MT,45.28,-111.23,TREE FELL DOWN OVER HIGHWAY 191...CLOSING THE ROAD UNTIL THE TREE WAS REMOVED. TIME AND EXACT LOCATION OF EVENT IS ESTIMATED. (TFX)
2343,UNK,GRASSY CREEK,ASHE,NC,36.57,-81.4,TREE DOWN ON OLD MILL ROAD (RNK)
2345,UNK,MCINTYRE,WILKINSON,GA,32.85,-83.19,COUNTY 911 CENTER REPORTED NUMEROUS TREES AND POWERLINES DOWN ACROSS THE COUNTY BEGINNING AROUND 745 PM. (FFC)
2345,UNK,SCOTTSBORO,BALDWIN,GA,33.02,-83.23,BALDWIN COUNTY SHERIFFS OFFICE REPORTED NUMEROUS TREES DOWN...ESPECIALLY NEAR HWY 24 AND DEEPSTEP ROAD...WAVEY ROAD...AND GORDON HIGHWAY NEAR THE BALDWIN-WILKINSON COUN (FFC)
2348,UNK,ST. JOHNSBURY,CALEDONIA,VT,44.43,-72.02,TREES DOWN IN ST. JOHNSBURY PER ST. JOHNSBURY FIRE DEPT. TIME ESTIMATED FROM RADAR. (BTV)
2350,UNK,LYMAN,GRAFTON,NH,44.24,-72.03,MULTIPLE TREES DOWN THROUGHOUT LYMAN...TIME ESTIMATED BY RADAR (GYX)
2355,UNK,LACONA,WARREN,IA,41.19,-93.38,3 FOOT DIAMETER TREE BLOWN OVER (DMX)
0000,UNK,4 ENE BOONE,WATAUGA,NC,36.22,-81.6,FEW TREES DOWN (RNK)
0000,UNK,LUNENBURG,ESSEX,VT,44.46,-71.68,TREES DOWN (BTV)
0002,UNK,FRANCONIA,GRAFTON,NH,44.23,-71.75,MULTIPLE TREES DOWN THROUGHOUT FRANCONIA...TIME ESTIMATED BY RADAR (GYX)
0010,UNK,MOUNT CARMEL,MCCORMICK,SC,34.01,-82.51,NUMEROUS TREES DOWN IN THE MT. CARMEL AREA (CAE)
0010,UNK,WHITEFIELD,LINCOLN,ME,44.17,-69.63,MULTIPLE TREES REPORTED DOWN IN WHITEFIELD...TIME ESTIMATED BY RADAR (GYX)
0010,UNK,WHITEFIELD,COOS,NH,44.38,-71.61,MULTIPLE TREES REPORTED DOWN IN WHITEFIELD...TIME ESTIMATED BY RADAR (GYX)
0015,60,4 ENE BOONE,WATAUGA,NC,36.22,-81.6,HAIL UP TO DIME SIZE FELL. (RNK)
0015,UNK,9 NE BIG SKY,GALLATIN,MT,45.34,-111.17,TREE FELL DOWN OVER HIGHWAY 191...CLOSING THE ROAD UNTIL THE TREE WAS REMOVED. TREE DIAMETER WAS 2.5 FEET. ESTIMATED WIND GUSTS NEAR 60 MPH. (TFX)
0017,UNK,BOONE,WATAUGA,NC,36.21,-81.67,TREE DOWN ON WIRES IN WILSONS RIDGE AREA (RNK)
0020,UNK,LINCOLNTON,LINCOLN,GA,33.83,-82.53,NUMEROUS TREES AND POWER LINES DOWN ACROSS THE COUNTY (CAE)
0030,UNK,GRUNDY,BUCHANAN,VA,37.28,-82.1,MULTIPLE TREES DOWN ALONG RT. 460 (RLX)
0034,104,1 E MOUNT WASHINGTON,COOS,NH,44.27,-71.28,(GYX)
0035,UNK,LEXINGTON,OGLETHORPE,GA,33.87,-83.11,NUMEROUS TREES DOWN ACROSS THE COUNTY BEGINNING AROUND 835 PM. (FFC)
0035,UNK,PHELPS,PIKE,KY,37.51,-82.16,SEVERAL TREES DOWN. (JKL)
0035,UNK,PEACHAM,CALEDONIA,VT,44.33,-72.17,TREES DOWN (BTV)
0038,UNK,CHELSEA,SHELBY,AL,33.33,-86.64,A FEW TREES BLOWN DOWN NEAR HIGHWAY 280 IN CHELSEA. WINDS ESTIMATED AT 50 MPH. (BMX)
0050,UNK,NORTH CONWAY,CARROLL,NH,44.05,-71.13,TREES AND WIRES DOWN ON BENNETT ROAD...TIME ESTIMATED BY RADAR (GYX)
0055,UNK,GREENSBORO,GREENE,GA,33.58,-83.18,COUNTY 911 CENTER REPORTED NUMEROUS TREES AND POWERLINES DOWN ACROSS THE COUNTY BEGINNING AROUND 855 PM. (FFC)
0055,UNK,4 E FARMINGTON,OCONEE,GA,33.78,-83.35,SHERIFF OFFICE REPORTED SEVERAL TREES DOWN EAST AND SOUTH OF FARMINGTON. (FFC)
0100,UNK,MACON,BIBB,GA,32.83,-83.64,MEDIA PASSED ALONG REPORT FROM BIBB COUNTY SHERIFF THAT A COUPLE OF TREES WERE DOWN ALONG I-475 IN MACON. ADDITIONALLY...POWERLINES WERE DOWN IN EAST MACON ON UPPER RIV (FFC)
0108,UNK,2 NNW HEADLAND,HENRY,AL,31.38,-85.36,TREE DOWN ON BROAD STREET. (TAE)
0110,UNK,2 SW DEARING,MCDUFFIE,GA,33.39,-82.42,TREES AND POWER LINES DOWN ALONG HOBBS MILL ROAD IN DEARING (CAE)
0119,UNK,10 W GRAY,JONES,GA,33.01,-83.71,8 TREES DOWN IN COUNTY. (FFC)
0120,UNK,OOLTEWAH,HAMILTON,TN,35.06,-85.09,SEVERAL TREES DOWN (MRX)
0120,UNK,EFFINGHAM,CARROLL,NH,43.76,-71,MULTIPLE TREES DOWN IN EFFINGHAM (GYX)
0130,UNK,RUMNEY,GRAFTON,NH,43.81,-71.81,TREE DOWN ON WIRES ON RTE 25 NEAR SCHOOL STREET (GYX)
0135,UNK,WAKEFIELD,CARROLL,NH,43.57,-71.03,MULTIPLE TREES DOWN IN WAKEFIELD (GYX)
0135,UNK,SKOWHEGAN,SOMERSET,ME,44.77,-69.72,TWO TREES DOWN ACROSS THE ROAD. (GYX)
0140,UNK,3 E MADISON,MORGAN,GA,33.6,-83.42,TWO TREES DOWN JUST EAST OF MADISON ON HWY 441. ONE TREE DOWN NE OF OF RUTLEDGE. (FFC)
0154,UNK,3 NE CLAYTON,BARBOUR,AL,31.91,-85.42,A FEW TREES BLOWN DOWN NEAR HIGHWAY 30 BETWEEN CLAYTON AND EUFAULA. WINDS ESTIMATED AT 50 MPH. (BMX)
0155,UNK,9 S GREENSBORO,GREENE,GA,33.45,-83.18,SEVERAL TREES AND POWERLINES DOWN ACROSS THE SOUTH PART OF THE COUNTY NEAR REYNOLDS PLANTATION. (FFC)
0230,UNK,CLEVELAND,BRADLEY,TN,35.18,-84.87,SEVERAL TREES AND POWER LINES DOWN AROUND CLEVELAND (MRX)
0355,UNK,ELBA,COFFEE,AL,31.42,-86.08,ONE TREE DOWN BLOCKING BOTH LANES OF COUNTY ROAD 305. (TAE)
0534,UNK,5 NNW FAYETTE,FAYETTE,AL,33.75,-87.87,TREES REPORTED DOWN BLOCKING THE ROADWAY AT MILE MARKER 2 ON ALABAMA HIGHWAY 107. WINDS ESTIMATED 40-50 MPH FROM RADAR. TIME ESTIMATED FROM RADAR. REPORTED THROUGH SOCI (BMX)
0630,UNK,3 S AMORY,MONROE,MS,33.94,-88.48,SEVERAL LARGE TREES BLOWN DOWN IN A SMALL AREA SOUTH OF AMORY. (MEG)
0730,UNK,WEST POINT,CLAY,MS,33.61,-88.64,REPORTS OF THREE TREES DOWN ON A HOUSE. (JAN)
0830,63,25 NE COPPER HARBOR,LSZ266,MI,47.73,-87.51,(MQT)
1140,UNK,LAUREL,JONES,MS,31.69,-89.14,REPORTS OF A TREE AND POWERLINE DOWN IN LAUREL. (JAN)
Time,Size,Location,County,State,Lat,Lon,Comments
1200,175,9 N WILBUR,LINCOLN,WA,47.89,-118.72,(OTX)
1400,100,4 W DRY FALLS JUNCTION,DOUGLAS,WA,47.62,-119.43,ALONG HIGHWAY 2 AND ST ANDREWS ROAD. (OTX)
1450,100,6 N COULEE DAM,OKANOGAN,WA,48.05,-118.98,(OTX)
1745,100,5 ESE LILESVILLE,ANSON,NC,34.95,-79.89,(RAH)
1850,100,10 W PELION,LEXINGTON,SC,33.76,-81.41,(CAE)
1900,100,2 N HARMONY,IREDELL,NC,35.99,-80.77,(GSP)
1911,100,2 N LUGOFF,KERSHAW,SC,34.26,-80.69,PUBLIC REPORTED 1.00 INCH HAIL AND MINOR FLOODING (CAE)
1916,100,JONAS RIDGE,BURKE,NC,35.97,-81.89,EMA RELAYED REPORT OF QUARTER SIZE HAIL. (GSP)
1955,100,2 S MCMILLAN,LUCE,MI,46.31,-85.69,(MQT)
2010,100,WASIOTO,BELL,KY,36.75,-83.69,HAIL SO HEAVY CANNOT SEE. HAS BEEN ONGOING FOR 5 MINS. (JKL)
2027,100,4 SSE BRISTOL TN,SULLIVAN,TN,36.51,-82.17,ONE INCH HAIL REPORTED AT THE INTERSECTION OF WEAVER PIKE AND OLD JONESBORO RD. (MRX)
2030,100,GREENOCK,ALLEGHENY,PA,40.31,-79.81,QUARTER SIZED HAIL IN GREENOCK (PBZ)
2035,100,3 SSE ELKO,BARNWELL,SC,33.34,-81.35,DISPATCH REPORTED 1 INCH HAIL AND TREES DOWN (CAE)
2037,175,3 S PALMETTO,COWETA,GA,33.48,-84.67,(FFC)
2042,175,3 WNW FAIRBURN,FULTON,GA,33.58,-84.63,(FFC)
2058,125,3 NE JACKSON,AIKEN,SC,33.36,-81.75,TREES DOWN AND PING PONG BALL SIZE HAIL IN JACKSON. (CAE)
2110,100,6 NE REXFORD,LINCOLN,MT,48.97,-115.08,DEPTH WAS 1 INCH. (MSO)
2115,100,9 NE CHATSWORTH,MURRAY,GA,34.86,-84.66,MULBERRY GAP MOUNTAIN BIKE GET-A-WAY REPORTED 1 INCH HAIL AND SEVERAL TREES DOWN ABOUT 9 MILES NE OF CHATSWORTH. (FFC)
2130,100,8 E ROLLINS,LAKE,MT,47.88,-114.03,(MSO)
2130,100,KALISPELL,FLATHEAD,MT,48.2,-114.31,(MSO)
2147,150,2 ESE CRESTON,FLATHEAD,MT,48.18,-114.1,SEVERAL VEHICLES WERE DAMAGED BY HAIL. (MSO)
2205,100,5 S HIRAM,PAULDING,GA,33.8,-84.76,GAS STATION ATTENDANT ON CORNER OF BROWNSVILLE ROAD AND HIGHWAY 92 REPORTED QUARTER SIZED HAIL AROUND 605 PM. (FFC)
2210,100,20 WSW DILLON,BEAVERHEAD,MT,45.1,-113.01,HAIL OF QUARTER SIZE AND SLIGHTLY LARGER FELL WITH THE STORM THAT PRODUCED FLASH FLOODING AT BANNACK STATE PARK. TIME IS ESTIMATED BASED UPON ESTIMATED TIME OF RAINFALL (TFX)
2210,150,6 N AVON,POWELL,MT,46.68,-112.6,HAIL BROKE ALL PORCH WINDOWS ON THE EAST SIDE OF THE HOUSE. HAIL COVERED THE GROUND. HAIL DURATION 8 MINUTES (MSO)
2214,200,4 NNW TAYLORS,GREENVILLE,SC,34.97,-82.33,HAIL LARGER THAN GOLF BALL SIZED FELL ALONG HIGHWAY 290 SOUTH OF LAKE ROBINSON. DAMAGE REPORTED BY THE HAIL. HAIL DESCRIBED AS HALF THE SIZE OF A MANS FIST. (GSP)
2223,100,CLEVELAND,WHITE,GA,34.6,-83.76,(FFC)
2235,100,19 S ALDER,MADISON,MT,45.05,-112.11,ESTIMATED HAIL UP TO QUARTER SIZE. (TFX)
2250,100,2 W CONYERS,ROCKDALE,GA,33.67,-84.05,PUBLIC REPORTED QUARTER SIZE HAIL WEST OF CONYERS ON INTERSTATE-20. (FFC)
2250,100,2 ENE AUBURN,BARROW,GA,34.02,-83.8,PUBLIC REPORTED NICKEL TO QUARTER SIZE HAIL 2 MILES ENE OF AUBURN. (FFC)
2255,100,ASHVILLE,ST. CLAIR,AL,33.83,-86.26,(BMX)
2300,125,2 SE HELENA,LEWIS AND CLARK,MT,46.58,-111.99,HALF-DOLLAR SIZED HAIL BETWEEN HELENA AND EAST HELENA AROUND 5PM MDT. (TFX)
2305,100,7 WNW ANDERSON,ANDERSON,SC,34.56,-82.76,NWS EMPLOYEE RELAYED REPORT OF QUARTER SIZE HAIL NEAR LAKE HARTWELL IN THE SANDY SPRINGS COMMUNITY. (GSP)
2311,100,2 ENE AUBURN,BARROW,GA,34.02,-83.8,PUBLIC REPORTED NICKEL TO QUARTER SIZE HAIL 2 MILES ENE OF AUBURN. (FFC)
2326,100,3 SE DACULA,GWINNETT,GA,33.95,-83.86,PUBLIC REPORTED QUARTER SIZE HAIL NEAR HARBIN. (FFC)
2344,100,4 S SHAWNEE,EFFINGHAM,GA,32.42,-81.42,SHAWNEE FIRE DEPARTMENT REPORTED QUARTER SIZE HAIL. (CHS)
0005,100,5 W CUT BANK,GLACIER,MT,48.63,-112.44,QUARTER-SIZED HAIL MEASURED 5 MILES WEST OF CUT BANK BETWEEN 600 AND 610 PM MDT. SMALL BRANCHES DOWN. (TFX)
0058,100,5 WNW SAND COULEE,CASCADE,MT,47.42,-111.26,ESTIMATED HAIL UP TO QUARTER SIZE FELL A FEW MILES NORTHWEST OF SAND COULEE. (TFX)
