Time,F_Scale,Location,County,State,Lat,Lon,Comments
Time,Speed,Location,County,State,Lat,Lon,Comments
1700,UNK,3 SW WATERPROOF,TENSAS,LA,31.78,-91.42,KNOE METEOROLOGIST GOT A PUBLIC REPORT OF NUMEROUS TREES DOWN AND SOME UPROOTED ALONG WITH SOME ROOF DAMAGE NORTHEAST OF CLAYTON IN TENSAS PARISH. (JAN)
0430,UNK,DOUGLAS,COFFEE,GA,31.51,-82.85,CENTRAL DISPATCH REPORTED A LARGE TREE DOWN THROUGH A HOUSE ON GASKIN AVENUE IN DOUGLAS. (JAX)
Time,Size,Location,County,State,Lat,Lon,Comments
1655,125,SICILY ISLAND,CATAHOULA,LA,31.85,-91.66,(JAN)
1805,100,LENA,LEAKE,MS,32.59,-89.59,HAIL RANGING FROM PEA TO QUARTER SIZE (JAN)
1822,100,BYRAM,HINDS,MS,32.19,-90.26,(JAN)
1853,100,3 SW LEESBURG,RANKIN,MS,32.41,-89.8,REPORTED THROUGH SOCIAL MEDIA (JAN)
