Time,F_Scale,Location,County,State,Lat,Lon,Comments
1938,UNK,1 NE ELKO,ELKO,NV,40.85,-115.74,AFTER COMPLETING A STORM SURVEY...A BRIEF TORNADO WAS CONFIRMED THROUGH PHOTOS OF VISIBILE DEBRIS. THIS TORNADO MAINLY MOVED OVER SAGEBRUSH AND NO VISBILE DAMAGE WAS FO (LKN)
1948,UNK,1 W ELKO,ELKO,NV,40.84,-115.78,TRAINED WEATHER SPOTTER SUBMITTED VIDEO OF A ROTATING WALL CLOUD...WHICH HAS BEEN VERIFIED AS AN EF0 TORNADO AFTER A STORM SURVEY AND EYE WITNESS ACCOUNTS. (LKN)
2005,UNK,W AURORA,ARAPAHOE,CO,39.7,-104.81,(BOU)
2010,UNK,3 S AURORA,ARAPAHOE,CO,39.66,-104.81,RAIN WRAPPED (BOU)
2030,UNK,E DENVER,DENVER,CO,39.73,-104.96,(BOU)
2030,UNK,4 NE AURORA,ADAMS,CO,39.74,-104.76,(BOU)
2045,UNK,WATKINS,ADAMS,CO,39.75,-104.6,(BOU)
2225,UNK,3 ENE BYERS,ARAPAHOE,CO,39.73,-104.17,ON THE GROUND FOR AT LEAST 5 MINUTES (BOU)
2225,UNK,4 NE BYERS,ADAMS,CO,39.75,-104.17,BRIEF TOUCHDOWN... SMALL TORNADO (BOU)
2306,UNK,2 SSE LEADER,ADAMS,CO,39.87,-104.04,(BOU)
2330,UNK,17 W MOUNT TENABO,LANDER,NV,40.21,-116.93,EF0 TORNADO WAS CONFIRMED THROUGH MULTIPLE PICTURES FROM MEDIA.A STORM SURVEY WAS COMPLETED...BUT NO MEASURABLE DAMAGE WAS FOUND. WINDS ESTIMATED AT 70 TO 80 MPH. (LKN)
0105,UNK,10 NW AMERICAN FALLS,POWER,ID,42.86,-113.01,TORNADO CONFIRMED ON THE GROUND FROM 640PM TO 700PM. EST LOCATION FROM 88D RADAR. (PIH)
0115,UNK,14 N WHEATLAND,PLATTE,WY,42.25,-104.96,NEAR MM 90 ON INTERSTATE 25. SEVERAL PHOTOS TAKEN. (CYS)
0421,UNK,1 SE VODA,TREGO,KS,39.03,-100.01,SMALL TORNADO... SMALL ROPE... WITH DUST AND VISIBLE FUNNEL. TORNADO LIFTED 2 MILES SOUTH OF SPOTTER LOCATION. (DDC)
Time,Speed,Location,County,State,Lat,Lon,Comments
1950,UNK,2 W ELKO,ELKO,NV,40.84,-115.8,TRAINED WEATHER SPOTTER REPORTS ROTATING WALL CLOUD...VERIFIED THROUGH VIDEO. ALSO SHINGLES AND ROOFING DEBRIS WERE REMOVED FROM A STRUCTURE. SMALL HAIL WAS ALSO REPORT (LKN)
2040,60,6 S INDIANAPOLIS,MARION,IN,39.69,-86.15,(IND)
2054,60,AVON,HENDRICKS,IN,39.76,-86.38,(IND)
2055,UNK,2 ESE GREENWOOD,JOHNSON,IN,39.6,-86.08,TREES SNAPPED OR UPROOTED (IND)
2055,63,SAVOY,CHAMPAIGN,IL,40.06,-88.25,THUNDERSTORM WIND GUST AT THE CHAMPAIGN AIRPORT...WILLARD AIRPORT...IN THE CITY OF SAVOY. (ILX)
2058,UNK,3 W SAVOY,CHAMPAIGN,IL,40.06,-88.31,NUMEROUS POWER POLES DOWN ON RISING ROAD (ILX)
2100,UNK,4 NNW SPRINGFIELD,CLARK,OH,39.98,-83.84,LG TREE DOWN (ILN)
2100,UNK,LEBANON,BOONE,IN,40.05,-86.47,NUMEROUS TREES AND POWER LINES DOWN. TIME ESTIMATED (IND)
2105,UNK,1 SE MOORESVILLE,MORGAN,IN,39.61,-86.36,TREES DOWNED. (IND)
2127,UNK,2 SSW HUBER HEIGHTS,MONTGOMERY,OH,39.83,-84.13,TREE DOWN BLOCKING PACKARD DR NEAR KITRIDGE RD. TIME ESTIMATED FROM RADAR. (ILN)
2130,UNK,10 SW SHELBYVILLE,SHELBY,IN,39.42,-85.91,2 TREES UPROOTED AND TRAMPOLINE THROWN ON A TREE. (IND)
2141,UNK,5 N FAIRBORN,CLARK,OH,39.88,-84.01,TREE AND POWER LINE DOWN IN MEDWAY. LIMB ON A POWER LINE ON PINE RD IN NEARBY BETHEL TOWNSHIP. (ILN)
2141,UNK,LEBANON,BOONE,IN,40.05,-86.47,A THREE-FOOT DIAMETER TREE DOWN ALONG WITH A UTILITY POLE...MANY FLOODING REPORTS RECEIVED BUT NO SPECIFICS (IND)
2150,UNK,XENIA,GREENE,OH,39.69,-83.94,1 TREE DOWN NEAR US 68. TIME ESTIMATED FROM RADAR. (ILN)
2154,UNK,5 E GREENWOOD,JOHNSON,IN,39.62,-86.02,TWO-FOOT DIAMETER SECTION OF A TREE SPLIT...BLOCKING ROCKLANE ROAD...PUBLIC SAFETY ON SCENE (IND)
2155,UNK,2 S NASHVILLE,WASHINGTON,IL,38.32,-89.38,POWER LINES DOWN JUST SOUTH OF NASHVILLE. POWER OUTAGES REPORTED IN NASHVILLE AND OKAWVILLE... INCLUDING AT THE SHERIFFS OFFICE. (LSX)
2158,UNK,FLAT ROCK,SHELBY,IN,39.36,-85.83,TREES DOWN IN SOUTHERN SHELBY COUNTY NEAR COUNTY ROAD 750 SOUTH AND COUNTY ROAD 350 EAST...FLAT ROCK IS ROUGH APPROXIMATION OF CROSS ROADS (IND)
2200,UNK,1 NE HOPE,BARTHOLOMEW,IN,39.31,-85.75,TREES DOWNED. (IND)
2208,UNK,NAPOLEON,RIPLEY,IN,39.21,-85.33,1 TREE AND 1 TREE LIMB KNOCKED DOWN BY WIND GUST. (ILN)
2220,UNK,4 N PINCKNEYVILLE,PERRY,IL,38.14,-89.38,POWER AND CABLE LINES DOWN. POWER OUTAGES ALONG HIGHWAY 127 NORTH OF PINCKNEYVILLE. (PAH)
2224,UNK,1 SW REXVILLE,RIPLEY,IN,38.94,-85.35,SIDE OF BARN AND ROOF DAMAGED...SHED MOVED...TREES DOWN. CORRECTED TIME OF EVENT BASED ON RADAR. (ILN)
2229,UNK,1 W PORT TOBACCO VILLAG,CHARLES,MD,38.51,-77.03,A TREE WAS REPORTED DOWN ON SHIRLEY BOULEVARD AT ROUTE 6. (LWX)
2235,63,1 ENE MORTON,COCHRAN,TX,33.73,-102.74,(LUB)
2235,UNK,TOLONO,CHAMPAIGN,IL,39.99,-88.26,REPORT OF A LARGE TREE ON A TRAIN IN TOWN. A SMALL 6FT TREE SPLIT IN HALF AND MANY SMALL BRANCHES DOWN. DELAYED REPORT. (ILX)
2245,UNK,1 NE REXVILLE,RIPLEY,IN,38.96,-85.32,SEVERAL TREES DOWN. (ILN)
2246,UNK,3 ESE FAULKNER,CHARLES,MD,38.42,-76.93,A TREE WAS REPORTED DOWN ON PENNS HILL ROAD AT EARNSHAW LANE. (LWX)
2250,UNK,5 S BEECH GROVE,MARION,IN,39.64,-86.09,TREES DOWN (IND)
2250,UNK,2 NE BYERS,ARAPAHOE,CO,39.73,-104.2,POWER LINES AND TREES DOWN (BOU)
2300,UNK,CARROLLTON,CARROLL,KY,38.68,-85.16,WAREHOUSE AT POLK AND 11TH CARROLLTON DAMAGED (ILN)
2304,70,CARROLLTON,CARROLL,KY,38.68,-85.16,3 LARGE LIMBS DOWN. (ILN)
2310,UNK,VEVAY,SWITZERLAND,IN,38.75,-85.07,1 LARGE TREE DOWN ON MARKET STREET AND SOME OTHER TREE LIMBS DOWN IN TOWN. (ILN)
2320,60,1 NE AMHERST,LAMB,TX,34.02,-102.4,(LUB)
2330,UNK,BETHLEHEM,HENRY,KY,38.4,-85.07,TREES DOWN. (LMK)
2338,UNK,UNION,BOONE,KY,38.95,-84.67,1 TREE DOWN. TIME ESTIMATED FROM RADAR. (ILN)
2345,UNK,3 SW XENIA,GREENE,OH,39.66,-83.98,LARGE TREE BRANCH BROKEN OFF ON SHANNON LN. ANOTHER LARGE BRANCH FELL ONTO HOUSE ON GREYSTOKE DR. TIME ESTIMATED FROM RADAR. (ILN)
2350,62,2 NE DIMMITT,CASTRO,TX,34.57,-102.29,(LUB)
2354,UNK,3 WSW STAMPING GROUND,SCOTT,KY,38.25,-84.74,TREES DOWN ALONG PEA RIDGE ROAD AND OTHER LOCATIONS ALONG THE FRANKLIN...SCOTT COUNTY LINE. (LMK)
2355,UNK,2 SSW CROTHERSVILLE,JACKSON,IN,38.77,-85.85,TREES DOWNED. (IND)
0000,70,1 S HART,CASTRO,TX,34.37,-102.11,65-70 MPH WIND GUST (LUB)
0011,UNK,1 N WILMINGTON,CLINTON,OH,39.46,-83.83,ONE TREE DOWNED. TIME OF EVENT ESTIMATED FROM RADAR. (ILN)
0012,UNK,OLTON,LAMB,TX,34.18,-102.14,DOWNED POWERLINE IN OLTON (LUB)
0015,UNK,2 W SMITHFIELD,HENRY,KY,38.39,-85.3,DELAYED REPORT. SEVERAL PEAR TREES DOWN NEAR RADCLIFFE ROAD. PEA TO LIMA-BEAN SIZED HAIL PILED IN DRIFTS. (LMK)
0016,UNK,1 S PROSPECT,JEFFERSON,KY,38.33,-85.61,POWER LINES DOWN (LMK)
0020,UNK,1 W PEWEE VALLEY,OLDHAM,KY,38.31,-85.51,TREES DOWN (LMK)
0025,62,2 ENE TULIA,SWISHER,TX,34.55,-101.74,(LUB)
0033,UNK,SHELBYVILLE,SHELBY,KY,38.22,-85.23,TREES AND TRAFFIC LIGHTS DOWN NEAR SHELBYVILLE. (LMK)
0035,58,LEXINGTON,FAYETTE,KY,38.04,-84.46,AT BLUEGRASS AIRPORT ASOS. (LMK)
0037,UNK,TULIA,SWISHER,TX,34.54,-101.77,SEMI-TRUCK BLOWN OVER ALONG INTERSTATE 27 AT TULIA DUE TO THE GUSTY WINDS (LUB)
0040,UNK,4 ESE MIDDLETOWN,JEFFERSON,KY,38.23,-85.45,TREES DOWN ON EASTWOOD...FISHERVILLE ROAD. (LMK)
0045,60,7 S FRANKFORT,ANDERSON,KY,38.09,-84.87,(LMK)
0045,UNK,2 NNE ALTON,FRANKLIN,KY,38.11,-84.92,LARGE LIMBS DOWN...ESTIMATED 65 MPH GUST (LMK)
0045,60,4 WSW MILLVILLE,FRANKLIN,KY,38.12,-84.88,(LMK)
0053,UNK,1 E NICHOLASVILLE,JESSAMINE,KY,37.88,-84.56,TREE DOWN ON A GARAGE. (LMK)
0102,UNK,HARRODSBURG,MERCER,KY,37.77,-84.85,ROOF DAMAGE AT AUTO PARTS STORE (LMK)
0105,65,3 N HARRODSBURG,MERCER,KY,37.81,-84.85,(LMK)
0105,UNK,1 SW REXVILLE,RIPLEY,IN,38.94,-85.35,SIDE OF BARN AND ROOF DAMAGED... SHED MOVED... TREES DOWN (ILN)
0106,UNK,RICHMOND,MADISON,KY,37.74,-84.29,A SEVERE LINE OF STORMS DOWNED TREES AND BROUGHT SCATTERED POWER OUTAGES THROUGHOUT THE COUNTY. SEVERAL TREES WERE DOWNED IN RICHMOND. (LMK)
0115,UNK,DANVILLE,BOYLE,KY,37.64,-84.77,TREES AND POWER LINES DOWN OVER MUCH OF THE COUNTY. (LMK)
0115,UNK,4 N CLINTON,VERMILLION,IN,39.72,-87.41,TREES DOWNED BETWEEN CR1050S AND 1150S NEAR CR75W. (IND)
0120,UNK,LANCASTER,GARRARD,KY,37.62,-84.58,TREES DOWN. ALSO REPORTED HAIL BUT THE SIZE WAS NOT SPECIFIED. (LMK)
0125,UNK,STANFORD,LINCOLN,KY,37.53,-84.66,TREES DOWN THROUGHOUT THE COUNTY. (LMK)
0130,UNK,IRVINE,ESTILL,KY,37.7,-83.97,TREES WERE REPORTED TO HAVE BEEN BLOWN DOWN. (JKL)
0142,UNK,MIDDLEBURG,CASEY,KY,37.35,-84.82,A FEW LARGE TREES DOWN. (LMK)
0143,UNK,BRODHEAD,ROCKCASTLE,KY,37.4,-84.42,2 POWER LINES DOWN WITHIN CITY LIMITS OF BRODHEAD. BOTH SILVER STREET AND SCHOOL STREET BLOCKED BY TREES. (JKL)
0145,UNK,MCKEE,JACKSON,KY,37.43,-84,FOUR TREES WERE BLOWN DOWN ON HWY 290. (JKL)
0145,UNK,WESTPORT,DECATUR,IN,39.18,-85.58,TREES DOWNED. (IND)
0145,UNK,NORWALK,HURON,OH,41.24,-82.61,TREE FELL ONTO A HOUSE (CLE)
0200,UNK,LEVI,OWSLEY,KY,37.48,-83.72,TREE BLOCKING THE ROAD ON 30 WEST. (JKL)
0202,UNK,MARETBURG,ROCKCASTLE,KY,37.36,-84.39,LARGE TREE LIMB ABOUT 6 INCHES IN DIAMETER IN ROADWAY. (JKL)
0205,UNK,EAST BERNSTADT,LAUREL,KY,37.19,-84.12,TREES AND POWERLINES WERE REPORTED TO HAVE BEEN BLOWN DOWN. THE TIME IS ESTIMATED FROM RADAR. (JKL)
0205,UNK,SEXTONS CREEK,CLAY,KY,37.32,-83.78,3 FOOT DIAMETER TREE ON HOUSE. TIME ESTIMATED OFF OF RADAR. (JKL)
0214,UNK,TURKEY,BREATHITT,KY,37.48,-83.51,WALNUT TREE BLOWN DOWN JUST OFF OF HIGHWAY 30 WEST. (JKL)
0215,65,REELSVILLE,PUTNAM,IN,39.55,-86.96,(IND)
0220,UNK,TUTTLE,LAUREL,KY,37.02,-83.95,TREES AND POWERLINES WERE REPORTED TO HAVE BEEN BLOWN DOWN. THE TIMES IS ESTIMATED FROM RADAR. (JKL)
0225,UNK,GRAY,KNOX,KY,36.94,-84.01,TREES AND POWERLINES WERE REPORTED TO HAVE BEEN BLOWN DOWN. THE TIME IS ESTIMATED FROM RADAR. (JKL)
0225,UNK,1 S DANA,VERMILLION,IN,39.79,-87.49,TREES DOWN. ALSO...MINOR STREET FLOODING. (IND)
0230,UNK,5 WSW HYDEN,LESLIE,KY,37.13,-83.46,A TREE AND POWERLINES WERE BLOWN DOWN ON A HOME ON CHARITY LANE (JKL)
0244,UNK,1 SE INGRAM,BELL,KY,36.72,-83.79,MULTIPLE TREES WERE REPORTED TO HAVE BEEN BLOWN DOWN BETWEEN FRAKES AND PINEVILLE (JKL)
0244,UNK,BEVERLY,BELL,KY,36.93,-83.53,LARGE TREE BRANCHES WERE BLOWN DOWN ONTO HIGHWAY 2011. (JKL)
0245,UNK,HAZARD,PERRY,KY,37.25,-83.2,ONE TREE WAS REPORTED TO HAVE BEEN BLOWN DOWN ON A HOUSE NEAR THE OLD HAZARD HIGH SCHOOL. (JKL)
0250,UNK,WALLINS CREEK,HARLAN,KY,36.83,-83.41,TREES DOWN. (JKL)
0253,UNK,CUBAGE,BELL,KY,36.7,-83.52,SEVERAL TREES WERE BLOWN DOWN OR UPROOTED NEAR CUBAGE ALONG KY HIGHWAY 987. (JKL)
0302,UNK,E ASHLAND,ASHLAND,OH,40.87,-82.32,TREE DOWN AT A RESIDENCE (CLE)
0310,UNK,HARROGATE-SHAWANEE,CLAIBORNE,TN,36.58,-83.64,NUMEROUS TREES REPORTED DOWN ACROSS THE COUNTY... INCLUDING THE TOWNS OF HARROGATE...CUMBERLAND GAP...AND NEW TAZEWELL. (MRX)
0313,59,OAKLEY,LOGAN,KS,39.13,-100.85,(GLD)
0313,UNK,OAKLEY,LOGAN,KS,39.13,-100.85,DELAYED REPORT. AROUND 10 INDIVIDUAL 2 INCH DIAMETER GREEN TREE BRANCHES DOWN ACROSS OAKLEY FROM WIND WEDNESDAY EVENING. TIME ESTIMATED FROM MEASURED WIND GUST AT AWOS. (GLD)
0315,UNK,JONESVILLE,LEE,VA,36.69,-83.12,SEVERAL TREES REPORTED DOWN ACROSS THE COUNTY. (MRX)
0315,UNK,WHITESBURG,LETCHER,KY,37.12,-82.83,GUTTERS AND DOWNSPOUTS BLOWN OFF OF HOUSE. TIME ESTIMATED OFF OF KY MESONET. (JKL)
0322,71,ANGELUS,SHERIDAN,KS,39.19,-100.69,(GLD)
0340,UNK,KINGSPORT,SULLIVAN,TN,36.53,-82.56,SEVERAL TREES REPORTED DOWN AROUND KINGSPORT...AND ANOTHER TREE REPORTED DOWN IN BLUFF CITY. (MRX)
0400,UNK,ELIZABETHTON,CARTER,TN,36.34,-82.23,COUPLE OF TREES DOWN AROUND ELIZABETHTON. (MRX)
0440,UNK,15 N JERSEY SHORE,LYCOMING,PA,41.42,-77.27,TREE DOWN ALONG RT 287 (CTP)
0445,UNK,2 ESE GROVE CITY,MERCER,PA,41.15,-80.05,TREES DOWN BLOCKING E MAIN ST EXT (PBZ)
0500,UNK,10 E BEDFORD,LAWRENCE,IN,38.86,-86.3,TREES DOWNED. (IND)
0505,UNK,12 SW NORTH VERNON,JENNINGS,IN,38.88,-85.79,TREES DOWNED. (IND)
0505,UNK,12 S TERRE HAUTE,VIGO,IN,39.3,-87.38,TREES DOWNED ALONG FRENCH DRIVE NORTH OF PIMENTO. (IND)
0510,UNK,SALEM,WASHINGTON,IN,38.6,-86.1,TREE DOWN ON A HOUSE IN THE TOWN OF SALEM. (LMK)
0511,UNK,SCOTTSBURG,SCOTT,IN,38.69,-85.78,TREES DOWN COUNTYWIDE. (LMK)
0555,UNK,2 SSE BUCKNER,OLDHAM,KY,38.36,-85.42,TREE DOWN ON HOUSE (LMK)
0605,UNK,BLANKET HILL,ARMSTRONG,PA,40.76,-79.42,TREES DOWN IN KITTANNING TOWNSHIP (PBZ)
0720,UNK,NEW SALISBURY,HARRISON,IN,38.32,-86.1,TREE DOWN OVER A ROAD IN TOWN. (LMK)
0758,UNK,3 W WARRENTON,WASHINGTON,MD,39.72,-77.85,TREES DOWN NEAR FAIRVIEW CHURCH ROAD. (LWX)
0815,UNK,3 ENE BERKELEY,BERKELEY,WV,39.51,-77.88,A TREE WAS REPORTED DOWN ON JACOBS ROADS NEAR SCRABBLE ROAD. (LWX)
0831,UNK,1 S MYERSVILLE,FREDERICK,MD,39.49,-77.57,TREES AND POLES DOWN AT RT 17 AND OLD HAGERSTOWN ROAD (LWX)
0857,UNK,RADCLIFF,HARDIN,KY,37.82,-85.94,WET MICROBURST DETECTED ON RADAR. MULTIBLE TREES DOWN RIGHT IN AND NEAR RATCLIFF. (LMK)
0920,UNK,4 SE ELIZABETHTOWN,HARDIN,KY,37.66,-85.82,TREES UPROOTED...POWER LINES DOWN (LMK)
0940,UNK,HODGENVILLE,LARUE,KY,37.57,-85.74,WIDESPREAD WIND DAMAGE IN HODGENVILLE. SEVERAL TREES TOPPLED ONTO HOUSES AND STREETS. (LMK)
0940,68,2 E HODGENVILLE,LARUE,KY,37.57,-85.7,A 68 MPH WIND GUST MEASURED BY THE KENTUCKY MESONET SITE EAST OF HODGENVILLE. (LMK)
0955,UNK,3 NE GLENN DALE,PRINCE GEORGES,MD,39.02,-76.76,A TREE WAS REPORTED DOWN AT THE ENTRANCE TO BOWIE STATE UNIVERSITY. (LWX)
1015,UNK,CAMPBELLSVILLE,TAYLOR,KY,37.35,-85.35,STRUCTURAL DAMAGE TO HOMES ON MAPLE AVENUE. PARTIAL ROOF COLLAPSES...SIDING RIPPED OFF HOMES...AND WIDESPREAD TREE DAMAGE. (LMK)
1036,UNK,RESERVE,BROWN,KS,39.98,-95.56,POWER LINES DOWN (TOP)
Time,Size,Location,County,State,Lat,Lon,Comments
1808,100,FRANKFORT,CLINTON,IN,40.28,-86.51,WIND GUSTS UP TO 50 MPH ALSO REPORTED. (IND)
1813,100,CLINTON,PARKE,IN,39.66,-87.4,REPORTED JUST SOUTH OF FRANKFORT AIRPORT. (IND)
1843,175,5 NE LEBANON,BOONE,IN,40.1,-86.41,CR 375 E AND SR 47. (IND)
1908,100,6 NE KIRKLIN,CLINTON,IN,40.25,-86.28,(IND)
1920,100,4 ENE CONIFER,JEFFERSON,CO,39.54,-105.23,(BOU)
1931,150,PORT JEFFERSON,SHELBY,OH,40.33,-84.09,TIME ESTIMATED FROM RADAR. (ILN)
1934,100,N AURORA,ARAPAHOE,CO,39.7,-104.81,(BOU)
1936,150,DE GRAFF,LOGAN,OH,40.31,-83.91,TIME ESTIMATED FROM RADAR. (ILN)
1948,100,1 W ELKO,ELKO,NV,40.84,-115.78,MULTIPLE REPORTS FROM THE POST OFFICE AND CAR WASH OF QUARTER SIZE HAIL. LASTED LESS THAN 5 MINUTES. (LKN)
1949,175,ROSEWOOD,CHAMPAIGN,OH,40.22,-83.96,TIME ESTIMATED FROM RADAR. (ILN)
1952,100,ST. HENRY,MERCER,OH,40.42,-84.63,(ILN)
2010,100,4 SSW WEST MANSFIELD,LOGAN,OH,40.34,-83.57,HAIL OBSERVED ON EAST FOUNDRY STREET. TIME ESTIMATED FROM RADAR. (ILN)
2014,100,ARGENTA,MACON,IL,39.99,-88.82,(ILX)
2015,150,ROSSVILLE,VERMILION,IL,40.38,-87.67,TRAINING SPOTTER REPORTED 1.5 INCH HAIL RELAYED BY COUNTY EMERGENCY MANAGEMENT. (ILX)
2016,125,1 E INDIANAPOLIS,MARION,IN,39.78,-86.13,TIME ESTIMATED. VIA FACEBOOK. (IND)
2020,250,1 NE WESTVILLE,CHAMPAIGN,OH,40.12,-83.82,(ILN)
2020,100,FARMER CITY,DE WITT,IL,40.24,-88.64,SPOTTER REPORT RELAYED TO COUNTY EMERGENCY MANAGEMENT. (ILX)
2030,125,2 ESE BARTLETT,WASHINGTON,OH,39.41,-81.78,(RLX)
2034,175,6 SE INDIANAPOLIS,MARION,IN,39.71,-86.07,NEAR THE INTERSECTION OF INTERSTATE 65 AND 465 (IND)
2034,150,PITTSBORO,HENDRICKS,IN,39.87,-86.46,LOCATED AT COUNTY ROAD 550 NORTH AND COUNTRY ROAD 400 EAST (IND)
2035,150,2 NE DANVILLE,VERMILION,IL,40.16,-87.59,1.5 INCH HAIL NORTHEAST OF DANVILLE NEAR AIRPORT. FROM COUNTY EMA. (ILX)
2036,250,4 WSW URBANA,CHAMPAIGN,OH,40.08,-83.82,FELL ON BAIR RD. TIME ESTIMATED FROM RADAR. (ILN)
2040,150,BEMENT,PIATT,IL,39.92,-88.57,(ILX)
2041,175,GIBSON CITY,FORD,IL,40.47,-88.38,(LOT)
2043,175,KINGMAN,FOUNTAIN,IN,39.97,-87.28,(IND)
2046,150,4 NNW CHATFIELD RESERVO,JEFFERSON,CO,39.61,-105.11,(BOU)
2050,125,6 SE INDIANAPOLIS,MARION,IN,39.71,-86.07,TIME ESTIMATED. VIA FACEBOOK. (IND)
2050,175,2 ENE TREMONT CITY,CLARK,OH,40.03,-83.8,TIME ESTIMATED FROM RADAR. (ILN)
2054,100,SHELBYVILLE,SHELBY,IN,39.52,-85.78,FLOODING OF SOME ROADS AND PARKING LOTS (IND)
2100,100,6 SW DENVER INTL AIRPOR,DENVER,CO,39.8,-104.76,CAR DEMTS AND SEVERAL SHINGLES DAMAGED (BOU)
2100,150,2 S CHAMPAIGN,CHAMPAIGN,IL,40.08,-88.26,IL-CP-90 (ILX)
2106,200,4 NW TUSCOLA,DOUGLAS,IL,39.84,-88.33,(ILX)
2110,100,DAVISVILLE,WOOD,WV,39.2,-81.5,ALSO REPORTED ESTIMATED 60 MPH GUSTS....NO WIND DAMAGE NOTED...ONGOING MINOR STREET FLOODING IN DAVISVILLE (RLX)
2119,100,COATESVILLE,HENDRICKS,IN,39.69,-86.67,(IND)
2125,400,1 WNW TUSCOLA,DOUGLAS,IL,39.8,-88.3,LARGEST HAILSTONES WERE 4 INCHES. MANY 3 INCH HAILSTONES NEARBY. 4 INCH HAIL ALSO REPORTED BY NSSL/SHAVE PROJECT. (ILX)
2128,175,COLORADO SPRINGS,EL PASO,CO,38.83,-104.82,(PUB)
2129,100,1 W WOODLAND PARK,TELLER,CO,39,-105.06,AT PROSPECT LAKE (PUB)
2130,100,12 SSW CRAWFORDSVILLE,MONTGOMERY,IN,39.88,-86.98,(IND)
2130,100,5 WNW TIPP CITY,MIAMI,OH,39.99,-84.26,DIME TO QUARTER SIZE HAIL ON NASHVILLE RD WEST OF I-75. (ILN)
2131,100,4 E CARDINGTON,MORROW,OH,40.5,-82.82,(CLE)
2135,150,5 WNW BLACK FOREST,EL PASO,CO,39.05,-104.78,HAIL BETWEEN 335 PM AND 355 PM MDT (PUB)
2135,100,MARYSVILLE,UNION,OH,40.24,-83.37,(ILN)
2139,100,CLAYTON,HENDRICKS,IN,39.69,-86.52,(IND)
2139,175,5 N BENNETT,ADAMS,CO,39.83,-104.42,(BOU)
2141,200,3 N HINDSBORO,DOUGLAS,IL,39.73,-88.13,(ILX)
2142,100,GREENVILLE,DARKE,OH,40.1,-84.62,(ILN)
2145,125,GREENSBURG,DECATUR,IN,39.34,-85.48,(IND)
2147,100,TIPP CITY,MIAMI,OH,39.96,-84.18,ALSO 50 MPH MEASURED WINDS. (ILN)
2152,120,COLORADO SPRINGS,EL PASO,CO,38.83,-104.82,(PUB)
2153,100,4 E CALHAN,EL PASO,CO,39.04,-104.22,(PUB)
2155,100,1 SE WINK,WINKLER,TX,31.75,-103.14,(MAF)
2156,100,1 W PLAINFIELD,HENDRICKS,IN,39.7,-86.41,(IND)
2158,100,6 E MONUMENT,EL PASO,CO,39.1,-104.76,(PUB)
2200,100,MOORESVILLE,MORGAN,IN,39.62,-86.37,(IND)
2200,100,BROCTON,EDGAR,IL,39.72,-87.93,HAIL SIZE WAS MAINLY PEAS TO NICKELS WITH LARGEST HAIL THE SIZE OF QUARTERS. (ILX)
2215,275,WAVELAND,MONTGOMERY,IN,39.88,-87.05,VIA FACEBOOK. (IND)
2220,200,WHITE HEATH,PIATT,IL,40.08,-88.5,(ILX)
2222,150,5 WNW GOODNIGHT,ARMSTRONG,TX,35.07,-101.26,(AMA)
2227,100,3 N PINCKNEYVILLE,PERRY,IL,38.12,-89.38,(PAH)
2239,175,15 N STRASBURG,ADAMS,CO,39.95,-104.3,HAIL COVERS THE GROUND TO A DEPTH OF FOUR INCHES (BOU)
2256,100,2 ESE MORRISVILLE,FAUQUIER,VA,38.49,-77.67,(LWX)
2304,125,CARROLLTON,CARROLL,KY,38.68,-85.16,(ILN)
2306,175,WILLARD AIRPORT,CHAMPAIGN,IL,40.04,-88.28,(ILX)
2318,100,6 NE WILEY,PROWERS,CO,38.2,-102.63,(PUB)
2320,125,NEW VIENNA,CLINTON,OH,39.32,-83.69,(ILN)
2350,100,1 NNE HANOVER,JEFFERSON,IN,38.74,-85.46,(LMK)
2352,100,XENIA,GREENE,OH,39.69,-83.94,(ILN)
0005,100,4 NW WILMINGTON,CLINTON,OH,39.49,-83.87,NICKEL TO QUARTER SIZE (ILN)
0007,125,12 SSW VONA,KIT CARSON,CO,39.14,-102.83,(GLD)
0020,250,4 SSW PEEBLES,ADAMS,OH,38.9,-83.44,VIA FACEBOOK PHOTO (ILN)
0024,100,BROADLANDS,CHAMPAIGN,IL,39.91,-88,SHREDDED LEAVES IN THE TREES. (ILX)
0041,100,SIDELL,VERMILION,IL,39.91,-87.82,(ILX)
0045,100,4 W BLUE CREEK,ADAMS,OH,38.78,-83.4,TIME ESTIMATED FROM RADAR. (ILN)
0106,100,RICHMOND,MADISON,KY,37.74,-84.29,(LMK)
0106,125,CHRISMAN,EDGAR,IL,39.8,-87.67,(ILX)
0115,175,1 NNE MAHOMET,CHAMPAIGN,IL,40.21,-88.39,(ILX)
0115,100,2 E CASTALIA,ERIE,OH,41.4,-82.77,(CLE)
0120,100,GUERNSEY,PLATTE,WY,42.27,-104.74,(CYS)
0128,100,2 W SELLERSBURG,CLARK,IN,38.39,-85.79,(LMK)
0130,100,2 WSW BUCKHORN,BROWN,IL,39.92,-90.87,LAW ENFORCEMENT REPORTED 1.0 INCH HAIL (LSX)
0133,125,NEW ALBANY,FLOYD,IN,38.3,-85.83,JUST NORTH OF INTERSTATE 64. (LMK)
0140,150,BELLEVUE,SANDUSKY,OH,41.28,-82.84,(CLE)
0152,100,MADISON,LAKE,OH,41.77,-81.05,(CLE)
0200,275,1 S PERRY,PIKE,IL,39.77,-90.75,TRAINED SPOTTER ON THE SOUTH SIDE OF PERRY ILLINOIS REPORTED BASEBALL SIZE HAIL. (LSX)
0205,175,10 SW ROCKVILLE,PARKE,IN,39.66,-87.36,ALSO TWO FOOT DRIFTS OF HAIL IN SOUTHERN PART OF COUNTY. (IND)
0301,100,1 N HAYESVILLE,ASHLAND,OH,40.79,-82.26,(CLE)
0325,150,1 SE KINSMAN,TRUMBULL,OH,41.44,-80.59,(CLE)
0330,100,MANSFIELD,RICHLAND,OH,40.76,-82.53,(CLE)
0358,100,5 NE MANSFIELD,RICHLAND,OH,40.81,-82.46,(CLE)
0436,100,5 SW BLOOMINGTON,MONROE,IN,39.12,-86.59,(IND)
0606,100,5 NE ARNOLD,NESS,KS,38.69,-99.98,(DDC)
0636,100,4 N LURAY,OSBORNE,KS,39.17,-98.69,(GID)
0743,175,RIDDLE,CRAWFORD,IN,38.25,-86.43,GOLF BALL SIZED HAIL REPORTED NEAR RIDDLE...IN CRAWFORD COUNTY. (LMK)
0800,100,CATO,PIKE,IN,38.44,-87.19,HAIL UP TO QUARTER-SIZE JUST NORTHEAST OF CATO. SOCIAL MEDIA REPORT. (PAH)
0810,100,CLYDE,CLOUD,KS,39.59,-97.4,MOSTLY DIME SIZE HAIL...PERHAPS A FEW UP TO QUARTER SIZE. (TOP)
0915,125,ELIZABETHTOWN,HARDIN,KY,37.7,-85.87,(LMK)
