Time,F_Scale,Location,County,State,Lat,Lon,Comments
1845,UNK,4 W BUTTERFIELD,BARRY,MO,36.75,-93.98,A NWS STORM SURVEY INDICATED THAT AN EF0 TORNADO TOUCHED DOWN 4 MILES WEST OF BUTTERFIELD ON THE AFTERNOON OF MAY 8. THIS TORNADO PRODUCED CONSIDERABLE TREE DAMAGE ALON (SGF)
2110,UNK,9 WSW HUGO,LINCOLN,CO,39.08,-103.62,BRIEF FUNNEL CLOUD WITH TOUCHDOWN 5 MILES SOUTH OF THE INTERSECTION OF CR 2W AND 25. (BOU)
2127,UNK,8 SW HUGO,LINCOLN,CO,39.05,-103.57,TORNADO REDEVELOPED WITH BRIEF TOUCHDOWN IN OPEN FIELD WITH NO DAMAGE REPORTED. (BOU)
2135,UNK,1 SW SAINT JAMES,WATONWAN,MN,43.97,-94.64,TORNADO REPORTED SOUTHWEST OF TOWN (MPX)
2210,UNK,4 NW AVA,DOUGLAS,MO,37,-92.71,A NWS SURVEY TEAM DETERMINED THAT AN EF1 TORNADO TOUCHED DOWN AROUND 510 PM THURSDAY AFTERNOON ABOUT 4 MILES NORTHWEST OF AVA. THE TORNADO MOVED NORTH ALONG A PATH ROUG (SGF)
2212,UNK,6 WSW LAKE CRYSTAL,BLUE EARTH,MN,44.09,-94.33,TORNADO REPORTED ON THE GROUND. (MPX)
2222,UNK,1 W FROST,NAVARRO,TX,32.08,-96.84,***FROM YESTERDAY*** BRIEF EF-0 TORNADO... PHOTOGRAPHED BY SPOTTER. OCCURRED IN AN OPEN FIELD... NO DAMAGE WAS FOUND. (FWD)
0044,UNK,4 W BUTTERFIELD,BARRY,MO,36.75,-93.98,A NWS STORM SURVEY INDICATED THAT AN EF0 TORNADO TOUCHED DOWN 4 MILES WEST OF BUTTERFIELD ON THE AFTERNOON OF MAY 8. THIS TORNADO PRODUCED CONSIDERABLE TREE DAMAGE ALON (SGF)
0104,UNK,4 NW GAYLORD,SIBLEY,MN,44.6,-94.28,(MPX)
Time,Speed,Location,County,State,Lat,Lon,Comments
1840,70,ALGONA,KOSSUTH,IA,43.07,-94.23,WINDS ESTIMATED. NO REPORTS OF DAMAGE AS OF YET. (DMX)
1843,UNK,4 E WHEATON,BARRY,MO,36.77,-93.98,ROOF BLOWN OFF A TRAILER WITH TREES DOWN. (SGF)
1940,UNK,BRIGGS,BURNET,TX,30.87,-97.92,TREE LIMBS DOWN FROM THUNDERSTORM WIND GUSTS (EWX)
1942,UNK,3 NW JOSHUA,JOHNSON,TX,32.5,-97.42,2 MOBILE HOMES DAMAGED. UNKNOWN NUMBER OF SEVERE INJURIES. POWER LINES DOWN. (FWD)
1955,UNK,2 NE OZARK,FRANKLIN,AR,35.51,-93.8,TOP HALF OF LARGE TREE SNAPPED OFF. WINDS ESTIMATED AT 60 TO 65 MPH. (TSA)
2005,UNK,1 N WASECA,WASECA,MN,44.1,-93.51,MULTIPLE LARGE TREES AND POWER POLES SNAPPED OFF. MULTIPLE DAMAGE REPORTS FROM SOUTH TO NORTH ALL ACROSS THE CITY OF WASECA. ALL DAMAGE REPORTS ARE CAUSED BY THUNDERSTO (MPX)
2018,UNK,5 NE LONSDALE,RICE,MN,44.53,-93.35,10 TO 12 INCH PINE TREE SNAPPED IN HALF. (MPX)
2020,60,3 N DALLAS,DALLAS,TX,32.81,-96.78,ESTIMATED 60 MPH AND NICKEL HAIL NEAR LOVE FIELD (FWD)
2030,UNK,1 NNW LAKEVILLE,DAKOTA,MN,44.7,-93.26,LIGHT POLES DOWN (MPX)
2033,UNK,4 W WEST CONCORD,DODGE,MN,44.15,-92.98,SHED BLOWN DOWN AND TREE UPROOTED ON PROPERTY (ARX)
2045,UNK,HIGHLAND PARK,DALLAS,TX,32.82,-96.77,TREES DOWN IN HIGHLAND PARK (FWD)
2045,UNK,3 SW NEW MARKET,SCOTT,MN,44.55,-93.39,LARGE TREE DOWN AND TELEPHONE POLE (MPX)
2045,UNK,1 N EAGAN,DAKOTA,MN,44.83,-93.17,STREET SIGNS BLOWN OVER. (MPX)
2050,UNK,1 NE WATERVILLE,LE SUEUR,MN,44.23,-93.57,TRANSFORMER BLOWN AND POWER LINES DOWN. (MPX)
2050,UNK,3 SSW LAKEVILLE,DAKOTA,MN,44.64,-93.27,TREE DOWN (MPX)
2056,70,DALLAS,DALLAS,TX,32.77,-96.78,AIRPORT LLWAS SENSOR REPORTED 70 MPH WIND GUST. (FWD)
2103,UNK,KAHOKA,CLARK,MO,40.42,-91.72,SOME ROOF SHINGLES BLOWN OFF AND SWING SET BLOWN OVER. (DVN)
2106,UNK,BAY CITY,PIERCE,WI,44.59,-92.45,LARGE TREE DOWN ACROSS ST HWY 35 EAST OF TOWN WITH ANOTHER TREE DOWN PARTIALLY BLOCKING THE HWY. (MPX)
2110,UNK,4 E CRANE,STONE,MO,36.91,-93.5,A COUPLE OF TREES DOWN. TIME ESTIMATED. (SGF)
2110,UNK,3 WSW NEW BOSTON,LEE,IA,40.54,-91.55,SEVERAL TREE BRANCHES DOWN. TIME ESTIMATED BASED ON RADAR. (DVN)
2114,UNK,2 NNE MINNEAPOLIS,HENNEPIN,MN,44.99,-93.25,10 TO 12 INCH TREE LIMB DOWN ON POWER LINE. (MPX)
2115,UNK,8 SE RED WING,GOODHUE,MN,44.5,-92.5,ROOF BLOWN OFF HOUSE (MPX)
2121,UNK,3 SW LAKEVILLE,DAKOTA,MN,44.65,-93.3,DOORS BLOWN OFF LOCAL STORE (MPX)
2125,UNK,1 W ELMWOOD,PIERCE,WI,44.78,-92.16,A FEW TREES DOWN (MPX)
2200,UNK,8 E ROSEVILLE,WARREN,IL,40.73,-90.51,TREE SNAPPED OFF AND OVER ROAD. 1 FOOT DIAMETER TREE. OTHER TREE BRANCHES DOWN IN THAT AREA AND LOCATIONS A FEW MILES NORTH. (DVN)
2205,UNK,4 N LAMPASAS,LAMPASAS,TX,31.13,-98.18,TREES BLOCKING A ROAD NORTH OF LAMPASAS (FWD)
2209,UNK,4 NW AVA,DOUGLAS,MO,37,-92.71,EXTENSIVE TREE DAMAGE AND ROAD SIGNS BENT DOWN. VERY OLD POORLY CONSTRCTED BARN DESTROYED. POWER LINES DOWN. MINOR STRUCTURAL DAMAGE TO ONE HOUSE. LOCATION ON K HIGHWAY (SGF)
2225,60,4 NNE VINTON,BENTON,IA,42.22,-92,ESTIMATED 50 TO 60 MPH. (DVN)
2303,59,6 WSW KILLEEN,BELL,TX,31.1,-97.82,MEASURED AT KGRK (FWD)
2315,UNK,3 W MARYVILLE,NODAWAY,MO,40.34,-94.93,ROOF OFF BARN (EAX)
2324,UNK,KILLEEN,BELL,TX,31.13,-97.73,IN KILLEEN. SOME LARGE TREE LIMBS (>=2") DOWN REPORTED BY THE PUBLIC. (FWD)
2324,UNK,MANITO,MASON,IL,40.42,-89.78,6 INCH TREE LIMB DOWN NEAR MANITO. WINDS ESTIMATED BETWEEN 50 AND 60 MPH. (ILX)
2328,62,17 NW BRIGGS,BURNET,TX,31.03,-98.14,(EWX)
2331,UNK,4 S ARCADIA,TREMPEALEAU,WI,44.19,-91.49,ROOF BLOWN OFF SHED AND GRAVITY BOX BLOWN OVER OUTSIDE OF PINE CREEK AREA (ARX)
2339,UNK,6 E LAMPASAS,LAMPASAS,TX,31.07,-98.08,EAST OF LAMPASAS - ROOF BLOWN OFF A HOUSE. ALSO TREES UPROOTED AND POWER LINES DOWN. (FWD)
2340,UNK,3 SW MOODY,MCLENNAN,TX,31.29,-97.39,TREES AND POWERLINES DOWN ON BREWSTER CREEK ROAD (FWD)
2350,UNK,BLOOMING GROVE,NAVARRO,TX,32.1,-96.72,SOME TREES UPROOTED. SEVERAL LARGE TREES WITH BROKEN LIMBS. (FWD)
0005,60,2 S PHILADELPHIA,CASS,IL,39.89,-90.12,(ILX)
0101,60,3 SW PARKER,LINN,KS,38.3,-95.03,WINDS UP TO 60 MPH (EAX)
0117,UNK,5 SW CHARLES CITY,FLOYD,IA,43.02,-92.75,MINOR WIND DAMAGE TO A HOME AND GARAGE. (ARX)
0143,UNK,3 N RUSSELLVILLE,POPE,AR,35.32,-93.14,NUMEROUS TREES BLOWN DOWN. A PROPANE TANK WAS BLOWN INTO THE SIDE OF A MOBILE HOME. ANOTHER MOBILE HOME WAS BLOWN OFF THE FOUNDATION. IT IS POSSIBLE THIS MAY HAVE BEEN (LZK)
0145,UNK,CAPE GIRARDEAU,CAPE GIRARDEAU,MO,37.31,-89.55,LATE REPORT. DOWNED TREES REPORTED IN THE CITY. (PAH)
0235,58,1 S DE SOTO,JACKSON,IL,37.8,-89.23,PEA SIZE HAIL REPORTED WITH THIS STORM. (PAH)
0400,61,2 W COAL CITY,GRUNDY,IL,41.29,-88.32,(LOT)
Time,Size,Location,County,State,Lat,Lon,Comments
1703,100,3 W CORRELL,BIG STONE,MN,45.24,-96.23,LARGEST STONES WERE 1 INCH IN DIAMETER. (ABR)
1732,175,4 W SINAI,BROOKINGS,SD,44.24,-97.12,(FSD)
2038,100,2 SE HARRISBURG,LINCOLN,SD,43.41,-96.67,HAIL COVERING THE GROUND. WIND GUST 40 TO 50 MPH AFTER HAIL ENDED. (FSD)
2051,100,STEWARTVILLE,OLMSTED,MN,43.86,-92.49,(ARX)
2103,150,5 N BAY CITY,PIERCE,WI,44.65,-92.45,(MPX)
2115,100,9 WNW LUVERNE,ROCK,MN,43.71,-96.37,(FSD)
2144,100,SSE EDGERTON,PIPESTONE,MN,43.87,-96.13,(FSD)
2147,100,4 WSW WILLEY,CARROLL,IA,41.95,-94.88,(DMX)
2208,100,NW LAKE WILSON,MURRAY,MN,44,-95.96,(FSD)
2225,100,4 NNE VINTON,BENTON,IA,42.22,-92,PENNY TO QUARTER SIZE (DVN)
2230,100,3 NW MADISON,GREENWOOD,KS,38.16,-96.18,TRAINED SPOTTER REPORTED TO LAW ENFORCEMENT THAT THEY HAD QUITE A BIT OF PEA SIZED HAIL WITH A FEW POSSIBLY AS LARGE AS QUARTERS. TIME IS BASED ON RADAR. (ICT)
2256,100,NEOSHO RAPIDS,LYON,KS,38.37,-95.99,(TOP)
2258,100,COPPERAS COVE,CORYELL,TX,31.13,-97.92,(FWD)
2258,150,10 N BUFFALO LAKE,RENVILLE,MN,44.87,-94.65,(MPX)
2331,100,4 S ARCADIA,TREMPEALEAU,WI,44.19,-91.49,(ARX)
2335,100,4 N EAST PERU,MADISON,IA,41.29,-93.94,(DMX)
2356,150,2 S NORWALK,WARREN,IA,41.47,-93.68,60 MPH WIND GUST (DMX)
0005,275,2 ENE URBANDALE,POLK,IA,41.64,-93.7,REPORTED NEAR INTERSECTION OF MERLE HAY RD AND MEREDITH DR. (DMX)
0007,100,2 SW EDMORE,MONTCALM,MI,43.39,-85.07,(GRR)
0049,150,HARKER HEIGHTS,BELL,TX,31.06,-97.65,(FWD)
0055,100,6 SSE STEWART,MCLEOD,MN,44.65,-94.44,(MPX)
0058,175,4 NW WINTHROP,SIBLEY,MN,44.58,-94.42,(MPX)
0114,175,BELTON,BELL,TX,31.07,-97.47,IN THE BELTON/MILLER HEIGHTS AREA (FWD)
0114,100,ROCKFORD,FLOYD,IA,43.05,-92.95,(ARX)
0140,100,1 S NORWOOD/YOUNG AMERIC,CARVER,MN,44.77,-93.92,(MPX)
0149,100,TEMPLE,BELL,TX,31.1,-97.35,NEAR TEMPLE (FWD)
0205,100,2 S ZIMMERMAN,SHERBURNE,MN,45.42,-93.59,(MPX)
0900,100,2 N BARTLESVILLE,WASHINGTON,OK,36.78,-95.98,(TSA)
