Time,F_Scale,Location,County,State,Lat,Lon,Comments
Time,Speed,Location,County,State,Lat,Lon,Comments
1900,UNK,3 WNW TATUM,MARLBORO,SC,34.67,-79.64,TREE DOWN ON ROADWAY ACADEMY AND FIRE TOWER RD. (ILM)
1908,UNK,STARKE,BRADFORD,FL,29.95,-82.11,POWERLINES WERE DOWN IN THREE DIFFERENT LOCATIONS. AN AWNING WAS BLOWN OFF A SCHOOL NEAR PRATT AND TODD. ALSO A LARGE TREE WAS DOWN ON BROADWAY AND PRATT. (JAX)
1915,UNK,WASHINGTON,WILKES,GA,33.74,-82.74,APPROXIMATELY 17-18 TREES WERE DOWNED AT A LOCATION OFF OF TIGNALL ROAD... AND ANOTHER BLOCKED BOTH LANES OF TRAFFIC OF HWY 17 NORTH. EVENT TIME ESTIMATED BY RADAR. (FFC)
1920,UNK,5 W HILLIARD,NASSAU,FL,30.7,-82,POWERLINES DOWN NEAR CONNER NELSON ROAD (JAX)
1940,UNK,KNOXVILLE,KNOX,TN,35.97,-83.95,TREES AND POWER LINES DOWN ON MERCHANTS DRIVE. (MRX)
2000,UNK,3 ENE PEMBROKE,ROBESON,NC,34.69,-79.15,A TREE WAS REPORTED DOWN AND BLOCKING LOCKLEAR ROAD. THE FIRE DEPARTMENT WAS CALLED TO REMOVE THE TREE. (ILM)
2015,UNK,ROCKINGHAM,RICHMOND,NC,34.94,-79.76,POWER POLE DOWN ON EAST WASHINGTON STREET. (RAH)
2030,UNK,1 WNW NORWOOD,STANLY,NC,35.23,-80.14,TREES DOWN ON BRICKYARD ROAD IN NORWOOD. TIME ESTIMATED BY RADAR. (RAH)
2045,UNK,2 S MILLERSVILLE,CATAWBA,NC,35.82,-81.18,NUMEROUS 2-3 INCH DIAMETER BRANCHES DOWN IN RIVERBEND PARK (GSP)
2100,UNK,5 W ROANOKE,RANDOLPH,AL,33.14,-85.45,TREE DOWN ON CAR NEAR DICKERT COMMUNITY ALONG STATE HIGHWAY 22 NEAR COUNTY ROAD 65. WINDS ESTIMATED NEAR 40 MPH. (BMX)
2110,UNK,4 SW GAMEWELL,BURKE,NC,35.83,-81.64,A TREE DOWN ON HOUSE INTERSECTION OF NC HWY 18 AND ANTIOCH RD. (GSP)
2115,UNK,NATURAL WELL,ALLEGHANY,VA,37.92,-79.97,SEVERAL TREES BLOWN DOWN ALONG FALLS ROAD. TIME ESTIMATED FROM RADAR. (RNK)
2122,UNK,6 WNW NEWBERRY,GILCHRIST,FL,29.67,-82.7,A LARGE PINE TREE AROUND 55 FEET TALL IS DOWN. (JAX)
2125,UNK,VALRICO,HILLSBOROUGH,FL,27.95,-82.26,OFF DUTY NWS EMPLOYEE REPORTED DOWNED HEALTHY TREE LIMBS WITH AN OUTFLOW BOUNDARY AHEAD OF STORM IN THE VALRICO AREA. (TBW)
2130,UNK,5 N CONWAY,HORRY,SC,33.91,-79.04,TREE DOWN ACROSS HWY 701 NORTH OF HIGHWAY PATROL OFFICE (ILM)
2144,UNK,5 NE VALDOSTA,LOWNDES,GA,30.9,-83.22,SEVERAL TREES DOWN ACROSS COUNTY- A FEW ON HOUSES. TIME AND DISTANCE FROM VALDOSTA ESTIMATED BASED ON KVAX RADAR. (TAE)
2200,UNK,1 W MATTHEWS,MECKLENBURG,NC,35.12,-80.73,A TREE DOWN ON NC 51 NEAR MONROE ROAD. (GSP)
2213,UNK,LAND O LAKES,PASCO,FL,28.22,-82.45,PASCO COUNTY EMERGENCY MANAGEMENT RELAYED A REPORT OF A MOBILE HOME THAT HAD ITS ROOF REMOVED BY STRONG WINDS IN THE LAND O LAKES AREA. (TBW)
2220,UNK,4 SW HUNTERSVILLE,MECKLENBURG,NC,35.38,-80.9,1 TREE DOWN AT INTERSECTION OF HAMBRIGHT RD AND MONTECARLO DR (GSP)
2225,UNK,LAKE PANASOFFKEE,SUMTER,FL,28.79,-82.13,SUMTER COUNTY EMERGENCY MANAGEMENT REPORTED MULTIPLE DOWNED TREES AND POWER LINES. 1 DOWNED TREE FELL ON A HOUSE IN THE TRACYS POINT AREA OF LAKE PANASOFFKEE. TIME ESTI (TBW)
2225,UNK,4 NE OLANTA,FLORENCE,SC,33.98,-79.87,A TREE WAS REPORTED DOWN AT THE INTERSECTION OF OLD CREEK ROAD AND STICKLAND FARM ROAD. THE TIME WAS ESTIMATED BASED ON RADAR DATA. (ILM)
2245,UNK,4 NW STUCKEY,WILLIAMSBURG,SC,33.77,-79.56,A TREE WAS REPORTED DOWN NEAR THE INTERSECTION OF BARTELLS ROAD AND BAPTIST ROAD. REPORT WAS RELAYED TO WILLIAMSBURG COUNTY 911 CENTER. THE TIME WAS ESTIMATED BASED ON (ILM)
0015,UNK,SUMMERTON,CLARENDON,SC,33.6,-80.35,CLARENDON COUNTY DISPATCH REPORTED TREES DOWN ON POWERLINES ON MOOD ST. IN SUMMERTON (CAE)
0047,UNK,1 SW MANNING,CLARENDON,SC,33.68,-80.23,CLARENDON COUNTY DISPATCH REPORTED TREES CROSSING THE ROAD ON ALEX HARVIN HWY JUST OUTSIDE OF MANNING. TIME ESTIMATED BY RADAR. (CAE)
Time,Size,Location,County,State,Lat,Lon,Comments
1908,175,STARKE,BRADFORD,FL,29.95,-82.11,GOLF BALL SIZE HAIL REPORTED AT THE BEST BARN AT THE INTERSECTION OF PRATT AND ORANGE STREETS. VEHICLE WINDOWS WERE BUSTED. (JAX)
1915,150,3 NNE CAMP MACKALL,MOORE,NC,35.06,-79.44,HAIL UP TO THE SIZE OF PING PONG BALLS AT WALHALLA FARM (RAH)
1931,100,1 ENE STARKE,BRADFORD,FL,29.95,-82.1,(JAX)
1955,100,2 SSE DILLON,DILLON,SC,34.4,-79.35,(ILM)
2007,100,5 ESE CURRIE,PENDER,NC,34.45,-78.02,HAIL TO THE SIZE OF QUARTERS WAS REPORTED. (ILM)
2015,100,3 ESE LORIS,HORRY,SC,34.04,-78.84,QUARTER INCH HAIL REPORTED VICINITY HIWAY 9. TWEETED VIA SOCIAL MEDIA . (ILM)
2030,100,3 W CHADBOURN,COLUMBUS,NC,34.31,-78.88,NICKEL TO QUARTER SIZE HAIL FELL. DID NOT COVER THE GROUND. (ILM)
2050,100,FORT MEADE,POLK,FL,27.75,-81.8,STATE EMERGENCY MANAGEMENT REPORTED QUARTER SIZED HAIL IN FORT MEADE AT 450 PM EDT. (TBW)
2119,100,5 W NEWBERRY,GILCHRIST,FL,29.64,-82.7,ONE INCH HAIL REPORTED ON STATE ROAD 26 BETWEEN TRENTON AND NEWBERRY. (JAX)
2140,100,4 ESE MINT HILL,UNION,NC,35.16,-80.6,(GSP)
2145,175,1 NNW CONWAY,HORRY,SC,33.85,-79.06,QUARTER TO GOLFBALL SIZE HAIL WAS REPORTED. (ILM)
2155,100,5 SW LUTZ,HILLSBOROUGH,FL,28.08,-82.51,PUBLIC REPORTED NICKEL TO QUARTER SIZED HAIL IN THE CARROLLWOOD AREA VIA SOCIAL MEDIA. (TBW)
2240,175,7 N BUCYRUS,ADAMS,ND,46.17,-102.79,A FEW LARGE GOLFBALL SIZE HAILSTONES. (BIS)
2250,100,19 SE WRIGHT,CAMPBELL,WY,43.55,-105.23,(UNR)
2305,100,5 E BEAR BUTTE STATE PA,MEADE,SD,44.48,-103.32,(UNR)
2355,125,10 NE DOWNTOWN STURGIS,MEADE,SD,44.51,-103.37,RELAYED BY NWS OMAHA. (UNR)
0048,100,9 NE DOWNTOWN STURGIS,MEADE,SD,44.5,-103.39,(UNR)
0115,175,6 E BEAR BUTTE STATE PA,MEADE,SD,44.47,-103.29,(UNR)
0145,100,4 ESE BEAR BUTTE STATE,MEADE,SD,44.45,-103.34,(UNR)
0328,175,3 S MAX,MCLEAN,ND,47.78,-101.3,(BIS)
