Time,F_Scale,Location,County,State,Lat,Lon,Comments
2036,UNK,5 S HUDSON,ADAMS,CO,40,-104.64,DAMAGE TO OUT BUILDINGS AND STORAGE SHED. ALSO MINOR ROOF DAMAGE TO HOUSES IN THE IMMEDIATE AREA. LARGE DUST CLOUD. NEAR 168TH AVE AND HAYMONT RD. (BOU)
2042,UNK,6 SE DENVER INTL AIRPOR,ADAMS,CO,39.8,-104.59,PILOT OBSERVED TORNADO (BOU)
2042,UNK,2 S HUDSON,WELD,CO,40.04,-104.64,MINOR DAMAGE TO STRUCTURES AND ROOFS WITH LARGE DUST CLOUD (BOU)
2111,UNK,3 N BENNETT,ADAMS,CO,39.8,-104.42,TORNADO KICKING UP LARGE DUST CLOUD (BOU)
2343,UNK,6 N SYRACUSE,HAMILTON,KS,38.07,-101.75,(DDC)
0135,UNK,7 E GREENVIEW,POLK,MN,47.63,-96.41,BRIEF AND INTERMITTENT TOUCHDOWNS LIKELY ALONG A 2 MILE TRACK TO NEAR MELVIN BY 842 PM CDT. TORNADO WRAPPED IN HEAVY RAIN...LARGE HAIL AND DAMAGING WINDS. NUMEROUS TREE (FGF)
Time,Speed,Location,County,State,Lat,Lon,Comments
1725,UNK,KINGSTON,ROANE,TN,35.87,-84.51,DISPATCH REPORTED A FEW TREES DOWN IN KINGSTON AND ALSO IN BLAIR. (MRX)
1730,UNK,LENOIR CITY,LOUDON,TN,35.8,-84.27,DISPATCH REPORTED 2 TREES DOWN IN LENOIR CITY. (MRX)
1755,UNK,2 NE NORTH HARTSVILLE,DARLINGTON,SC,34.42,-80.05,TWO TREES DOWN APPROXIMATELY 15 INCH DIAMETER ONTO POWER LINES. TIN PEELED FROM BARN ROOF AND BLOWN INTO TREE. (ILM)
1810,UNK,VONORE,MONROE,TN,35.6,-84.23,DISPATCH REPORTED FEW TREES DOWNED IN VONORE ON SUMMIT ROAD. (MRX)
1815,UNK,2 NE WILLISTON,LEVY,FL,29.39,-82.44,FIRE DEPARTMENT REPORTED VIA SOCIAL MEDIA OF SEVERAL TREES DOWN ON COUNTY ROAD 320. TIME ESTIMATED BY RADAR. (TBW)
1830,UNK,LAWRENCEVILLE,HENRY,AL,31.66,-85.27,SCATTERED TREES AND POWER LINES DOWN AROUND THE AREA. EXACT TIME AND LOCATION APPROXIMATED. (TAE)
1845,UNK,2 NW ELLOREE,ORANGEBURG,SC,33.55,-80.6,WIS TV REPORTED NUMEROUS LARGE TREES DOWN AT BICKLEY FARMS NEAR ELLOREE. A GRAIN AUGER TOPPLED OVER AS WELL. (CAE)
1850,UNK,3 SE MANHATTAN,WILL,IL,41.4,-87.95,AT US52 AND CEDAR RD - SEVERAL SMALL BRANCHES DOWN. ALSO MINOR STREET FLOODING SOUTHWARD INTO WILTON CENTER. (LOT)
1900,UNK,HALEBURG,HENRY,AL,31.41,-85.14,SCATTERED TREES AND POWER LINES DOWN AROUND THE AREA. EXACT TIME AND LOCATION APPROXIMATED. (TAE)
1915,UNK,5 E HALEBURG,EARLY,GA,31.41,-85.05,TREES AND POWER LINES DOWN ON MARTIN ROAD (TAE)
1920,UNK,BROOKWOOD HILLS,FULTON,GA,33.81,-84.4,LARGE TREE FELL ON TWO CARS. (FFC)
1925,UNK,TYRONE,FAYETTE,GA,33.47,-84.6,TREES DOWN IN TYRONE AREA. (FFC)
1934,60,FISCHERS CROSSROAD,COWETA,GA,33.4,-84.61,ESTIMATED 60-70 MPH WIND AND REPORT OF LARGE PINE TREE DOWN ABOUT 3-4 FT WIDE. (FFC)
1937,UNK,4 NNE MARION,MARION,SC,34.23,-79.38,TREE REPORTED DOWN IN ROADWAY AT BUTLER RD AND HWY 501. TIME ESTIMATED BY RADAR. (ILM)
1942,UNK,YATES CITY,KNOX,IL,40.78,-90.01,NUMEROUS TREE LIMBS DOWN... CORN STALKS BLOWN DOWN AND BROKEN IN TWO (ILX)
1945,UNK,FAIRVIEW,WILLIAMSON,TN,35.98,-87.12,TREE ON CAR. (OHX)
1945,UNK,ELMWOOD,PEORIA,IL,40.78,-89.97,HEALTHY TREES UP TO 12 INCHES IN DIAMETER WERE BLOWN OVER ON THE SOUTHEAST SIDE OF ELMWOOD. (ILX)
1948,UNK,1 NE WORLEY CROSSROADS,PICKENS,GA,34.39,-84.45,FEW TREES DOWN NEAR LOWER DOWDA MILL RD AND BETHANY RD. (FFC)
1948,UNK,4 NW FRANKLIN,WILLIAMSON,TN,35.97,-86.89,SEVERAL TREES DOWN BETWEEN FAIRVIEW AND FRANKLIN...ON OLD HILLSBORO ROAD... NEW HWY 96 WEST... DEL RIO PIKE... AND COTTON LANE (OHX)
1948,60,4 SW GARDNER,GRUNDY,IL,41.15,-88.37,PEA SIZE HAIL. (LOT)
1951,UNK,6 S MAXVILLE,CLAY,FL,30.12,-82,PUBLIC REPORTED LARGE TREE LIMBS DOWNED OFF OF CR 218. (JAX)
1955,UNK,TALLAHASSEE COML AIRPOR,LEON,FL,30.55,-84.37,TREES DOWN ON SPRINGHILL RD AND CAPITAL CIRCLE (TAE)
2000,UNK,2 NE NORTH HARTSVILLE,DARLINGTON,SC,34.42,-80.05,TWO TREES DOWN APPROXIMATELY 15 INCH DIAMETER ONTO POWER LINES. TIN PEELED FROM BARN ROOF AND BLOWN INTO TREE. (ILM)
2006,UNK,10 W HAVANA,GADSDEN,FL,30.62,-84.58,SEVERAL TREES DOWN ON HIGHWAY 12 GOING TO HAVANNA (TAE)
2006,UNK,2 SSE EADYTOWN,BERKELEY,SC,33.38,-80.14,MANY TREE LIMBS UP TO 4 INCHES IN DIAMETER AND 15 FEET IN LENGTH KNOCKED DOWN NEAR HIGHWAY 45 AND THE REDIVERSION CANAL. PIECES OF ALUMINUM SIDING BLOWN OFF A COUPLE OF (CHS)
2006,UNK,BROWNING,SCHUYLER,IL,40.13,-90.37,POWER LINES DOWN IN TOWN OF BROWNING (ILX)
2010,UNK,TALLAHASSEE COML AIRPOR,LEON,FL,30.55,-84.37,TREES DOWN ON OLD BAINBRIDGE RD AND CAPITAL CIRCLE (TAE)
2010,UNK,1 S TWEED,LAURENS,GA,32.42,-82.76,WIDESPREAD TREES AND POWERLINES DOWN EAST OF OCONEE RIVER AND TOWARD THE SOUTHERN PART OF COUNTY. (FFC)
2020,UNK,5 WNW STARKE,BRADFORD,FL,29.98,-82.18,EM REPORTED A TREE AND POWERLINES DOWNED OFF OF NW CR 225. (JAX)
2020,UNK,WOODVILLE,LEON,FL,30.31,-84.25,TREES DOWN ON WOODVILLE HIGHWAY AT NATURAL WELLS ROAD (TAE)
2020,UNK,FOREST CITY,MASON,IL,40.37,-89.83,POWER LINES DOWN BLOWN IN FOREST CITY. (ILX)
2025,UNK,TALLAHASSEE COML AIRPOR,LEON,FL,30.55,-84.37,TREES DOWN ON MERIDIAN ROAD (TAE)
2035,UNK,MASON CITY,MASON,IL,40.2,-89.7,POWER LINES BLOWN DOWN IN MASON CITY...RELAYED THROUGH SHERIFFS OFFICE. (ILX)
2037,UNK,5 ENE CONWAY,HORRY,SC,33.87,-78.98,TREE BLOCKING ROADWAY AT INTERSECTION OF SC 905 AND OLD REAVES FERRY RD. TIME ESTIMATED BY RADAR. (ILM)
2040,UNK,5 SE SAMPSON,BRADFORD,FL,29.86,-82.16,EM REPORTED TREE DOWNED OFF OF CR 18. (JAX)
2042,62,1 SE JONESBORO,CRAIGHEAD,AR,35.81,-90.67,62 MPH GUST MEASURED BY JONESBORO AIRPORT ASOS. (MEG)
2045,UNK,1 NE SOCASTEE,HORRY,SC,33.7,-78.99,TREE FELL ONTO HOUSE ON FORESTBROOK RD NEAR THE SUGAR MILL AREA. TIME ESTIMATED BY RADAR. (ILM)
2048,UNK,HERSCHER,KANKAKEE,IL,41.05,-88.1,LARGE TREE DOWN ON POWER LINES - 1 BLOCK SOUTH OF IL115 ON MAIN ST. FEW UNTILITY POLES AND SMALL BRANCHES DOWN THROUGHOUT THE VILLAGE. TIME ESTIMATED FROM RADAR. (LOT)
2052,UNK,NEW HOLLAND,LOGAN,IL,40.18,-89.58,LARGE TREES WERE BLOWN DOWN IN NEW HOLLAND. (ILX)
2058,UNK,1 SE TAZEWELL,MARION,GA,32.37,-84.42,TREES AND POWERLINES DOWN NEAR HWY 240 AND BUCK CREEK RD. (FFC)
2101,70,4 NE BURTON,ADAMS,IL,39.94,-91.2,(LSX)
2105,UNK,3 N JONESBORO,CRAIGHEAD,AR,35.87,-90.69,LARGE TREE DOWN ON POWERLINES ON HWY 141. (MEG)
2115,UNK,ALBANY,DOUGHERTY,GA,31.58,-84.18,TREE DOWN ON POWERLINES ON EAGER DRIVE (TAE)
2115,UNK,GENOA CITY,WALWORTH,WI,42.5,-88.32,TREE LIMBS GREATER THAN 2 INCHES IN DIAMETER AND CABLE LINES DOWN ON WEST SIDE OF TOWN. LARGE TREE DOWN ON FREEMAN STREET ON THE WI IL STATE LINE. (MKX)
2115,65,6 NE JAVA,WALWORTH,SD,45.57,-99.8,60 TO 70 MPH WINDS... REPORT RELAYED BY WALWORTH COUNTY SHERIFFS OFFICE (ABR)
2120,UNK,CLIFTON,IROQUOIS,IL,40.94,-87.93,IN TOWN - NUMEROUS TREES AND POWER/UTILITY LINES DOWN. 2 MILES SOUTH OF TOWN A SHED WAS DEMOLISHED. (LOT)
2125,UNK,BARRY,PIKE,IL,39.7,-91.04,LARGE TREE SPLIT AND LAYING ACROSS THE ROAD (LSX)
2128,UNK,9 SSW WOODBURY,CANNON,TN,35.7,-86.12,TREE DOWN AT THE INTERSECTION OF DICKENS HILL ROAD AND HOLLOW SPRINGS ROAD SOUTH OF BRADYVILLE (OHX)
2129,UNK,3 WSW GORDONSVILLE,SMITH,TN,36.17,-85.98,TREES DOWN ON GRANT HIGHWAY AND MCCLANAHAN ROAD (OHX)
2130,UNK,PIKEVILLE,BLEDSOE,TN,35.61,-85.2,SEVERAL TREES DOWN IN PIKEVILLE...UPPER EAST VALLEY ROAD...OLD DAYTON HIGHWAY AND LOCKFORD ROAD. ROOF DAMAGE TO TDOT BUILDING IN PIKEVILLE. (MRX)
2130,UNK,PAYSON,ADAMS,IL,39.82,-91.24,4 TO 6 INCH DIA LIMBS (LSX)
2130,UNK,ROUND LAKE BEACH,LAKE,IL,42.38,-88.08,POSSIBLE TORNADO ON THE GROUND WITH A NUMBER OF TREES DOWN. ON THE WESTERN EDGE OF ROUND LAKE BEACH. (LOT)
2133,UNK,5 WSW WINGINA,BUCKINGHAM,VA,37.62,-78.8,ONE TREE DOWN ALONG RIVER ROAD NEAR THE JAMES RIVER STATE PARK (RNK)
2140,60,3 WSW JACKSONVILLE BEAC,DUVAL,FL,30.26,-81.44,(JAX)
2142,UNK,1 NNE ARGUSVILLE,CASS,ND,47.06,-96.93,NUMEROUS 3 TO 5 INCH DIAMETER TREE BRANCHES BROKEN DOWN AROUND TOWN. ROOF PANELS BLOWN OFF OF A POLE SHED NORTH OF TOWN. PEAK WINDS ESTIMATED FROM 60 TO 70 MPH. (FGF)
2145,UNK,8 NW FULTON,CALLAWAY,MO,38.93,-92.05,ON CNTY RD 230 BETWEEN FULTON AND MILLERSBURG...2 POWER LINE POLES SNAPPED AND ALUMINUM BARN BLOWN OVER (LSX)
2150,UNK,3 SE BENT CREEK,APPOMATTOX,VA,37.51,-78.78,TREE DOWN ON WATT ABBITT ROAD. (RNK)
2150,UNK,CRESCENT CITY,IROQUOIS,IL,40.77,-87.86,TREES DOWN. (LOT)
2150,75,MUNDELEIN,LAKE,IL,42.27,-88,(LOT)
2151,67,5 E EVANSTON,UINTA,WY,41.27,-110.87,WY31 PAINTER - 6939 FT (SLC)
2151,UNK,3 NW MUNDELEIN,LAKE,IL,42.3,-88.04,NEAR FREMONT CENTER 50 TO 60 MPH WINDS WITH NUMEROUS 3 INCHES BRANCHES DOWN. (LOT)
2154,UNK,RAINES,CRISP,GA,31.9,-83.86,CRISP COUNTY EMERGENCY MANAGER AND THE MEDIA REPORTED A ROOF BLEW OFF A HOUSE NAER JAMESTON ROAD AND HWY300. (FFC)
2155,UNK,2 N SHELLY,NORMAN,MN,47.49,-96.82,A FEW 8 INCH DIAMETER TREES SNAPPED IN CEMETARY. (FGF)
2157,UNK,4 S ANDERSONVILLE,BUCKINGHAM,VA,37.41,-78.55,ONE TREE DOWN ALONG THE INTERSECTION OF FRANCISCO ROAD AND NEW STORE ROAD (RNK)
2158,UNK,VALDOSTA,LOWNDES,GA,30.85,-83.28,TREES DOWN ON HICKORY GROVE ROAD AND VANN ROAD. POWERLINES DOWN ON BEN HILL ROAD AT GROVER HICKS ROAD. (TAE)
2200,UNK,CHOKEE,LEE,GA,31.89,-84.05,SEVERAL TREES DOWN NORTHEAST PART OF COUNTY. TIME ESTIMATED FROM RADAR. (TAE)
2200,UNK,2 S GEORGETOWN,CLAY,MN,47.05,-96.79,SEVERAL LARGE 4 TO 6 INCH DIAMETER TREE BRANCHES BROKEN DOWN IN FARM SHELTERBELTS. (FGF)
2201,UNK,7 SW COLUMBIA,BOONE,MO,38.88,-92.42,STRONG WINDS PRODUCED SCATTERED TREE DAMAGE IN AREA... WITH ONE METAL LIGHT POLE SNAPPED AT ITS BASE. SOME NICKEL SIZED HAIL ALSO OBSERVED. TORRENTIAL RAINS FLOODED SEV (LSX)
2205,UNK,2 SE MEXICO,AUDRAIN,MO,39.15,-91.84,ESTIMATED WIND GUSTS 50 MPH... NUMEROUS LIMBS DOWN UP TO 1 INCH DIA (LSX)
2210,60,8 S KADOKA,JACKSON,SD,43.71,-101.51,(UNR)
2211,UNK,1 SSE FURMAN,HAMPTON,SC,32.67,-81.18,TREE DOWN ON HIGHWAY 601 SOUTH BEFORE BAMA PLACE. (CHS)
2213,UNK,1 NW REMBERT,SUMTER,SC,34.11,-80.55,TREES DOWN NEAR US HWY 521 NEAR REMBERT (CAE)
2213,UNK,2 ENE SHEPPARDS,BUCKINGHAM,VA,37.39,-78.46,POWER LINE DOWN ON STAGE COACH ROAD. (RNK)
2215,UNK,1 NNW WAGARVILLE,WASHINGTON,AL,31.44,-88.03,THE PUBLIC REPORTS TREES DOWN AT THE INTERSECTION OF HWY 43 AND HWY 56 NEAR WAGARVILLE. (MOB)
2215,UNK,PITTSFIELD,PIKE,IL,39.61,-90.81,SHERIFFS OFFICE HAS RECEIVED SEVERAL REPORTS OF TREES AND POWER LINES DOWN ACROSS TOWN. (LSX)
2225,UNK,4 SSW SOCIETY HILL,DARLINGTON,SC,34.46,-79.87,TREE DOWN ON WILLIAMS HWY NEAR LAKE DARPO RD. TIME ESTIMATED FROM RADAR. (ILM)
2230,65,NORTHBROOK,COOK,IL,42.13,-87.83,RELAYED VIA FACEBOOK. (LOT)
2234,UNK,1 E DALZELL,SUMTER,SC,34.02,-80.41,TREES DOWN AT QUEEN CHAPEL ROAD AND POTTS LANE (CAE)
2234,UNK,MUNDELEIN,LAKE,IL,42.27,-88,TREE DOWN - SPLIT ROOF OF HOUSE - PHEASANT RUN RD NW OF FAIRFIELD. TIME ESTIMATED. (LOT)
2237,UNK,1 E LYNCHBURG CITY,AMHERST,VA,37.42,-79.13,ONE TREE DOWN AT THE INTERSECTION OF 4TH STREET AND CHURCH STREET IN MADISON HEIGHTS (RNK)
2240,UNK,PROSPECT,PRINCE EDWARD,VA,37.3,-78.56,TREE DOWN ACROSS ONE LANE OF RT. 460 NEAR RAILROAD AVE. (AKQ)
2250,UNK,1 NE MONTGOMERY CITY,MONTGOMERY,MO,38.99,-91.49,6 TO 8 INCH BRANCHES DOWN (LSX)
2255,UNK,6 WSW INDIAN LAKE ESTAT,POLK,FL,27.77,-81.42,POLK COUNTY SHERIFFS OFFICE RELAYED REPORTS OF A FEW DOWNED TREES. TIME ESTIMATED OFF RADAR. (TBW)
2305,UNK,RAY CITY,BERRIEN,GA,31.07,-83.2,TREES DOWN AROUND THE RAY CITY AREA (TAE)
2305,UNK,3 W NEW LOIS,COOK,GA,31.08,-83.32,PUBLIC REPORT VIA SOCIAL MEDIA OF AT LEAST 2 LARGE PECAN TREES BLOWN DOWN IN COOK COUNTY. EXACT TIME AND LOCATION APPROXIMATED. (TAE)
2305,UNK,6 WNW FLORENCE,DARLINGTON,SC,34.22,-79.88,A TREE WAS REPORTED DOWN AT THE INTERSECTION OF WINBURN DRIVE AND HOFFMYER ROAD. (ILM)
2306,UNK,4 W FLORENCE,FLORENCE,SC,34.19,-79.85,TREE DOWN ON I-95 SOUTH NEAR EXIT 160. TIME ESTIMATED BASED ON RADAR. (ILM)
2308,UNK,OAKES,DICKEY,ND,46.14,-98.09,MULTIPLE REPORTS OF WIND DAMAGE IN OAKES FROM SOCIAL MEDIA. A FEW TREES DOWN AND A SWING SET WAS BLOWN OVER. ESTIMATED 60 MPH WINDS. (BIS)
2310,UNK,4 E CHARLOTTE COURT HOU,CHARLOTTE,VA,37.05,-78.56,TREE DOWN ALONG ROUTE 40 IN KEYSVILLE. (RNK)
2315,UNK,7 SW OAK GROVE,FLORENCE,SC,34.3,-79.64,TREE DOWN ON I-95 SOUTHBOUND BETWEEN MILE MARKER 174 AND 172. TIME ESTIMATED FROM RADAR. (ILM)
2319,60,PLAINFIELD,WILL,IL,41.62,-88.2,AT CATON FARM RD AND IL59. MINOR FLOODING. (LOT)
2322,UNK,5 ESE NORTH,ORANGEBURG,SC,33.58,-81.04,TREES DOWN AT WOODHAVEN ST AND BREEZE HAVEN ST (CAE)
2325,UNK,8 WNW COGSWELL,SARGENT,ND,46.15,-97.94,SEVERAL LARGE 4 TO 6 INCH DIAMETER TREE BRANCHES BROKEN DOWN IN SHELTER BELTS. (FGF)
2328,UNK,5 NE TIMMONSVILLE,FLORENCE,SC,34.17,-79.87,A LARGE TREE LIMB WAS REPORTED DOWN ON STRATTON DRIVE. (ILM)
2334,UNK,9 WSW PAXVILLE,CLARENDON,SC,33.67,-80.49,SC HIGHWAY PATROL REPORTED TREES DOWN ON GOVERNOR RICHARDSON ROAD NEAR RIMINI (CAE)
2335,60,3 E WINFIELD,LINCOLN,MO,39,-90.68,AT LD 25 (LSX)
2335,UNK,MUNSTER,LAKE,IN,41.55,-87.5,TREE SNAPPED IN HALF. APPROXIMATELY 25 FT TALL AND 1.5 FT DIAMETER. WREN STREET AND FREN-LIN STREET. TIME ESTIMATED BY RADAR. (LOT)
2342,UNK,DANVILLE,VERMILION,IL,40.14,-87.62,LARGE TREE DOWN AT LIBERTY LANE AND FERNDALE. TREE BLOCKING ROAD. (ILX)
2342,64,VERMILION COUNTY AIRPOR,VERMILION,IL,40.2,-87.6,(ILX)
2347,UNK,2 SE EFFINGHAM,FLORENCE,SC,34.05,-79.73,A TREE WAS REPORTED DOWN AT THE INTERSECTION OF LEBANON ROAD AND FRIENDFIELD ROAD. THE TIME WAS ESTIMATED BASED ON RADAR DATA. (ILM)
2351,59,3 ENE LIVINGSTON,PARK,MT,45.69,-110.5,(BYZ)
2352,UNK,4 SSE HALIFAX,HALIFAX,VA,36.71,-78.92,ONE TREE DOWN ALONG SUTPHIN RD AND WEBSTER ST. (RNK)
2354,UNK,CROWN POINT,LAKE,IN,41.42,-87.36,SEVERAL BRANCHES ABOUT 2 TO 4 INCHES IN DIAMETER DOWN AROUND TOWN. TIME ESTIMATED BY RADAR. REPORT RELAYED VIA FACEBOOK. (LOT)
2356,UNK,2 NW SPEED,EDGECOMBE,NC,35.98,-77.47,ONE TREE DOWN ON CUTCHIN FARM RD. (RAH)
2357,UNK,4 NE BEECHER,WILL,IL,41.39,-87.56,TWO TREES... ONE 20 INCH DIAMETER... ONE 10 INCH DIAMETER BLOWN DOWN. MULTIPLE TREE LIMBS BLOWN DOWN. (LOT)
0000,UNK,GRANT PARK,KANKAKEE,IL,41.24,-87.64,MULTIPLE LARGE TREES DOWN - INCLUDES ALONG MANY OF THE COUNTY ROADS. TREE ON HOUSE AT 620W COUNTY LINE RD. (LOT)
0003,63,CROWN POINT,LAKE,IN,41.42,-87.36,(LOT)
0010,60,8 S KADOKA,JACKSON,SD,43.71,-101.51,(UNR)
0011,UNK,OAK LAWN,COOK,IL,41.72,-87.75,WIND GUST TO 50 MPH - SMALL TREE LIMBS DOWN (LOT)
0016,UNK,4 S COVINGTON,FOUNTAIN,IN,40.08,-87.39,TREE LIMBS DOWN (IND)
0018,UNK,GRANT PARK,KANKAKEE,IL,41.24,-87.64,THREE TREES DOWN - 12-16 INCHES IN DIAMETER. (LOT)
0027,UNK,5 ESE SHARPSBURG,EDGECOMBE,NC,35.85,-77.74,ONE TREE DOWN AND WIRES DOWN ON TEMPERANCE HALL ROAD AND FAITH BAPTIST CHURCH ROAD. TIME BASED ON RADAR. (RAH)
0030,67,3 SSW WHITLOCKS BAY REC,POTTER,SD,45.01,-100.29,PEAK WIND GUST FROM THE FOREST CITY BRIDGE DOT MESONET STATION. (ABR)
0035,UNK,3 SW SENATOBIA,TATE,MS,34.59,-90.01,MULTIPLE FENCE POSTS BLOWN DOWN AND SHINGLES REMOVED FROM ROOF. (MEG)
0055,60,4 W OSAGE,WESTON,WY,43.98,-104.5,(UNR)
0100,UNK,2 SW NIELSVILLE,TRAILL,ND,47.51,-96.85,PICS ON FACEBOOK SHOW DAMAGE TO ROOF OF HOME AND TREES UPROOTED. (FGF)
0104,UNK,ASHLEY,MCINTOSH,ND,46.03,-99.37,SHERRIFF FROM ASHLEY CALLED TO REPORT DAMAGE TO A STEEL STRUCTURE AND A WOODEN BUILDING. BOTH BUILDINGS WERE SIDE BY SIDE. THE STEEL STRUCTURE WAS BLOWEN OR LIFTED ABOU (BIS)
0105,65,10 W LOWER BRULE,LYMAN,SD,44.07,-99.78,LOOSING SEVERAL BRANCHES OFF TREES (ABR)
0110,UNK,NIELSVILLE,POLK,MN,47.53,-96.82,TOWN MAYOR REPORTS STRAIGHTLINE WIND DAMAGE IN TOWN WITH SHINGLES OFF HOMES... TREES UPROOTED AND HAIL DAMAGE TO SIDING. (FGF)
0115,60,5 NNW OSAGE,WESTON,WY,44.05,-104.46,(UNR)
0121,70,5 SE JOE CREEK REC AREA,LYMAN,SD,44.09,-99.74,70 MPH WIND GUSTS... SMALL BRANCHES BROKEN OFF AND HEAVY RAIN (ABR)
0122,60,4 NW FAULKTON,FAULK,SD,45.08,-99.19,(ABR)
0125,UNK,3 SSW GREENVIEW,POLK,MN,47.59,-96.58,NUMEROUS TREES AND LARGE TREE LIMBS SNAPPED IN FARMSTEADS AND SHELTER BELTS ACROSS NORTHERN SCANDIA AND FAR SOUTHERN HAMMOND TOWNSHIPS. PEAK WINDS ESTIMATED FROM 80 TO (FGF)
0130,60,COLOME,TRIPP,SD,43.26,-99.72,(UNR)
0130,60,5 E ORIENT,HAND,SD,44.9,-98.98,PEAK WIND GUST FROM THE MIRANDA SDDOT MESONET STATION. (ABR)
0140,60,RED SCAFFOLD,ZIEBACH,SD,44.77,-101.85,(UNR)
0300,60,5 E VALE,BUTTE,SD,44.62,-103.3,(UNR)
0318,70,12 W GOODLAND,SHERMAN,KS,39.35,-101.93,MEASURED USING A DAVIS WEATHER STATION. (GLD)
0339,75,4 W GOODLAND,SHERMAN,KS,39.35,-101.78,(GLD)
0510,63,MCCOOK,RED WILLOW,NE,40.2,-100.62,(GLD)
0530,60,10 ESE STOCKVILLE,FRONTIER,NE,40.48,-100.21,(LBF)
Time,Size,Location,County,State,Lat,Lon,Comments
1925,100,MARIETTA,FULTON,IL,40.5,-90.39,(ILX)
1945,175,2 N ELMWOOD,PEORIA,IL,40.81,-89.97,(ILX)
1945,100,3 E WAKPALA,CORSON,SD,45.66,-100.47,NICKEL TO QUARTER SIZE HAIL (ABR)
2002,100,RAY,SCHUYLER,IL,40.22,-90.48,(ILX)
2005,175,7 N GLENHAM,CAMPBELL,SD,45.63,-100.27,GOLFBALL SIZE HAIL WITH SMALLER HAIL MIXED IN. NO APPARENT DAMAGE AT TIME OF REPORT (ABR)
2020,100,4 SSE MONROE,UNION,NC,34.93,-80.52,SPOTTER REPORTS QUARTER SIZE HAIL. SOME DAMAGE TO GARDEN PLANTS. (GSP)
2026,175,ASTORIA,FULTON,IL,40.23,-90.36,(ILX)
2035,100,6 NW SELBY,WALWORTH,SD,45.58,-100.11,MAINLY QUARTER SIZE HAIL WITH NO APPARENT DAMAGE AT TIME OF REPORT (ABR)
2047,100,5 SE PILLSBURY,BARNES,ND,47.16,-97.72,HAILED APPROXIMATELY 15-20 MINUTES BETWEEN TWO SEPARATE STORMS. (FGF)
2100,175,1 SW GALESBURG,TRAILL,ND,47.26,-97.42,RANGED FROM QUARTER TO GOLF BALL SIZE. (FGF)
2110,100,3 S OGLALA,SHANNON,SD,43.14,-102.73,(UNR)
2110,100,5 S HILLSBORO,TRAILL,ND,47.33,-97.06,VIA VALLEY NEWS LIVE FACEBOOK PAGE. TIME ESTIMATED. (FGF)
2130,175,HILLSBORO,TRAILL,ND,47.4,-97.06,PUBLIC REPORT VIA VALLEY NEWS LIVE FACEBOOK (FGF)
2135,100,1 S VERSAILLES,BROWN,IL,39.87,-90.66,(LSX)
2135,100,9 W THOMPSON,GRAND FORKS,ND,47.77,-97.3,PIC POSTED TO FACEBOOK (FGF)
2137,100,3 E ASHLEY,MCINTOSH,ND,46.03,-99.31,PHOTO OF MULTIPLE HAIL STONES FROM LAW ENFORCEMENT SHOWS AT LEAST A ONE INCH HAIL STONE WITHIN THE PILE. (BIS)
2140,100,2 NW HANAHAN,CHARLESTON,SC,32.94,-80.04,QUARTER SIZE HAIL NEAR DUNLAP STREET AND RIVERS AVENUE. (CHS)
2145,175,CRESCENT CITY,IROQUOIS,IL,40.77,-87.86,EXTENSIVE DAMAGE TO CROPS NEAR TOWN THAT APPEARED TO BE CAUSED BY LARGE HAIL AND/OR LARGE HAIL AND SEVERE WINDS BASED ON PHOTOS. TIME ESTIMATED PER RADAR. (LOT)
2145,100,ARGUSVILLE,CASS,ND,47.05,-96.94,VIA VALLEY NEWS LIVE FACEBOOK. TIME ESTIMATED FROM RADAR. (FGF)
2147,175,BOWDLE,EDMUNDS,SD,45.45,-99.66,GOLF BALL SIZED HAIL REPORTED IN BOWDLE (ABR)
2150,100,4 NNE PASTURA,GUADALUPE,NM,34.83,-104.93,STATE POLICE REPORTED QUARTER SIZED HAIL ON STATE ROAD 219 SOUTH OF INTERSTATE 40. (ABQ)
2150,125,NE TOGA,BUCKINGHAM,VA,37.5,-78.61,(RNK)
2157,100,SYLVESTER AIRPORT,WORTH,GA,31.56,-83.89,QUARTER SIZED HAIL IN SYLVESTER (TAE)
2159,100,4 SE MEXICO,AUDRAIN,MO,39.13,-91.82,WINDS GUSTS 30 TO 35 MPH (LSX)
2216,175,6 N HORACE,GREELEY,KS,38.56,-101.79,RELAYED BY EM GREELEY COUNTY. (GLD)
2228,175,7 S SHARON SPRINGS,WALLACE,KS,38.8,-101.74,1 1/2 TO 1 3/4 INCH DIAMETER HAIL FOUND ON THE GROUND NEAR MILE MARKER 133 ON HIGHWAY 27. TIME REPRESENTS AN ESTIMATE OF WHEN THE HAIL FELL BASED ON RADAR. (GLD)
2240,250,5 SW ROSCOE,EDMUNDS,SD,45.4,-99.42,GOLFBALL TO TENNIS BALL SIZE HAIL... DAMAGED SPOTTERS VEHICLE... REPORT RELAYED THROUGH EDMUNDS COUNTY EMERGENCY MANAGER (ABR)
2245,175,8 NW MIDLAND,HAAKON,SD,44.15,-101.27,(UNR)
2253,100,WALLACE,WALLACE,KS,38.91,-101.59,(GLD)
2255,175,5 S ROSCOE,EDMUNDS,SD,45.38,-99.34,CHASER UPDATED REPORT TO GOLF BALL SIZE (ABR)
2300,150,11 N HORACE,GREELEY,KS,38.64,-101.75,(GLD)
2300,200,6 NNW SANSARC,STANLEY,SD,44.59,-101.06,GOLFBALL TO HEN EGG SIZE HAIL (ABR)
2305,100,4 N MIDLAND,HAAKON,SD,44.13,-101.15,(UNR)
2318,100,2 ENE PEMBROOK COLONY,EDMUNDS,SD,45.39,-98.96,NICKEL TO QUARTER SIZE HAIL WITH NO APPARENT DAMAGE AT TIME OF REPORT (ABR)
2319,175,HILL CITY,PENNINGTON,SD,43.93,-103.57,HAIL ENDED AT 530 PM. (UNR)
2321,100,3 NNW MISSION RIDGE,STANLEY,SD,44.72,-100.82,RESIDENT REPORTED QUARTER SIZED HAIL...GROUND COVERED (ABR)
2323,175,MILLARTON,STUTSMAN,ND,46.67,-98.76,REPORT VIA LOCAL MEDIA SOCIAL MEDIA PAGE. (BIS)
2324,100,ECKELSON,BARNES,ND,46.94,-98.33,RANGED FROM PEA TO QUARTER SIZE. (FGF)
2325,100,11 SSW FLORENCE,FLORENCE,SC,34.03,-79.85,QUARTER SIZE HAIL FALLING ALONG HWY 301 (ILM)
2330,100,1 W SYRACUSE,HAMILTON,KS,37.98,-101.77,(DDC)
2330,175,INDUS,KOOCHICHING,MN,48.63,-93.84,(DLH)
2332,100,5 SE EUREKA,MCPHERSON,SD,45.72,-99.55,QUARTER SIZED HAIL REPORTED BY PUBLIC (ABR)
2337,100,17 N SYRACUSE,HAMILTON,KS,38.22,-101.73,(DDC)
2348,275,10 NNE WHITLOCKS BAY RE,POTTER,SD,45.17,-100.18,HAIL LASTED MORE THAN 30 MINUTES WITH THE LARGEST STONES BASEBALL SIZE (ABR)
2350,100,19 SSW ROZET,CAMPBELL,WY,44.03,-105.33,(UNR)
0006,100,3 ESE KAMPVILLE,ST. CHARLES,MO,38.84,-90.5,(LSX)
0010,175,1 SW MYSTIC,PENNINGTON,SD,44.06,-103.66,(UNR)
0014,100,HOSMER,EDMUNDS,SD,45.58,-99.47,SOCIAL MEDIA REPORT WITH PICTURE AND TIMESTAMP (ABR)
0017,100,11 SSE WESTON,CAMPBELL,WY,44.5,-105.23,(UNR)
0025,125,18 SW UPTON,WESTON,WY,43.92,-104.88,(UNR)
0030,175,12 N SYRACUSE,HAMILTON,KS,38.15,-101.76,THE HAIL ALSO DID DAMAGE TO THE WHEAT. (DDC)
0030,125,ROCHFORD,PENNINGTON,SD,44.12,-103.72,(UNR)
0035,100,1 S SENATOBIA,TATE,MS,34.6,-89.97,ONE INCH HAIL NEAR SENATOBIA. (MEG)
0040,125,13 SE DEADWOOD,LAWRENCE,SD,44.24,-103.54,HAIL SIZE REDUCED TO 1 INCH SIZE AT 653 PM. (UNR)
0044,175,HILLSBORO,TRAILL,ND,47.4,-97.06,VERIFIED BY PIC ON FACEBOOK PAGE. HAIL CONTINUED IN TOWN THROUGH 750 PM. (FGF)
0045,100,12 NE CREIGHTON,PENNINGTON,SD,44.38,-102.04,ALSO HAD 1.5 INCHES OF RAIN FROM 2 STORMS TONIGHT. HAIL WAS IN FIRST STORM AT TIME LISTED. (UNR)
0045,100,4 NE MIRANDA,FAULK,SD,45.01,-98.91,QUARTER SIZED HAIL WITH 50 MPH WINDS (ABR)
0101,100,7 W SWAN CREEK REC AREA,DEWEY,SD,45.3,-100.4,(ABR)
0110,100,3 WSW BRIDGER,ZIEBACH,SD,44.53,-101.97,(UNR)
0112,175,5 S CLIMAX,POLK,MN,47.53,-96.81,ALONG HIGHWAY 75 (FGF)
0130,100,5 WNW BUCKHORN,WESTON,WY,44.18,-104.19,(UNR)
0130,125,3 WNW NEMO,LAWRENCE,SD,44.21,-103.55,(UNR)
0130,100,WNW RANCHESTER,SHERIDAN,WY,44.91,-107.17,(BYZ)
