Time,F_Scale,Location,County,State,Lat,Lon,Comments
1726,UNK,5 SE NORTH PLATTE,LINCOLN,NE,41.08,-100.7,A WEAK LAND SPOUT TYPE TORNADO WAS SPOTTED FROM THE WEATHER OFFICE AT LEE BIRD FIELD. (LBF)
1733,UNK,6 SE NORTH PLATTE,LINCOLN,NE,41.07,-100.69,OFF-DUTY NWS EMPLOYEE SPOTTED A TORNADO LOOKING NORTH FROM 15 MILES SOUTHEAST OF NORTH PLATTE. (LBF)
Time,Speed,Location,County,State,Lat,Lon,Comments
1200,65,3 SSW WHITLOCKS BAY REC,POTTER,SD,45.01,-100.29,(ABR)
1230,60,5 S POTATO CREEK,JACKSON,SD,43.46,-101.99,(UNR)
1250,62,TOLSTOY,POTTER,SD,45.21,-99.61,(ABR)
1430,78,TOLSTOY,POTTER,SD,45.21,-99.61,POSSIBLE WAKE LOW - DAMAGE TO OUTBUILDINGS NEARBY IN FAULK CO (ABR)
1825,UNK,6 SSW NIMROD,WADENA,MN,46.56,-94.93,BIRCH TREE TAKEN DOWN NEAR LYONS STATE FOREST (FGF)
1903,UNK,1 NW MONTVALE,BEDFORD,VA,37.39,-79.74,1 TREE DOWN ALONG INTERSTATE 460 IN THE VICINITY OF MONTVALE (RNK)
2040,58,4 SSE ROSWELL,CHAVES,NM,33.32,-104.5,KROW ASOS. (ABQ)
2045,UNK,5 NE GREENVILLE,GREENVILLE,SC,34.88,-82.3,STRONG WIND BROUGHT DOWN A MAGNOLIA TREE IN THE CARIS BROOKE DIVISION OFF HUDSON ROAD. BASE VELOCITY RADAR INDICATES 32 KNOT WIND IN THAT AREA AT 445 PM. (GSP)
2120,UNK,ST. PETER,FAYETTE,IL,38.87,-88.85,CARPORT ROOF BLOWN OFF...SEVERAL POWER POLES LEANING 45 DEGREES...SEVERAL LARGE TREE LIMBS BLOWN DOWN...VIA TWITTER. (LSX)
2133,UNK,1 SSE GEORGETOWN,DISTRICT OF COLUM,DC,38.91,-77.07,A TREE WAS REPORTED DOWN AT 37TH STREET NORTHWEST AND RESERVOIR ROAD NORTHWEST. (LWX)
2135,UNK,2 ENE BARCROFT,ARLINGTON,VA,38.86,-77.08,A TREE WAS REPORTED DOWN IN THE 1900 BLOCK OF COLUMBIA PIKE. (LWX)
2143,UNK,PROGRESS,DAUPHIN,PA,40.29,-76.84,TREES DOWN IN SUSQUEHANNA TWP (CTP)
2148,UNK,1 SE ROBERTSVILLE,STARK,OH,40.75,-81.18,TREE DOWN. (CLE)
2152,60,2 N SEVEN RIVERS,EDDY,NM,32.62,-104.42,(MAF)
2200,UNK,5 N HARRISBURG,DAUPHIN,PA,40.35,-76.88,TWO TREES DOWN ON WIRES IN SUSQUEHANNA TOWNSHIP (CTP)
2203,UNK,1 NW ANNVILLE,LEBANON,PA,40.34,-76.52,TREES DOWN (CTP)
2205,UNK,3 E SUNBURY,NORTHUMBERLAND,PA,40.86,-76.73,TREES AND WIRES DOWN (CTP)
2221,UNK,GRATZ,DAUPHIN,PA,40.61,-76.72,TREES DOWN IN LYKENS TWP (CTP)
2224,UNK,CONNEAUT,ASHTABULA,OH,41.93,-80.57,SEVERAL 6-12 INCH DIAMETER TREES DOWN. (CLE)
2245,73,2 WNW HEREFORD,DEAF SMITH,TX,34.83,-102.43,DELAYED REPORT. (AMA)
2253,UNK,4 NW EDINBORO,ERIE,PA,41.92,-80.18,TREE DOWN IN FRANKLIN TOWNSHIP (CLE)
2300,UNK,5 E LAS VEGAS,CLARK,NV,36.17,-115.06,THUNDERSTORM WINDS BLEW OUT THE INSERT OF A SIGN ON A SEVEN ELEVEN STORE NEAR NELLIS AND STEWART. (VEF)
2303,58,4 NNE NORTH PLATTE,LINCOLN,NE,41.19,-100.74,(LBF)
2306,UNK,BORGER,HUTCHINSON,TX,35.66,-101.4,WOODEN TELEPHONE POLE BLEW OVER INTO CAR PARKED IN A DRIVEWAY NEAR MONROE ST AND HEMLOCK ST. WINDSPEED UNKNOWN. (AMA)
2312,UNK,CHICORA,BUTLER,PA,40.95,-79.74,TREES DOWN (PBZ)
2312,UNK,UNION CITY,ERIE,PA,41.9,-79.84,TREE AND POWERLINES DOWN NEAR UNION CITY (CLE)
2317,UNK,SOUTH RUSSELL,GEAUGA,OH,41.43,-81.33,SEVERAL LARGE TREES DOWN ALONG ROUTE 306. (CLE)
2324,UNK,2 N COCHRANTON,CRAWFORD,PA,41.55,-80.05,COUPLE TREES DOWN NEAR COCHRANTON (CLE)
2331,UNK,BUSHLAND,POTTER,TX,35.19,-102.06,TRAMPOLINE BLOWN OVER A BASKETBALL GOAL...A WOODEN BASEBALL FIELD FENCE BLOWN DOWN...AND A DUMPSTER OVERTURNED. (AMA)
2331,UNK,NORTH PLATTE,LINCOLN,NE,41.13,-100.77,LARGE TREE DOWN ON THE CORNER OF SYCAMORE AND E STREETS. (LBF)
2335,93,3 E BUSHLAND,POTTER,TX,35.19,-102.01,PERSISTENT GUSTS BETWEEN 70 TO 90 MPH. REPORT VIA KVII SCHOOLNET. (AMA)
2335,UNK,3 NE CALHOUN,HENRY,MO,38.5,-93.59,PIECES OF METAL ROOFING BLOWN OFF A FEW BARNS. TIME AND LOCATION ESTIMATED BY RADAR. (EAX)
2335,UNK,MORROWS CORNER,ARMSTRONG,PA,40.91,-79.54,TREES AND WIRES DOWN WASHINGTON TWP (PBZ)
2338,70,3 S DURHAM,MARION,KS,38.44,-97.23,TRAINED SPOTTER REPORTS 60-70 MPH WINDS. (ICT)
2343,65,7 E BUSHLAND,RANDALL,TX,35.18,-101.94,WINDS OF AT LEAST 65 MPH NEAR SONCY RD AND 34TH AVE. (AMA)
2350,85,6 NNW AMARILLO,POTTER,TX,35.29,-101.85,(AMA)
2350,UNK,FRANCONIA TWP,MONTGOMERY,PA,40.31,-75.36,SEVERAL TREES DOWN AND A MAILBOX BLOWN INTO NEIGHBORS DRIVEWAY (PHI)
2350,UNK,KITTANNING,ARMSTRONG,PA,40.83,-79.52,TREES AND WIRES DOWN (PBZ)
2355,UNK,WEST SUNBURY,BUTLER,PA,41.01,-79.9,TREES DOWN ACROSS CENTRAL AND NORTHERN BUTLER COUNTY. (PBZ)
2358,UNK,2 SSE AMARILLO,POTTER,TX,35.18,-101.81,ROOF BLOWN OFF OF WESTERN MARKETING INC. BUILDING ON SOUTHEAST 3RD AVENUE AND HOUSTON STREET. (AMA)
0005,69,9 N AMARILLO,POTTER,TX,35.34,-101.81,(AMA)
0012,UNK,SEBRING,MAHONING,OH,40.92,-81.02,LARGE LIMBS DOWN. (CLE)
0020,UNK,1 ESE NORTH WASHINGTON,WESTMORELAND,PA,40.52,-79.57,TREE DOWN ON BEAVER RUN RD (PBZ)
0034,UNK,HANOVERTON,COLUMBIANA,OH,40.76,-80.94,TREES DOWN (PBZ)
0040,UNK,7 N AMARILLO,POTTER,TX,35.3,-101.82,TREE REPORTED BLOWN DOWN AT US HIGHWAY 287 AND GIVENS ROAD IN THE RIVER ROAD AREA. (AMA)
0053,UNK,2 SW WILSEY,MORRIS,KS,38.62,-96.7,DELAYED REPORT. RADAR ESTIMATED TIME. ABOUT 4 OR 5 TREE BRANCHES APPROXIMATELY 6 INCHES IN DIAMETER BROKEN OFF THE TREES NEAR THE INTERSECTION OF 1900 RD AND Z AVE. (TOP)
0057,UNK,BUSHLAND,POTTER,TX,35.19,-102.06,TRAMPOLINE BLOWN OVER A BASKETBALL GOAL...A WOODEN BASEBALL FIELD FENCE BLOWN DOWN...AND A DUMPSTER OVERTURNED. (AMA)
0100,UNK,3 W BEAVER FALLS,BEAVER,PA,40.76,-80.38,TREES AND WIRES DOWN ACROSS CHIPEWA TWP. (PBZ)
0102,UNK,2 SSE AMARILLO,POTTER,TX,35.18,-101.81,ROOF BLOWN OFF OF WESTERN MARKETING INC. BUILDING ON SOUTHEAST 3RD AVENUE AND HOUSTON STREET. (AMA)
0102,UNK,LEXINGTON PARK,ST. MARYS,MD,38.26,-76.45,A TREE FELL ON A CAR IN THE 21500 BLOCK OF MISSOURI AVENUE. (LWX)
0116,UNK,1 SSE LINCOLN,ALLEGHENY,PA,40.28,-79.85,TREES DOWN (PBZ)
0130,UNK,1 WSW BROADVIEW,ALLEGHENY,PA,40.61,-79.78,WIRES DOWN AT 142 DAYS RUN RD (PBZ)
0147,UNK,DERRY,WESTMORELAND,PA,40.33,-79.3,TREES AND POWER LINES DOWN IN DERRY TWP. (PBZ)
0148,UNK,IRWIN,WESTMORELAND,PA,40.33,-79.7,TREES AND WIRES REPORTED DOWN NEAR TOWN. (PBZ)
0215,UNK,2 NE WESTLAND,WASHINGTON,PA,40.29,-80.25,TREES AND WIRES DOWN (PBZ)
0215,UNK,BEECHVIEW,ALLEGHENY,PA,40.41,-80.03,TREES AND WIRES DOWN ON BANKSVILLE RD (PBZ)
0230,UNK,2 NW EAST MARIANNA,WASHINGTON,PA,40.03,-80.12,TREES AND WIRES DOWN ON MONTGOMERY ROAD (PBZ)
0256,UNK,2 NE MASONTOWN,FAYETTE,PA,39.87,-79.88,NUMEROUS TREES REPORTED DOWN THROUGHOUT GERMAN TOWNSHIP. (PBZ)
0602,UNK,3 SSW THURMONT,FREDERICK,MD,39.59,-77.43,A TREE WAS REPORTED DOWN IN THE 6900 BLOCK OF KELLYS STORE ROAD. (LWX)
Time,Size,Location,County,State,Lat,Lon,Comments
1929,100,HOLYOKE,PHILLIPS,CO,40.58,-102.3,(BOU)
2045,100,2 NW GOESSEL,MARION,KS,38.27,-97.37,(ICT)
2100,125,17 SW MULLEN,HOOKER,NE,41.87,-101.28,(LBF)
2136,175,3 S STERLING,LOGAN,CO,40.61,-103.21,(BOU)
2209,175,5 NW WHEATLAND,PLATTE,WY,42.1,-105.03,(CYS)
2215,175,FRIONA,PARMER,TX,34.64,-102.72,REPORTED VIA TWITTER (LUB)
2225,250,8 S WHEATLAND,PLATTE,WY,41.94,-104.96,(CYS)
2248,175,8 NNW CHUGWATER,PLATTE,WY,41.86,-104.88,(CYS)
2305,175,CHUGWATER,PLATTE,WY,41.76,-104.82,(CYS)
2332,150,4 E CHUGWATER,PLATTE,WY,41.76,-104.74,(CYS)
2347,100,10 SE CHUGWATER,PLATTE,WY,41.65,-104.68,(CYS)
0022,175,14 NE WHITAKER,LARAMIE,WY,41.55,-104.68,REPORTED NEAR THE LARAMIE COUNTY LINE. (CYS)
0102,100,10 N CHEYENNE,LARAMIE,WY,41.29,-104.79,(CYS)
0109,100,LEXINGTON PARK,ST. MARYS,MD,38.26,-76.45,(LWX)
0111,100,LANDER,FREMONT,WY,42.83,-108.73,DIME SIZE HAIL WITH A FEW QUARTER SIZE HAIL MIXED IN. (RIW)
0149,100,BURNS,LARAMIE,WY,41.19,-104.36,(CYS)
