Time,F_Scale,Location,County,State,Lat,Lon,Comments
1846,UNK,6 S BYRDSTOWN,PICKETT,TN,36.48,-85.13,EF1 TORNADO TOUCHED DOWN ON DALE HOLLOW LAKE SOUTH OF BYRDSTOWN THEN MOVED SOUTHEAST ACROSS FAR SOUTHERN PICKETT COUNTY INTO NORTHWESTERN FENTRESS COUNTY CROSSING HIGHW (OHX)
1952,UNK,3 W COOKEVILLE,PUTNAM,TN,36.16,-85.56,TORNADO REPORTED ON THE GROUND NEAR NORTH DRIVE IN DOUBLE SPRINGS WEST OF COOKEVILLE (OHX)
2004,UNK,4 W COOKEVILLE,PUTNAM,TN,36.16,-85.58,THREE HOMES AND ONE BUSINESS WITH DAMAGE. NUMEROUS TREES AND POWER LINES DOWN AROUND DOUBLE SPRINGS ROAD AND HWY 70 (OHX)
2017,UNK,1 NW WEST ALMOND,ALLEGANY,NY,42.31,-77.89,DAMAGE ALONG I-86 AND SURROUNDING AREA WITH MANY TREES DOWN. TRAINED SPOTTER REPORTED FUNNEL CLOUD. (BUF)
2138,UNK,3 NE FLEMINGSBURG,FLEMING,KY,38.46,-83.7,EF1 TORNADO WITH WINDS UP TO 100 MPH TOUCHED DOWN ON A FARM OFF HARN ROAD SEVERELY DAMAGING OR DESTROYING FOUR BARNS AND SHOVING A MOBILE HOME SEVERAL FEET OFF THE FOUN (JKL)
2220,UNK,5 SE GREENSBURG,GREEN,KY,37.2,-85.44,EF1 95-105 MPH... 1.1 MILES LONG... 50 YARDS WIDE DESTROYED 2 BARNS... 1 MOBILE HOME... 6 LARGE OUTBUILDINGS ALONG EBENEZER ROAD AND HIGHWAY 61 (LMK)
2300,UNK,3 SW FLORENCE,COLBERT,AL,34.77,-87.71,EF1 TORNADO WITH ESTIMATED PEAK WIND OF 95 MPH. PATH LENGTH OF 9.11 MILES AND PATH WIDTH UP TO 150 YARDS. (HUN)
2314,UNK,1 WNW TOWN CREEK,LAWRENCE,AL,34.69,-87.43,AN EF-1 TORNADO WITH 100 MPH MAXIMUM WINDS...A PATH LENGTH OF 11.4 MILES AND A PATH WIDTH OF 250 YARDS DEVELOPED ALONG COUNTY ROAD 273 ABOUT A MILE WEST OF TOWN CREEK A (HUN)
2318,UNK,2 NE LA GRANGE,COLBERT,AL,34.6,-87.53,EF-0 TORNADO WITH PEAK WIND SPEEDS OF 85 MPH. PATH LENGTH WAS 2.66 MILES AND PATH WIDTH OF UP TO 50 YARDS. (HUN)
2318,UNK,2 NNW TRIANA,MADISON,AL,34.61,-86.75,EF-0 TORNADO WITH PEAK WIND SPEEDS OF 85 MPH. PATH LENGTH OF 0.91 MILES AND PATH WIDTH OF UP TO 75 YARDS. (HUN)
2348,UNK,4 NNE HARTSELLE,MORGAN,AL,34.5,-86.9,EF0 TORNADO WITH ESTIMATED PEAK WIND OF 80 MPH. PATH LENGTH OF 0.76 MILES AND PATH WIDTH UP TO 100 YARDS. (HUN)
2359,UNK,4 ESE FALKVILLE,MORGAN,AL,34.35,-86.84,EF1 TORNADO WITH ESTIMATED PEAK WID OF 95 MPH. PATH LENGTH OF 4.9 MILES AND PATH WIDTH OF UP TO 300 YARDS. (HUN)
Time,Speed,Location,County,State,Lat,Lon,Comments
1205,UNK,MILLS RIVER,HENDERSON,NC,35.39,-82.57,A FEW TREES BLOWN DOWN THIS MORNING IN THE MILLS RIVER AREA. (GSP)
1205,UNK,BAT CAVE,HENDERSON,NC,35.45,-82.28,AT LEAST ONE TREE BLOWN DOWN THIS MORNING IN THE BAT CAVE AND GERTON AREA WHEN THE LINE OF STORMS MOVED THROUGH. THIS LINE OF STORMS WEAKENED AS IT WENT FARTHER SOUTH. (GSP)
1214,UNK,JONESVILLE,LEE,VA,36.69,-83.12,SEVERAL TREES DOWN COUNTY WIDE OVER THE PAST HOUR (MRX)
1318,UNK,GRIDLEY,COFFEY,KS,38.1,-95.88,REPORTS OF A POWER LINE DOWN. MULTIPLE TREE LIMBS OF UNKNOWN SIZE REPORTED DOWN AS WELL. (TOP)
1320,UNK,YATES CENTER,WOODSON,KS,37.87,-95.74,REPORTS OF TREES AND POWER LINES DOWN NEAR YATES CENTER AND THE WESTERN PORTIONS OF THE COUNTY. (ICT)
1341,60,2 WSW COLONY,ANDERSON,KS,38.06,-95.4,ESTIMATED 55 TO 60 MPH WIND GUST (TOP)
1343,60,IOLA,ALLEN,KS,37.93,-95.4,POWER LINES WERE REPORTED DOWN ALONG WITH DEBRIS IN THE ROADWAYS. (ICT)
1420,UNK,4 N REDFIELD,BOURBON,KS,37.9,-94.88,TREES REPORTED DOWN ON COUNTY ROAD 125 BETWEEN REDFIELD AND MAPLETON. (SGF)
1424,UNK,BLUE MOUND,LINN,KS,38.09,-95.01,LARGE TREE BLOW DOWN AT 610 EAST MAIN IN BLUE MOUND. (EAX)
1430,UNK,TOWNSEND,BLOUNT,TN,35.68,-83.75,2 TREES DOWN IN TOWNSEND. 1 LARGE LIMB IN THE ROAD. (MRX)
1438,UNK,FORT SCOTT,BOURBON,KS,37.84,-94.71,POWER LINES REPORTED DOWN IN TOWN. (SGF)
1505,UNK,MADISONVILLE,MONROE,TN,35.52,-84.36,COUPLE TREES DOWN. (MRX)
1549,UNK,FAIR PLAY,POLK,MO,37.63,-93.57,ROOF DAMAGE TO A BARN. PICTURE RELAYED ON SOCIAL MEDIA FROM LOCAL TV STATION. (SGF)
1550,UNK,3 S UMBER VIEW HEIGHTS,CEDAR,MO,37.58,-93.8,TWO INCH DIAMETER LIMBS DOWN. (SGF)
1600,UNK,MARBLE,CHEROKEE,NC,35.17,-83.93,TREES DOWN. (MRX)
1603,UNK,3 WNW PLEASANT HOPE,POLK,MO,37.48,-93.32,TREE DAMAGE REPORTED NEAR THE INTERSECTIONS OF COUNTY ROADS S170 AND E530. (SGF)
1610,UNK,WILLARD,GREENE,MO,37.31,-93.43,TREE DOWN AT TEH INTERSECTION OF FARMER AND CHERRY STREETS IN TOWN. TIME ESTIMATED FROM RADAR. (SGF)
1610,60,4 SSE BOLIVAR,POLK,MO,37.56,-93.38,NICKLE HAIL ALSO REPORTED WITH THE WIND GUST. (SGF)
1620,UNK,HIAWASSEE,TOWNS,GA,34.95,-83.76,FEW TREES DOWN (FFC)
1625,UNK,1 S FAIR GROVE,GREENE,MO,37.37,-93.15,10 INCH DIAMETER TREE BRANCH SNAPPED 1 MILE SOUTH OF FAIR GROVE ALONG HIGHWAY 125. TIME ESTIMATED BASED ON RADAR. (SGF)
1625,UNK,1 NE CRIDERSVILLE,AUGLAIZE,OH,40.66,-84.14,ONE TREE DOWN ON SPENCER CIRCLE AND ANOTHER ON BROWN RD IN CRIDERSVILLE AREA. TIME ESTIMATED BY RADAR. (ILN)
1631,60,3 NW EBENEZER,GREENE,MO,37.38,-93.34,A FEW TREES REPORTED DOWN NEAR FARM ROAD 34 AND HIGHWAY 13. (SGF)
1645,UNK,MARSHFIELD,WEBSTER,MO,37.34,-92.91,LIMBS TO 6 INCHES IN DIAMETER DOWN ON BANNING STREET IN TOWN. (SGF)
1650,UNK,2 SW SUMMERTON,CLARENDON,SC,33.58,-80.38,PUBLIC REPORTED TREE LIMBS DOWN AND PENNY SIZED HAIL 2 MILES SOUTHWEST OF SUMMERTON. TIME ESTIMATED FROM RADAR. (CAE)
1650,UNK,JENISON,OTTAWA,MI,42.9,-85.83,SPOTTER REPORTED THAT A LARGE TREE LIMB ABOUT 6 INCHES IN DIAMETER HAD BEEN SNAPPED AND LANDED ON THE ROOF OF A HOUSE. TIME ESTIMATED BY RADAR. (GRR)
1657,UNK,TIFFIN,SENECA,OH,41.12,-83.18,TWO FOOT DIAMETER LIMB DOWNED INTO A HOUSE. POWER LINES ALSO BROUGHT DOWN IN THE AREA. (CLE)
1658,UNK,WILLARD,GREENE,MO,37.31,-93.43,SMALL 1 INCH LIMBS DOWN FROM HWY 123 TO FR 42 AND FROM FR 91 TO FR 79 IN NORTHERN GREENE COUNTY. TIME ESTIMATED BASED ON RADAR. (SGF)
1700,UNK,2 S FAIR GROVE,GREENE,MO,37.35,-93.15,LARGE 8 INCH DIAMETERR LIMB DOWN ON HIGHWAY 125. (SGF)
1715,UNK,9 E HARTVILLE,WRIGHT,MO,37.25,-92.35,DAMAGE TO A BARN. LARGE LIMBS DOWN. (SGF)
1715,UNK,4 NW NIANGUA,WEBSTER,MO,37.42,-92.88,MSHP REPORTS PART OF A ROOF BLOWN INTO TRAFFIC NEAR THE 107 MILE MARKER ON I-44. TRAFFIC BLOCKED. (SGF)
1720,UNK,SOUTH RUSSELL,GEAUGA,OH,41.43,-81.33,SEVERAL TREES DOWN ON SR 87- ROAD IS CLOSED IN RUSSELL TWP. (CLE)
1730,UNK,3 W WALDO,MARION,OH,40.46,-83.14,SEVERAL TREES DOWN IN SOUTHERN MARION COUNTY OFF OF STATE ROUTE 4 AND PROSPECT-UPPER SANDUSKY ROAD SOUTH. (CLE)
1742,58,CABOOL,TEXAS,MO,37.12,-92.1,(SGF)
1742,UNK,4 NNE DELAWARE,DELAWARE,OH,40.35,-83.03,1 TREE REPORTED DOWN AT HANOVER ROAD AND HORSESHOE ROAD (ILN)
1744,UNK,BOWERSVILLE,HART,GA,34.37,-83.08,TREES DOWN ALONG HWY 17...ONE ON A TRANSFORMER. (GSP)
1750,UNK,GREENEVILLE,GREENE,TN,36.17,-82.82,TREE DOWN ON BAILEYTON RD. (MRX)
1756,UNK,3 SSE BURKESVILLE,CUMBERLAND,KY,36.75,-85.34,TREES DOWN... AND PEA SIZE HAIL (LMK)
1758,UNK,1 N WILLOW SPRINGS,HOWELL,MO,37.01,-91.97,TREES DOWN ACROSS ROAD ON OLD ROLLA ROAD. (SGF)
1800,UNK,LA FOLLETTE,CAMPBELL,TN,36.37,-84.13,COUPLE TREES DOWN. (MRX)
1808,UNK,3 NNE WHITE CHURCH,HOWELL,MO,36.89,-91.77,TREES AND LIMBS DOWN UP TO EIGHT INCHES IN DIAMETER. (SGF)
1810,UNK,3 S TARBORO,JASPER,SC,32.49,-81.16,JASPER COUNTY DISPATCH REPORTS A TREE DOWN WITH POWER LINES ON SAND HILLS ROAD WEST OF HW-321. (CHS)
1810,UNK,WADSWORTH,MEDINA,OH,41.02,-81.73,LARGE TREE DOWN ON ROAD IN WADSWORTH...REPORT VIA SOCIAL MEDIA...TIME IS RADAR ESTIMATED. (CLE)
1814,UNK,2 ESE DOYLESTOWN,WAYNE,OH,40.96,-81.66,SEVERAL REPORTS OF WIND DAMAGE IN CHIPPEWA TOWNSHIP...RELAYED BY RITTMAN POLICE. FALLEN TREES AND DAMAGE TO SIX TRAILERS AT A MOBILE HOME PARK. WOODEN SHED DAMAGED. SOM (CLE)
1816,UNK,ALBANY,CLINTON,KY,36.69,-85.14,TREE DOWN IN THE TOWN OF ALBANY. ALSO SOME SMALL HAIL AT THE HEIGHT OF THE STORM. TIME ESTIMATED FROM RADAR. (LMK)
1816,UNK,2 S MOUNT VERNON,KNOX,OH,40.36,-82.48,TREE REPORTED DOWN ON A HOME ON NEW GAMBIER RD. NUMEROUS TREES AND POWERLINES DOWN ACROSS SOUTHERN PORTION OF COUNTY. (CLE)
1820,UNK,11 SW ERWIN,UNICOI,TN,36.03,-82.55,SEVERAL TREES DOWN IN THE FLAG POND AREA. (MRX)
1821,UNK,CLINTON,SUMMIT,OH,40.93,-81.63,SEVERAL TREES DOWN IN CLINTON OFF VAN BUREN ROAD. (CLE)
1823,UNK,2 ENE GAHANNA,FRANKLIN,OH,40.03,-82.84,SEVERAL LARGE TREE LIMBS DOWN ACROSS AREA. TIME ESTIMATED BY RADAR. (ILN)
1830,UNK,BAINBRIDGE,GEAUGA,OH,41.39,-81.34,MEMBER OF PUBLIC REPORTED SEVERAL TREES DOWN ACROSS BAINBRIDGE TWP...DOWNED TREES WERE NOTED OFF OF OH-306...US-422...AND SNYDER ROAD. ALL TREES WERE OFF OF ROADWAYS. (CLE)
1832,UNK,1 S BEECHWOOD TRAILS,LICKING,OH,40.01,-82.65,NUMEROUS TREES SNAPPED ALONG WITH SIDING AND ROOF DAMAGE AT A NEARBY APARTMENT COMPLEX. TIME ESTIMATED FROM RADAR. (ILN)
1835,UNK,4 NW MANTUA,PORTAGE,OH,41.32,-81.28,A COUPLE TREES WERE DOWNED IN MANTUA TWP...NORTH OF OH-82. REPORT RELAYED BY AURORA POLICE. (CLE)
1836,UNK,4 NNE BEAVERCREEK,GREENE,OH,39.78,-84.03,SEVERAL TREES AND LIMBS DOWN IN FAIRBORN AREA. TIME ESTIMATED BY RADAR. (ILN)
1840,UNK,5 SSW BYRDSTOWN,PICKETT,TN,36.5,-85.16,TREE FELL AND BLOCKED OAK GROVE ROAD NEAR THE CEMETARY (OHX)
1840,UNK,ALTON,OREGON,MO,36.69,-91.4,REPORT OF POWERLINES AND TREES DOWN. MOST MAIN ROADS ARE BLOCKED BY TREES OR POWERLINES. ALSO RECEIVED TWITTER PUBLIC REPORT OF AN ESTIMATED 60-70 MPH WIND. (SGF)
1840,UNK,3 E WAVERLY,PLEASANTS,WV,39.34,-81.33,MULTIPLE TREES DOWN AND SOME ROOF DAMAGE TO THE SOUTH OF WILLOW ISLAND ON OAK GROVE ROAD (RLX)
1848,UNK,MAMMOTH SPRING,FULTON,AR,36.49,-91.54,A TREE FELL ACROSS THREE CARS IN THE MAMMOTH SPRING STATE PARK AREA. NO INJURIES WERE REPORTED (LZK)
1850,UNK,2 NNE PRESTON,MCKEAN,PA,41.72,-78.83,MULTIPLE TREES DOWN SR 321 SOUTH OF BLISS HILL (CTP)
1851,UNK,4 SW AMANDAVILLE,CUMBERLAND,KY,36.85,-85.34,POWER LINES DOWN. (LMK)
1853,UNK,1 SW CENTERVILLE,MONTGOMERY,OH,39.63,-84.16,TREE REPORTED DOWN ON HOUSE. TIME ESTIMATED BY RADAR. (ILN)
1853,UNK,2 WSW XENIA,GREENE,OH,39.67,-83.97,TREE DOWN ON COLORADO DRIVE. TIME ESTIMATED FROM RADAR. (ILN)
1855,UNK,2 SW GLENFORD,PERRY,OH,39.87,-82.35,TREE DOWN AND POWER OUT ON TOWNSHIP RD 19. (RLX)
1900,UNK,5 NW CELINA,CLAY,TN,36.59,-85.57,TREE DOWN IN 2000 BLOCK OF HIGHWAY 52 (OHX)
1901,UNK,4 NE CIRCLEVILLE,PICKAWAY,OH,39.64,-82.89,NUMEROUS TREES AND TREE LIMBS DOWN ACROSS PICKAWAY COUNTY... INCLUDING ON STOUT RD NEAR CIRCLEVILLE. TIME ESTIMATED BY RADAR. (ILN)
1904,62,2 W WASHINGTON COURT HO,FAYETTE,OH,39.54,-83.46,(ILN)
1905,UNK,5 NE GALLATIN,SUMNER,TN,36.42,-86.39,TREES DOWN ON HIGHWAY 31E BETWEEN GALLATIN AND BETHPAGE (OHX)
1905,UNK,2 E WEST LAFAYETTE,COSHOCTON,OH,40.27,-81.72,TREE DOWN ACROSS ROUTE 751 (PBZ)
1910,59,4 SW CAPE CANAVERAL,BREVARD,FL,28.36,-80.65,MESONET SENSOR LOCATED OVER BANANA RIVER. (MLB)
1910,UNK,5 SSE MIDDLETOWN,BUTLER,OH,39.44,-84.35,TREE UPROOTED ON LEBANON ST IN MONROE. TIME ESTIMATED BY RADAR. (ILN)
1918,UNK,N LIVINGSTON,OVERTON,TN,36.39,-85.33,MULTIPLE POWER LINES DOWN ALONG WITH POWER OUTAGES AND TREES DOWN ACROSS OVERTON COUNTY. (OHX)
1918,UNK,N SUGAR GROVE,FAIRFIELD,OH,39.63,-82.55,LARGE TREE LIMB DOWN. TIME ESTIMATED BY RADAR. (ILN)
1923,UNK,POCAHONTAS,RANDOLPH,AR,36.26,-90.97,TREE ACROSS THE ROAD. (MEG)
1923,UNK,MAYNARD,RANDOLPH,AR,36.42,-90.9,TREE FELL ON A HOUSE. (MEG)
1923,60,2 SSE WILMINGTON,CLINTON,OH,39.42,-83.82,MEASURED AT NWS ILN OFFICE. (ILN)
1923,UNK,3 NW WILMINGTON,CLINTON,OH,39.48,-83.87,TREES DOWN AT MITCHELL ROAD AND CENTER ROAD (ILN)
1925,UNK,2 W DEERFIELD BEACH,BROWARD,FL,26.31,-80.13,FOUR LARGE BRANCHES FROM TREE DAMAGED TRUNK OF A CAR. OTHER TREE DAMAGE ALSO IN THE AREA. PEA SIZED HAIL TOO. (MFL)
1926,UNK,FRANKLINVILLE,CATTARAUGUS,NY,42.34,-78.46,TREES AND WIRES DOWN (BUF)
1930,UNK,KANE,MCKEAN,PA,41.66,-78.81,TREES DOWN NEAR KANE (CTP)
1935,UNK,4 NNE LOVELAND,WARREN,OH,39.32,-84.23,LARGE TREE DOWN IN MAINEVILLE AREA NEAR MAJESTIC COURT. (ILN)
1936,UNK,1 NNE DELAWARE GROVE,MERCER,PA,41.32,-80.29,TREE DOWN ON POWER LINES ON FOLK ROAD NEAR FREDONIA (PBZ)
1937,UNK,4 S DICKSON,DICKSON,TN,36.02,-87.38,TREES REPORTS DOWN AROUND THE TOWN OF DICKSON (OHX)
1938,UNK,3 NNW LEESBURG,FAYETTE,OH,39.39,-83.58,OUTDOOR SHED STRUCTURE BLOWN OVER NEAR LEESBURG. TIME ESTIMATED BY RADAR. (ILN)
1940,UNK,DEERFIELD BEACH,BROWARD,FL,26.31,-80.1,LARGE PALM TREE DOWN IN DEERFIELD. TIME ESTIMATED FROM RADAR. VIEWER BY WAY OF SOCIAL MEDIA. (MFL)
1940,UNK,3 ENE NEW VIENNA,HIGHLAND,OH,39.34,-83.63,1 FOOT DIAMETER TREE DOWN ON HIGHWAY 28 WITH ANOTHER SNAPPED ACROSS HIGHWAY 28 NOT FAR APART. (ILN)
1941,66,WALNUT RIDGE,LAWRENCE,AR,36.07,-90.96,57 KNOT WIND REPORTED AT WALNUT RIDGE AIRPORT. (MEG)
1942,UNK,7 NE GRAHAM,APPLING,GA,31.9,-82.41,LARGE TREE DOWN AT US 1 NORTH AND EAST RIVER RD (JAX)
1943,UNK,6 WNW GRAHAM,JEFF DAVIS,GA,31.86,-82.59,LARGE TREES DOWN AND POWER LINES DOWN ALONG HWY 341 (JAX)
1947,UNK,2 ESE SOUTH SALEM,ROSS,OH,39.33,-83.27,TREE DOWN ACROSS LOWER TWIN RD WITH SEVERAL OTHER TREES DOWN ACROSS CENTRAL AND SOUTHERN PORTIONS OF THE COUNTY. TIME ESTIMATED BY RADAR. (ILN)
1950,UNK,E KNOXVILLE,KNOX,TN,35.97,-83.95,TREE DOWN ON BABELAY RD. (MRX)
1950,UNK,1 NE COVINGTON,CAMPBELL,KY,39.09,-84.49,LARGE TREE ON A CAR ON 4TH STREET IN NEWPORT. TIME OF EVENT ESTIMATED FROM RADAR. (ILN)
1950,UNK,RUSHFORD,ALLEGANY,NY,42.39,-78.25,TREES AND WIRES DOWN (BUF)
1951,UNK,2 NW LEBANON,WILSON,TN,36.23,-86.35,TREES UPROOTED AND POWER LINES DOWN NEAR LEBANON NEAR COLES FERRY ROAD AND BEREA CHURCH ROAD AND ACADEMY ROAD (OHX)
1953,UNK,1 N BRENTWOOD,WILLIAMSON,TN,36.01,-86.79,SEVERAL LARGE TREES UPROOTED AT TURNER FARM (OHX)
1953,60,PARAGOULD,GREENE,AR,36.06,-90.51,WINDS ESTIMATED TO BE GREATER THAN 60 MPH. (MEG)
1955,UNK,ALMA,BACON,GA,31.54,-82.48,THE LAW ENFORCEMENT REPORTED TREES DOWN IN THE ALMA AREA. THE TIME GIVEN WAS BASED ON RADAR. (JAX)
1955,UNK,BIGGERS,RANDOLPH,AR,36.33,-90.81,TREE ON A HOUSE. (MEG)
1957,UNK,2 W LANTANA,PALM BEACH,FL,26.58,-80.1,LARGE TREE LIMB DOWN. REPORT RECEIVED VIA SOCIAL MEDIA. (MFL)
1957,UNK,S FAYETTEVILLE,BROWN,OH,39.19,-83.93,TREES DOWN ON LAKE STREET AND APPLE STREET (ILN)
2000,UNK,5 NNW CENTERVILLE,HICKMAN,TN,35.86,-87.47,POWER OUTAGES WITH DIME SIZE HAIL (OHX)
2000,UNK,9 N LOBELVILLE,HUMPHREYS,TN,35.88,-87.8,LARGE TREE BLOWN DOWN IN BUFFALO (OHX)
2000,UNK,LEACHVILLE,MISSISSIPPI,AR,35.92,-90.26,ROOF BLOWN OFF LOCAL GROCERY STORE. (MEG)
2000,UNK,PARAGOULD,GREENE,AR,36.06,-90.51,TREE DOWN IN PARAGOULD. (MEG)
2000,UNK,4 W COOKEVILLE,PUTNAM,TN,36.16,-85.58,MULTIPLE LARGE TREES DOWN WITH SHED AND BARN DAMAGED AROUND THE HAWKINS CRAWFORD ROAD AND STRUCTURAL DAMAGE TO HOME NEAR PROSPERITY DRIVE (OHX)
2000,UNK,6 NE WATERTOWN,SMITH,TN,36.17,-86.08,TREES DOWN IN GRANT COMMUNITY (OHX)
2000,UNK,DANVILLE,HIGHLAND,OH,39.15,-83.74,18 INCH TREE UPROOTED TIME ESTIMATED FROM RADAR (ILN)
2001,81,BROOKLAND,CRAIGHEAD,AR,35.9,-90.58,HAM OPERATOR MEASURED 81 MPH WIND GUST. (MEG)
2002,UNK,JONESBORO,CRAIGHEAD,AR,35.82,-90.69,18 WHEELER BLOWN OVER AT EXXON TRUCK STOP 3109 COMMERCE. (MEG)
2004,UNK,1 N BELLE MEADE,DAVIDSON,TN,36.11,-86.86,TREE DOWN IN THE 300 BLOCK OF BELL MEADE BLVD (OHX)
2005,UNK,2 NNE LA VERGNE,RUTHERFORD,TN,36.03,-86.55,3 TREES BLOWN DOWN WITH ONE ON A HOUSE AT STONES RIVER ROAD AT LAVERGNE LANE (OHX)
2005,UNK,WATERTOWN,WILSON,TN,36.1,-86.14,POWER LINES DOWN WITH POWER OUTAGES NEAR WATERTOWN (OHX)
2012,UNK,2 E BUCHANAN,PIKE,OH,39.15,-83.09,NUMEROUS TREES DOWN ACROSS PIKE COUNTY... INCLUDING NEAR TURKEY RUN RD AND JOHNSON HILL RD. TIME ESTIMATED BY RADAR. (ILN)
2014,UNK,1 S VALDOSTA,LOWNDES,GA,30.83,-83.28,POWER LINE DOWN NEAR TOOMBS AND WEST HILL STREET (TAE)
2014,68,TRUMANN,POINSETT,AR,35.67,-90.52,EST WINDS NEAR 68 MPH WITH POWER OUTAGE IN TRUMANN. (MEG)
2018,UNK,1 NE HARRIETTSVILLE,NOBLE,OH,39.64,-81.32,TREES DOWN ON STATE ROUTE 145 (PBZ)
2020,UNK,WELLSTON,JACKSON,OH,39.12,-82.54,TREES DOWN (RLX)
2020,UNK,2 NE WEST ALMOND,ALLEGANY,NY,42.32,-77.85,STORM SURVEY FOUND DOZENS OF DOWNED TREES ORIENTED IN THE SAME DIRECTION FROM THE EASTERN END OF PERCH ROAD EAST-NORTHEAST TO NEAR THE INTERSECTION OF COUNTY ROAD 2A AN (BUF)
2021,UNK,HUNTINGDON,CARROLL,TN,36.01,-88.41,THREE TREES AND TWO POWERLINES DOWN AMONG SEVERAL STREETS. (MEG)
2021,UNK,2 SSW DALTON,ALLEGANY,NY,42.5,-77.97,TREES AND WIRES DOWN (BUF)
2022,UNK,VIENNA,WOOD,WV,39.32,-81.54,POWER LINES DOWN. POWER OUT (RLX)
2023,UNK,CARAWAY,CRAIGHEAD,AR,35.76,-90.33,POWER LINES DOWN ON WEST STATE STREET. (MEG)
2025,UNK,HARRIMAN,ROANE,TN,35.93,-84.56,TREES DOWN COUNTYWIDE. (MRX)
2025,74,3 E SMITHVILLE,DE KALB,TN,35.96,-85.77,MEASURED ON HOME WEATHER STATION (OHX)
2025,UNK,3 E SMITHVILLE,DE KALB,TN,35.96,-85.77,TREES DOWN ON ADCOCK CEMETERY ROAD (OHX)
2025,60,LAKE WAYNOKA,BROWN,OH,38.94,-83.78,TIME ESTIMATED FROM RADAR (ILN)
2028,UNK,CARDWELL,DUNKLIN,MO,36.05,-90.29,TREES DOWN IN CARDWELL. (MEG)
2028,UNK,3 NE MARIETTA,WASHINGTON,OH,39.45,-81.41,ROOF DAMAGE TO HOUSE ON LYNCH CHURCH RD. TREES DOWN. (RLX)
2030,UNK,BLYTHEVILLE,MISSISSIPPI,AR,35.93,-89.92,OVERTURNED 18 WHEELER ON I55 AT MILE MARKER 62. (MEG)
2030,UNK,9 WNW SPARTA,WHITE,TN,35.96,-85.63,LARGE GARAGE DOOR BLOWN OFF LUNA MOTORSPORTS ON HIGHWAY 70 (OHX)
2030,UNK,OAKDALE,MORGAN,TN,35.99,-84.56,2 TREES DOWN IN OAKDALE AROUND 430 TO 445 PM EDT. (MRX)
2030,UNK,WILKESVILLE,VINTON,OH,39.08,-82.33,TREES DOWN (RLX)
2032,UNK,2 WSW STOCKDALE,SCIOTO,OH,38.95,-82.89,TREES DOWNED ON PIKETON ROAD NEAR FALLEN TIMBER ROAD. (ILN)
2032,UNK,3 NNW STOCKDALE,PIKE,OH,39,-82.88,NUMEROUS TREES DOWN ACROSS PIKE COUNTY... INCLUDING SEVERAL ON RED HOLLOW RD. TIME ESTIMATED BY RADAR. (ILN)
2034,UNK,S LA VERGNE,RUTHERFORD,TN,36,-86.57,TREE DOWN IN LAKE FORREST ESTATES AREA (OHX)
2035,60,WOODBINE,CAMDEN,GA,30.96,-81.72,(JAX)
2035,UNK,6 WNW GRAHAM,JEFF DAVIS,GA,31.86,-82.59,LARGE TREES DOWN AND POWER LINES DOWN ALONG HWY 341 (JAX)
2037,70,WILSON,MISSISSIPPI,AR,35.57,-90.04,SPOTTER ESTIMATES WIND BETWEEN 60 AND 70 MPH IN WILSON. (MEG)
2040,UNK,OAK HILL,JACKSON,OH,38.9,-82.57,TREES DOWN (RLX)
2040,UNK,3 E WAVERLY,PLEASANTS,WV,39.34,-81.33,MULTIPLE TREES DOWN AND SOME ROOF DAMAGE TO THE SOUTH OF WILLOW ISLAND ON OAK GROVE ROAD (RLX)
2042,UNK,RIO GRANDE,GALLIA,OH,38.88,-82.38,TREES DOWN (RLX)
2045,87,ATOKA,TIPTON,TN,35.45,-89.77,(MEG)
2045,UNK,3 E TOWNSEND,BLOUNT,TN,35.68,-83.7,TREES DOWN ALONG WEARS VALLEY RD. (MRX)
2045,UNK,MASON,MASON,WV,39.01,-82.03,TREES DOWN (RLX)
2048,UNK,MIDDLEPORT,MEIGS,OH,39,-82.06,TREE DOWN ON HOUSE (RLX)
2050,UNK,1 S COVINGTON,TIPTON,TN,35.55,-89.65,POWER LINES DOWN ON HIGHWAY 59. (MEG)
2050,UNK,TEN MILE,MEIGS,TN,35.67,-84.67,TREES DOWN IN THE NORTHERN MEIGS COUNTY. (MRX)
2050,UNK,GRANDVIEW,RHEA,TN,35.74,-84.84,1 TREE DOWN. (MRX)
2054,UNK,5 NW SMYRNA,DAVIDSON,TN,36.03,-86.58,TREE DOWN ON RESIDENCE ALONG LAVERGNE LANE (OHX)
2055,UNK,MILLINGTON,SHELBY,TN,35.33,-89.89,TRAFFIC SIGNAL DOWN ACROSS THE ROAD AT HWYS 51 AND 385. (MEG)
2055,UNK,5 N WEST UNION,ADAMS,OH,38.86,-83.55,LARGE TREE DOWN ACROSS ROBINETTE RD. TIME ESTIMATED BY RADAR. (ILN)
2055,UNK,4 NNE GALLIPOLIS,GALLIA,OH,38.87,-82.16,TREE DOWN ON MYRTLE AVE (RLX)
2055,UNK,HORNELL,STEUBEN,NY,42.32,-77.66,TREES DOWN. ONE BLOCKING THE ROAD. (BGM)
2058,UNK,4 NE LONG RIDGE,OWEN,KY,38.63,-84.78,MULTIPLE TREES DOWNED ON JONESVILLE ROAD. TIME OF EVENT ESTIMATED FROM RADAR. (ILN)
2100,UNK,MIDTOWN MEMPHIS,SHELBY,TN,35.13,-89.98,TREE DOWN ON CAR ON MYNDERS AVE. (MEG)
2100,UNK,MADISONVILLE,MONROE,TN,35.52,-84.36,TREES DOWN COUNTYWIDE. (MRX)
2100,UNK,PARSONS,DECATUR,TN,35.65,-88.12,SEVERAL TREES DOWN ACROSS DECATUR COUNTY. (MEG)
2100,UNK,3 N HOLLY GROVE,HAYWOOD,TN,35.69,-89.13,SEVERAL TREES DOWN IN HAYWOOD COUNTY. (MEG)
2100,UNK,RIPLEY,LAUDERDALE,TN,35.75,-89.53,SEVERAL TREES ACROSS ROADWAYS IN LAUDERDALE COUNTY. (MEG)
2100,UNK,8 NNE CENTERTOWN,WARREN,TN,35.84,-85.86,ROOF BLOWN OFF BARN AT WEST GREEN HILL ROAD AND CAMPBELL ROAD (OHX)
2100,UNK,TRENTON,GIBSON,TN,35.97,-88.94,SOME TREES DOWN ACROSS THE COUNTY WITH POWER OUTAGES. (MEG)
2100,UNK,DYERSBURG,DYER,TN,36.04,-89.38,SEVERAL TREES DOWN ACROSS DYER COUNTY WITH POWER OUTAGES. (MEG)
2100,UNK,CAIRO,RITCHIE,WV,39.21,-81.16,SEVERAL TREES DOWN (RLX)
2101,UNK,7 W SPARTA,WHITE,TN,35.93,-85.6,TREES DOWN ON POWER LINES BLOCKING ROAD ON WILL THOMPSON ROAD (OHX)
2102,UNK,PENNSBORO,RITCHIE,WV,39.28,-80.97,TREE DOWN ACROSS RTE 74 (RLX)
2105,UNK,5 NNW PORTSMOUTH,SCIOTO,OH,38.8,-83.02,TREE DOWNED ON STATE ROUTE 73 IN RUSH TOWNSHIP. (ILN)
2106,UNK,PEDRO,LAWRENCE,OH,38.63,-82.67,TREES DOWN ALONG TOWNSHIP RD. 150 (RLX)
2109,UNK,SW MANCHESTER,ADAMS,OH,38.69,-83.61,NUMEROUS TREES AND TREE LIMBS DOWN ACROSS MANCHESTER. POWER POLES SNAPPED. TIME ESTIMATED BY RADAR. (ILN)
2110,UNK,LEON,MASON,WV,38.75,-81.96,TREES DOWN ON POWER LINES. (RLX)
2111,60,SPRING CREEK,MADISON,TN,35.77,-88.68,(MEG)
2112,UNK,4 NW WEST UNION,DODDRIDGE,WV,39.34,-80.83,TREE DOWN ACROSS RTE 18 (RLX)
2115,UNK,TEETERVILLE,LANIER,GA,31.11,-83.14,TREE DOWN ON TEETERVILLE HIGHWAY (TAE)
2115,UNK,PRATTVILLE,AUTAUGA,AL,32.46,-86.45,SEVERAL TREES WERE BLOWN DOWN IN AND AROUND PRATTVILLE. TREES WERE DOWN ON BRIDGE STREET... CR 68... GARDNER ROAD... ALLENVILLE ROAD... CR 85... AND CR 19. (BMX)
2115,UNK,GERMANTOWN,SHELBY,TN,35.09,-89.79,TREE DOWN NEAR NESHOBA ROAD. (MEG)
2115,UNK,ENGLEWOOD,MCMINN,TN,35.42,-84.49,NUMEROUS TREES DOWN. (MRX)
2115,UNK,LENOIR CITY,LOUDON,TN,35.8,-84.27,TREES DOWN COUNTYWIDE. (MRX)
2115,UNK,ELIZABETH,WIRT,WV,39.06,-81.4,REPORTS OF TREES DOWN NEAR THE TOWN OF ELIZABETH (RLX)
2120,UNK,LEXINGTON,HENDERSON,TN,35.65,-88.39,SEVERAL TREES DOWN AROUND THE COUNTY...LARGE TREE DOWN ON A HOUSE (MEG)
2120,UNK,GREENUP,GREENUP,KY,38.57,-82.83,SEVERAL TREES DOWN. (RLX)
2120,UNK,KANONA,STEUBEN,NY,42.38,-77.37,TREES DOWN. (BGM)
2121,UNK,9 NW MCMINNVILLE,WARREN,TN,35.78,-85.89,REPORTS OF TREES DOWN ALONG OLD NASHVILLE HWY SHELBYVILLE ROAD AND SHORT MOUNTAIN AT WEST GREEN HILL ROAD (OHX)
2125,65,COLLIERVILLE,SHELBY,TN,35.06,-89.68,SPOTTER MEASURED 65 MPH WIND GUST NEAR COLLIERVILLE ELEMENTARY. (MEG)
2125,UNK,WELLS BRIDGE,OTSEGO,NY,42.37,-75.25,TREE DOWN. RADAR ESTIMATED TIME. (BGM)
2130,UNK,NAHUNTA,BRANTLEY,GA,31.21,-81.98,THE LAW ENFORCEMENT RECEIVED REPORTS OF TREES DOWN IN THE NAHUNTA AREA. (JAX)
2130,UNK,OLIVE BRANCH,DESOTO,MS,34.95,-89.83,TREE DOWN ON POLK LANE. (MEG)
2130,UNK,DOWNTOWN MEMPHIS,SHELBY,TN,35.13,-90.05,TREE DOWN ON HIGHLAND. (MEG)
2130,UNK,LEWISBURG,MARSHALL,TN,35.45,-86.79,TREE BLOWN DOWN NEAR LEWISBURG (OHX)
2130,UNK,CAIRO,RITCHIE,WV,39.21,-81.16,SEVERAL TREES DOWN (RLX)
2132,UNK,EWING,FLEMING,KY,38.43,-83.86,LARGE TREE LIMBS WERE BLOWN DOWN. (JKL)
2133,UNK,BRYSON CITY,SWAIN,NC,35.43,-83.45,SEVERAL TREES BLOWN DOWN ON FONTANNA ROAD (GSP)
2135,UNK,ASHLAND,BOYD,KY,38.46,-82.64,SEVERAL TREES AND POWER LINES DOWN. (RLX)
2136,UNK,ROBBINSVILLE,GRAHAM,NC,35.32,-83.81,NUMEROUS TREES REPORTED BLOWN DOWN THROUGHOUOT THE COUNTY (GSP)
2139,UNK,KANONA,STEUBEN,NY,42.38,-77.37,TREES DOWN. (BGM)
2140,UNK,WHITEVILLE,HARDEMAN,TN,35.33,-89.15,POWER LINES DOWN IN WHITEVILLE. (MEG)
2140,UNK,COOPERSTOWN,OTSEGO,NY,42.7,-74.93,TREE DOWN AT OTSEGO LAKE. RADAR ESTIMATED TIME. (BGM)
2145,UNK,MARBLE,CHEROKEE,NC,35.17,-83.93,TREES DOWN. (MRX)
2145,UNK,SOMERVILLE,FAYETTE,TN,35.24,-89.35,SOME TREES DOWN WITH SCATTERED POWER OUTAGES. (MEG)
2148,UNK,GRAYSON,CARTER,KY,38.33,-82.94,SEVERAL TREES DOWN. (RLX)
2148,UNK,ARNOLDSBURG,CALHOUN,WV,38.79,-81.13,TREES AND POWER LINES DOWN. (RLX)
2150,UNK,DUNLAP,SEQUATCHIE,TN,35.37,-85.39,SEVERAL TREES DOWN ON AUTOMOBILES. (MRX)
2150,UNK,WINTERSVILLE,JEFFERSON,OH,40.38,-80.71,NUMEROUS BRANCHES DOWN... SOME LARGER THEN 2 DIA. AND MINOR DAMAGE REPORTED (PBZ)
2151,UNK,CAMP DIX,LEWIS,KY,38.49,-83.27,SEVERAL TREES AND TREE LIMBS DOWN ACROSS SOUTHERN LEWIS COUNTY... INCLUDING NEAR CAMP DIX. TIME ESTIMATED BY RADAR. (ILN)
2155,UNK,HOLLY SPRINGS,MARSHALL,MS,34.77,-89.44,TREE ON A CAR ON RISING STAR ROAD. (MEG)
2155,UNK,1 S CARTWRIGHT,MARION,TN,35.26,-85.46,TREES DOWN. (MRX)
2155,UNK,HENDERSON,CHESTER,TN,35.44,-88.65,SEVERAL TREES DOWN ACROSS CHESTER COUNTY. (MEG)
2155,UNK,HUNTERSVILLE,MADISON,TN,35.62,-88.98,TREES AND POWERLINES DOWN ON HWY 223 AND WOMACK LANE. (MEG)
2159,UNK,2 SSE WILDE ACRES,FREDERICK,VA,39.12,-78.39,TREE DOWN 5000 BLK WARDENSVILLE GRADE (LWX)
2200,UNK,DUCKTOWN,POLK,TN,35.04,-84.39,SEVERAL TREES DOWN. (MRX)
2200,UNK,1 N LYNCHBURG,MOORE,TN,35.3,-86.36,A FEW TREES DOWNED BY THUNDERSTORM WINDS. (HUN)
2200,UNK,MANCHESTER,COFFEE,TN,35.47,-86.08,LARGE TREE DOWN AT RIDDLE ROAD AND HIGHWAY 55 INTERSECTION (OHX)
2200,65,17 S BERWYN,CUSTER,NE,41.11,-99.5,IN ADDITION TO THE STRONG WINDS...HAIL OF UNKNOWN SIZE STRIPPED GARDEN CROPS. (LBF)
2204,UNK,HAMMONDSPORT,STEUBEN,NY,42.41,-77.22,10 INCH DIA. TREE ACROSS ROAD. (BGM)
2205,UNK,12 E SENATOBIA,TATE,MS,34.62,-89.76,POWERLINE DOWN ON THE ROAD EAST OF SENATOBIA. (MEG)
2205,UNK,DOWNTOWN MEMPHIS,SHELBY,TN,35.13,-90.05,NORTH WOOD DRIVE MEMPHIS BLOCKED BY A TREE WHICH FELL ONTO AN SUV. (MEG)
2205,UNK,FRANKLIN,MACON,NC,35.18,-83.38,REPORTS OF TREES DOWN ON BRYSON CITY RD AND DEPOT ST NEAR FRANKLIN. TIME ESTIMATED USING RADAR. (GSP)
2205,UNK,BOLIVAR,HARDEMAN,TN,35.26,-89,SEVERAL TREES DOWN ACROSS HARDEMAN COUNTY. (MEG)
2205,UNK,SALT LICK,BATH,KY,38.12,-83.62,TREES WERE REPORTED TO HAVE BEEN BLOWN DOWN. (JKL)
2205,UNK,MOREHEAD,ROWAN,KY,38.19,-83.44,TREES AND POWER LINES ARE DOWN NEAR THE STATE POLICE POST... CAUSING SOME POWER OUTAGES NEARBY. (JKL)
2206,UNK,HAMLIN,LINCOLN,WV,38.28,-82.1,SEVERAL TREES DOWN. (RLX)
2206,UNK,1 WNW CHARLESTON,KANAWHA,WV,38.35,-81.64,ROOF BLOWN OFF OF CAR WASH AT VIRGINIA ST. AND PENNA AVE. (RLX)
2212,UNK,WAYNE,WAYNE,WV,38.22,-82.44,SEVERAL TREES DOWN. (RLX)
2212,UNK,GANG MILLS,STEUBEN,NY,42.15,-77.13,TREES DOWN. (BGM)
2215,UNK,SELMER,MCNAIRY,TN,35.17,-88.59,SEVERAL TREES DOWN ACROSS THE COUNTY WITH POWER OUTAGES. (MEG)
2215,UNK,SAVANNAH,HARDIN,TN,35.22,-88.24,SEVERAL TREES DOWN ACROSS HARDIN COUNTY WITH SCATTERED POWER OUTAGES. (MEG)
2215,UNK,5 SE MANCHESTER,COFFEE,TN,35.42,-86.01,TREES SNAPPED AND UPROOTED ON LOVE LANE ROAD IN HILLSBORO (OHX)
2215,UNK,BIRCH RIVER,NICHOLAS,WV,38.5,-80.76,TREES DOWN (RLX)
2215,60,GASSAWAY,BRAXTON,WV,38.67,-80.77,(RLX)
2217,UNK,8 E HIAWASSEE,TOWNS,GA,34.95,-83.62,MULTIPLE LARGE TREES DOWN. TIME ESTIMATED FROM RADAR. (FFC)
2220,UNK,SHOOTING CREEK,CLAY,NC,35.03,-83.65,SEVERAL TREES SNAPPED AND UPROOTED. (MRX)
2220,UNK,CHATTANOOGA,HAMILTON,TN,35.07,-85.26,TREES DOWN COUNTYWIDE. (MRX)
2220,UNK,ZILPO,BATH,KY,38.07,-83.47,TREES WERE BLOWN DOWN. (JKL)
2220,UNK,PRESTON,BATH,KY,38.09,-83.75,TREES WERE BLOWN DOWN. (JKL)
2220,UNK,LOUISA,LAWRENCE,KY,38.11,-82.6,SEVERAL TREES AND POWER LINES DOWN. (RLX)
2222,UNK,4 N BIRCH RIVER,BRAXTON,WV,38.55,-80.76,TREES DOWN ALONG POLEMICK RD. TIME ESTIMATED BY RADAR. (RLX)
2225,UNK,MOREHEAD,ROWAN,KY,38.19,-83.44,TREES AND POWER LINES ARE DOWN NEAR THE STATE POLICE POST... CAUSING SOME POWER OUTAGES NEARBY. (JKL)
2228,UNK,RACINE,BOONE,WV,38.14,-81.66,TREE DOWN (RLX)
2230,UNK,BLUE RIDGE,FANNIN,GA,34.86,-84.32,911 CALL CENTER HAS RECEIVED MULTIPLE REPORTS OF TREES DOWN COUNTY-WIDE. (FFC)
2230,UNK,CRAIGSVILLE,NICHOLAS,WV,38.33,-80.65,TREES DOWN (RLX)
2230,UNK,HODGESVILLE,UPSHUR,WV,39.07,-80.2,ROOF AND SIDING DAMAGE TO TRAILER (RLX)
2233,UNK,6 W LAWRENCEBURG,LAWRENCE,TN,35.24,-87.45,TREES DOWN ON BEALER ROAD AND DUGOUT ROAD. LARGE TREE LIMB DOWN ON WINFALL ROAD. (OHX)
2235,UNK,CLAYTON,RABUN,GA,34.88,-83.4,TREES DOWN ALL OVER RABUN COUNTY WITH A FEW DOWN IN THE CITY OF CLAYTON. (GSP)
2235,UNK,FRENCHBURG,MENIFEE,KY,37.95,-83.62,A TREE WAS BLOWN DOWN. (JKL)
2235,UNK,BLAINE,LAWRENCE,KY,38.03,-82.85,TREES DOWN. (RLX)
2237,UNK,3 NNE FLEMINGSBURG,FLEMING,KY,38.47,-83.72,WIND DAMAGE TO MOBILE HOME ON 2512 CHERRY GROVE ROAD NEAR MOUNT CARMEL...MOBILE HOME WAS MOVED 60 FEET BY WIND...HITTING A GARAGE/BARN. 4 PEOPLE WERE INSIDE AND INJURED (JKL)
2240,UNK,1 SSW BURNETT,GILMER,GA,34.81,-84.42,MULTIPLE REPORTS OF TREES AND POWERLINES DOWN ALONG BOARDTOWN ROAD NEAR WHITEPATH ROAD. (FFC)
2241,UNK,8 WNW SPRING HILL,MAURY,TN,35.78,-87.06,SEVERAL TREES BLOWN DOWN NEAR THETA (OHX)
2245,60,10 SW COLLINWOOD,WAYNE,TN,35.07,-87.87,SPOTTER ESTIMATED 60 MPH WIND GUST IN SOUTHERN WAYNE COUNTY. REPORT RELAYED BY EMERGENCY MANAGER. (OHX)
2245,UNK,CLEVELAND,BRADLEY,TN,35.18,-84.87,FEW TREES DOWN. (MRX)
2245,UNK,MINTO,WALSH,ND,48.29,-97.37,TIME ESTIMATED FROM RADAR. TREES SNAPPED IN MINTO PARK. RELAYED VIA SOCIAL MEDIA. (FGF)
2249,UNK,EZEL,MORGAN,KY,37.89,-83.44,LARGE LIMBS AND PARTS OF TREES ON HWY 1010. (JKL)
2250,UNK,CLARKESVILLE,HABERSHAM,GA,34.61,-83.52,TREES AND POWER LINES DOWN ALL OVER HABERSHAM COUNTY. (GSP)
2250,UNK,CHAPMANVILLE,LOGAN,WV,37.97,-82.02,TREES DOWN. (RLX)
2253,UNK,PAINTSVILLE,JOHNSON,KY,37.82,-82.81,VIDEO OF TREE FALLING ONTO 8TH STREET IN PAINTSVILLE (JKL)
2255,UNK,ROCKY FACE,WHITFIELD,GA,34.81,-85.03,TREES WERE DOWNED ON SEEP SPRINGS RD. (FFC)
2256,UNK,4 SW MADISON,BOONE,WV,38.02,-81.85,TREE ACROSS LOW GAP RD. (RLX)
2300,UNK,TOCCOA,STEPHENS,GA,34.58,-83.32,TREES DOWN ALL OVER STEPHENS COUNTY. (GSP)
2300,UNK,IUKA,TISHOMINGO,MS,34.81,-88.2,TREE DOWN BEHIND MINERAL SPRINGS PARK. (MEG)
2300,UNK,HENDRICKS,MAGOFFIN,KY,37.69,-83.12,TREES AND LARGE LIMBS WERE BLOWN DOWN NEAR HENDRICKS. (JKL)
2300,UNK,FAYETTEVILLE,FAYETTE,WV,38.05,-81.11,SEVERAL LIMBS AND A TREE DOWN (RLX)
2305,UNK,CANNEL CITY,MORGAN,KY,37.79,-83.28,TREE FELL ON HOUSE. (JKL)
2307,UNK,1 W QUINWOOD,GREENBRIER,WV,38.06,-80.72,FIRE DEPARTMENT REPORTS TWO TREES DOWN WITHIN THE COMMUNITY OF CRICHTON IN GREENBRIER COUNTY... WV. (RNK)
2307,70,ST XAVIER,BIG HORN,MT,45.46,-107.72,(BYZ)
2310,UNK,FLORENCE,LAUDERDALE,AL,34.8,-87.68,NUMEROUS TREES AND POWER LINES DOWNED BY THUNDERSTORM WINDS. (HUN)
2310,UNK,MARTIN,FLOYD,KY,37.57,-82.76,NUMEROUS TREES AND POWERLINES DOWN. (JKL)
2310,UNK,1 N SIDNEY,PIKE,KY,37.64,-82.35,TREES WERE BLOWN DOWN. (JKL)
2312,UNK,WESTMINSTER,OCONEE,SC,34.67,-83.09,TREES DOWN ALL OVER OCONEE COUNTY. NO PART OF THE COUNTY SEEN AS WORSE THAN OTHER...TERMED AS THEY GOT IT FULL BLAST. (GSP)
2315,UNK,2 NW TY TY,WORTH,GA,31.49,-83.68,1 POWER LINE DOWN IN WORTH COUNTY (TAE)
2315,UNK,WILLIAMSON,MINGO,WV,37.67,-82.27,SEVERAL TREES DOWN. POWER OUT. (RLX)
2315,UNK,DANVILLE,BOONE,WV,38.08,-81.83,TREE DOWN ACROSS SIX MILE ROAD (RLX)
2317,UNK,2 WNW MADISON,MADISON,VA,38.39,-78.29,ONE TREE DOWN ON RUTH RD. (LWX)
2320,UNK,HOMER,BANKS,GA,34.33,-83.5,EMERGENCY MANAGER REPORTED MULTIPLE TREES DOWN JUST TO THE WEST OF HOMER ALONG CARSON SEGARS ROAD NEAR HIGHWAY 323. (FFC)
2320,UNK,RUSSELLVILLE,FRANKLIN,AL,34.51,-87.73,A FEW TREES WERE DOWNED ACROSS THE EASTERN PORTION OF FRANKLINE COUNTY. (HUN)
2320,UNK,1 NNE MADISON,MADISON,AL,34.72,-86.74,LARGE RIVER BIRCH TREE LIMB SNAPPED ONTO ROOF OF HOME. (HUN)
2320,UNK,VANCLEVE,BREATHITT,KY,37.63,-83.41,TREES WERE BLOWN DOWN. (JKL)
2321,UNK,SPOUT SPRINGS,ESTILL,KY,37.83,-83.97,HWY 89 ROAD CLOSED DUE TO TREE BLOCKING BOTH LANES. (JKL)
2322,UNK,2 E LOUISVILLE,JEFFERSON,KY,38.22,-85.7,10 INCH DIAMETER TREE ACROSS ROADWAY. (LMK)
2325,65,1 SW NORTH COURTLAND,LAWRENCE,AL,34.66,-87.35,LAWRENCE COUNTY AIRPORT /LCXA1/ COURTLAND 2WSW CRN SITE. (HUN)
2325,UNK,TOWN CREEK,LAWRENCE,AL,34.68,-87.41,NUMEROUS TREES AND POWER LINES DOWNED BY THUNDERSTORM WINDS ALONG HIGHWAY 20 AND HIGHWAY 101. (HUN)
2325,UNK,LOST CREEK,BREATHITT,KY,37.48,-83.33,TREES WERE BLOWN DOWN ON KY HIGHWAY 476. (JKL)
2328,UNK,LAVONIA,FRANKLIN,GA,34.44,-83.11,A FEW TREES DOWN MAINLY ALONG POPLAR SPRINGS ROAD. (GSP)
2329,UNK,2 NNW MOSSY CREEK,WHITE,GA,34.57,-83.7,TREE DOWN AT INTERSECTION OF AIRPORT ROAD AND LOTHRIDGE ROAD. (FFC)
2330,60,5 S BELMONT,ITAWAMBA,MS,34.43,-88.21,(MEG)
2330,UNK,PIKEVILLE,PIKE,KY,37.48,-82.51,TREES WERE BLOWN DOWN. (JKL)
2330,UNK,GILBERT,MINGO,WV,37.61,-81.87,TREES DOWN (RLX)
2332,UNK,HARTWELL,HART,GA,34.35,-82.93,MANY TREES DOWN ALL ACROSS HART COUNTY AND AT LEAST ONE POWER LINE DOWN IN HARTWELL. (GSP)
2334,UNK,BOSTON,NELSON,KY,37.78,-85.67,TREES AND POWER LINES DOWN. (LMK)
2335,UNK,CEDAR GROVE,WALKER,GA,34.72,-85.43,911 CALL CENTER HAS RECEIVED REPORTS OF NUMEROUS TREES DOWN COUNTY-WIDE. (FFC)
2335,UNK,CLEAR FORK,WYOMING,WV,37.63,-81.68,TREE DOWN ACROSS ROUTE 971 (RLX)
2338,UNK,FRANKLIN SPRINGS,FRANKLIN,GA,34.28,-83.15,A FEW TREES DOWN IN FAR EASTERN FRANKLIN COUNTY IN VICINITY OF FRANKLIN SPRINGS. (GSP)
2339,UNK,MADISON,MADISON,AL,34.7,-86.75,A TREE WAS DOWNED BY THUNDERSTORM WINDS. (HUN)
2339,UNK,1 SSW LEWISBURG,GREENBRIER,WV,37.78,-80.46,EMERGENCY MANAGER REPORTS A POWERPOLE SNAPPED IN HALF BY WIND IN THE FARLEA COMMUNITY WITHING GREENBRIER COUNTY... WV. (RNK)
2340,UNK,1 NNE ARNOLDSVILLE,OGLETHORPE,GA,33.92,-83.21,SEVERAL TREES BLOWN DOWN INCLUDING ON MEYER FARM RD...ONNIE COLQUITT RD...AND LEXINGTON-CARLTON RD (FFC)
2340,UNK,3 S JASPER,PICKENS,GA,34.43,-84.43,NUMEROUS TREES REPORTED DOWN...ESPECIALLY IN THE SOUTHERN END OF THE COUNTY. (FFC)
2340,UNK,2 W ROWDY,PERRY,KY,37.42,-83.24,A TREE WAS BLOWN DOWN. (JKL)
2340,UNK,IDA MAY,LEE,KY,37.52,-83.77,LARGE TREE LIMBS DOWN. (JKL)
2341,UNK,SHEFFIELD,COLBERT,AL,34.77,-87.7,A FEW TREES WERE DOWNED BY THUNDERSTORM WINDS. (HUN)
2342,UNK,2 SSW SAINT MATTHEWS,JEFFERSON,KY,38.23,-85.65,FOUR TREES DOWN. (LMK)
2345,UNK,PRESTONSBURG,FLOYD,KY,37.67,-82.77,TREES DOWN ACROSS PRESTONSBURG AND FLOYD COUNTY...INCLUDING MAYS BRANCH...CORN FORK...AND A TREE WHICH FELL ON AND DAMAGED A FIRE TRUCK ON JENNY WILEY ROAD. (JKL)
2345,UNK,PERHAM,OTTER TAIL,MN,46.6,-95.57,TIME ESTIMATED FROM RADAR. SHINGLE DAMAGE AND TREES SNAPPED IN PERHAM. RELAYED VIA SOCIAL MEDIA. (FGF)
2346,UNK,1 ESE BEASLEY GAP,CHEROKEE,GA,34.34,-84.57,REPORT OF TREE DOWN ACROSS ROADWAY AT LITTLE REFUGE ROAD AND HWY 140. (FFC)
2346,UNK,2 ESE HUNTINGTON,CABELL,WV,38.41,-82.4,MULTIPLE TREES AND POWER LINES DOWN THROUGHOUT THE COUNTY (RLX)
2347,UNK,MADISON MILLS,MADISON,VA,38.29,-78.14,ONE TREE DOWN NEAR INTERSECTION OF ROUTES 15 AND 230 (LWX)
2348,UNK,LEBANON,MARION,KY,37.57,-85.25,SOME POWER LINES DOWN. (LMK)
2350,UNK,DECATUR,MORGAN,AL,34.61,-86.98,NUMEROUS TREES AND POWER LINES DOWN SCATTERED THROUGH THE CITY. (HUN)
2350,UNK,ASHCAMP,PIKE,KY,37.27,-82.43,TREES WERE BLOWN DOWN. (JKL)
2350,UNK,2 NW MORRIS FORK,BREATHITT,KY,37.4,-83.55,A TREE WAS BLOWN DOWN ON HOUSTON ROAD. (JKL)
2353,UNK,1 N CLAYHOLE,BREATHITT,KY,37.48,-83.3,A TREE WAS BLOWN DOWN ONTO RILEY BR RD. (JKL)
2356,UNK,5 WNW COVINGTON CITY,ALLEGHANY,VA,37.81,-80.07,911 CALL CENTER REPORTS TREE DOWN ALONG DUNLAP CREEK ROAD WITHIN ALLEGHANY COUNTY... VA. (RNK)
2358,UNK,3 NNW LAKE BUTTAHATCHEE,MARION,AL,34.16,-87.72,TREE DOWN ON STATE HIGHWAY 129 AND LOVELESS LANE (BMX)
0000,UNK,ELBERTON,ELBERT,GA,34.11,-82.86,TREES DOWN IN ELBERT COUNTY. (GSP)
0000,UNK,FALKVILLE,MORGAN,AL,34.37,-86.91,A TREE WAS DOWNED BY THUNDERSTORM WINDS ONTO A HOME. (HUN)
0000,UNK,HAZARD,PERRY,KY,37.25,-83.2,A TREE WAS BLOWN DOWN. (JKL)
0000,UNK,BRINKLEY,KNOTT,KY,37.3,-82.94,A TREE WAS BLOWN DOWN. (JKL)
0000,UNK,WELCH,MCDOWELL,WV,37.43,-81.58,SEVERAL TREES AND POWER LINES DOWN. (RLX)
0001,UNK,SUMMERVILLE,CHATTOOGA,GA,34.48,-85.35,QUARTER SIZED HAIL IN SUMMERVILLE. (FFC)
0003,UNK,JONES CHAPEL,CULLMAN,AL,34.21,-87.05,A FEW TREES WERE DOWNED BY THUNDERSTORM WINDS. (HUN)
0005,UNK,DOUBLE SPRINGS,WINSTON,AL,34.15,-87.4,TREES REPORTED DOWN COUNTYWIDE (BMX)
0006,UNK,2 SSW WEST POINT,CULLMAN,AL,34.21,-86.97,*** 1 FATAL *** A TREE FELL ONTO A MAN ALONG COUNTY ROAD 1135. (HUN)
0010,UNK,DREW,FORSYTH,GA,34.21,-84.22,TREES AND POWERLINES DOWN AT INTERSECTION OF POST ROAD AND DREW ROAD. ADDITIONAL REPORTS OF TREES DOWN ALONG POST ROAD NEAR BENTLEY ROAD. (FFC)
0010,UNK,PAINT ROCK,JACKSON,AL,34.66,-86.33,A TREE WAS DOWNED BY THUNDERSTORM WINDS ON HIGHWAY 72. (HUN)
0010,UNK,ISLAND CITY,OWSLEY,KY,37.37,-83.77,A TREE WAS BLOWN DOWN. (JKL)
0010,UNK,2 N LEITCHFIELD,GRAYSON,KY,37.51,-86.29,TWO TREES REPORTED DOWN. (LMK)
0012,UNK,MATOAKA,MERCER,WV,37.42,-81.25,MULTIPLE TREES WERE BLOWN DOWN ALONG ROUTE 10 IN THE MATOKA AREA. (RNK)
0013,70,5 SSW BUSBY,BIG HORN,MT,45.47,-107,(BYZ)
0014,UNK,3 W BESSEMER,JEFFERSON,AL,33.37,-87,DAMAGE TO GAS PUMPS AT MARATHON GAS STATION ON ACADEMY DR (BMX)
0015,UNK,2 SSW HOLBROOK,CHEROKEE,GA,34.19,-84.28,NUMEROUS TREES DOWN THROUGHOUT CHEROKEE COUNTY. TREE ON HOUSE OFF WILKIE ROAD. TREES DOWN ON UNION HILL ROAD...LAND RD...AND BIRMINGHAM HWY (FFC)
0015,UNK,ROME,FLOYD,GA,34.26,-85.19,EMERGENCY MANAGER REPORTED NUMEROUS TREES DOWN IN THE VICINITY OF MARTHA BERRY HIGHWAY NEAR ROME. (FFC)
0015,UNK,CALHOUN,GORDON,GA,34.5,-84.95,SEVERAL TREES WERE DOWNED ACROSS THE COUNTY...INCLUDING IN CALHOUN. (FFC)
0015,UNK,LETCHER,LETCHER,KY,37.15,-82.96,A TREE WAS BLOWN DOWN. (JKL)
0018,UNK,CHESTATEE,FORSYTH,GA,34.3,-84,LARGE TREE ON A HOUSE OFF TRAIL SIDE WAY. SIGNIFICANT DAMAGE TO THE HOME. (FFC)
0020,UNK,3 NW JASPER,WALKER,AL,33.88,-87.3,TREES DOWN ON BRAKEFIELD DAIRY RD WITH ONE TREE DOWN ON A VEHICLE. (BMX)
0020,UNK,CALHOUN FALLS,ABBEVILLE,SC,34.09,-82.6,AT LEAST ONE TREE BLOWN DOWN IN THE CALHOUN FALLS AREA. (GSP)
0020,UNK,2 S LIBERTY,CASEY,KY,37.29,-84.93,TWO TREES DOWN. (LMK)
0020,UNK,3 N APPOMATTOX,APPOMATTOX,VA,37.4,-78.82,ONE TREE WAS BLOWN DOWN ALONG HOLLY BROOK DRIVE. (RNK)
0021,UNK,EAST BERNSTADT,LAUREL,KY,37.19,-84.12,TREES WERE BLOWN DOWN NEAR EAST BERNSTADT. (JKL)
0021,UNK,5 SSE ELMA,NELSON,VA,37.69,-78.76,TREE DOWN AND WIRES DOWN (LWX)
0026,UNK,WINFIELD,MARION,AL,33.93,-87.8,TREES DOWN IN WINFIELD ALONG COUNTY 4 AND APPLE ST (BMX)
0029,UNK,BRASELTON,JACKSON,GA,34.11,-83.76,911 CALL CENTER RCEIVED REPORT OF A TREE DOWN ON JACKSON TRAIL ROAD JUST EAST OF BRASELTON. (FFC)
0029,UNK,1 ENE FIELDS LANDING,CHEROKEE,GA,34.21,-84.56,POWERLINES DOWN ON FIELDS LANDING DRIVE (FFC)
0030,UNK,POWDER SPRINGS,COBB,GA,33.86,-84.68,911 CALL CENTER RECEIVED NUMEROUS REPORTS OF DOWNED TREES AND POWERLINES ACROSS A MAJORITY OF THE COUNTY BUT PARTICULARLY ACROSS POWDER SPRINGS AND KENNESAW. (FFC)
0030,UNK,5 SSE WINFIELD,FAYETTE,AL,33.86,-87.78,TREE DOWN ON CR 49 NEAR THUNDER VALLEY SPEEDWAY. TIME ESTIMATED FROM RADAR. (BMX)
0030,UNK,PINE LAKE,CLARKE,GA,33.94,-83.46,A POWERLINE WAS DOWNED AT A SHOPPING CENTER ON ATLANTA HIGHWAY. (FFC)
0030,UNK,1 SW MYRDELL ESTATES,GWINNETT,GA,34.08,-83.97,TREES REPORTED DOWN ALONG KILGORE ROAD NEAR BUFORD. TIME ESTIMATED FROM RADAR. (FFC)
0034,UNK,1 SSW BROOKSVILLE,BLOUNT,AL,34.16,-86.48,TREES DOWN IN ROADWAY NEAR HIGHWAY 278 AND HIGHWAY 79 (BMX)
0035,UNK,CARTERSVILLE,BARTOW,GA,34.17,-84.8,911 CALL CENTER HAS RECEIVED NUMEROUS REPORTS OF TREES DOWN COUNTY-WIDE. BASED ON RADAR VELOCITY DATA...ESTIMATED AREA WITH GREATEST IMPACT LOOKS TO BE AROUND CARTERSVI (FFC)
0036,60,7 W BUSBY,BIG HORN,MT,45.53,-107.1,STRONG WINDS AND HEAVY RAIN FOR 30 MINUTES. (BYZ)
0037,UNK,1 ESE JENNINGS MILL,OCONEE,GA,33.91,-83.46,A TREE WAS DOWNED ONTO A POWER LINE ON EPPS BRIDGE PARKWAY. (FFC)
0038,UNK,ROARK,LESLIE,KY,37.02,-83.52,TREES WERE BLOWN DOWN. (JKL)
0038,UNK,HYDEN,LESLIE,KY,37.16,-83.37,POWERLINES WERE BLOWN DOWN. (JKL)
0039,UNK,7 SE LONDON,LAUREL,KY,37.06,-83.99,SEVERAL LARGE TREES DOWN. (JKL)
0040,UNK,4 N CRAWFORD,OGLETHORPE,GA,33.93,-83.15,SEVERAL TREES BLOWN DOWN INCLUDING ON MEYER FARM RD...ONNIE COLQUITT RD...AND LEXINGTON-CARLTON RD (FFC)
0041,UNK,2 W CLEVELAND,BLOUNT,AL,34,-86.6,TREES DOWN ON SWAN BRIDGE ROAD (BMX)
0043,UNK,3 S BLOUNT SPRINGS,BLOUNT,AL,33.88,-86.79,TREE DOWN ON CHALY SPRINGS RD EAST OF HAYDEN. TIME ESTIMATED FROM RADAR. (BMX)
0045,UNK,DORA,WALKER,AL,33.73,-87.08,LARGE TREE SNAPPED IN DORA. REPORTED VIA SOCIAL MEDIA WITH PHOTO. (BMX)
0045,UNK,5 ENE DORA,JEFFERSON,AL,33.75,-86.99,TREES AND POWERLINES DOWN ON BAGLEY RD AND JIM GOGGANS RD (BMX)
0045,UNK,GREYFIELD NORTH,COBB,GA,34,-84.65,EMERGENCY MANAGER REPORTED 20 TREES EITHER DOWNED OR SNAPPED JUST SOUTHWEST OF KENNESAW. DAMAGE TO ONE HOME WAS ALSO REPORTED ON STILESBORO ROAD. (FFC)
0045,UNK,NORTON,CITY OF NORTON,VA,36.93,-82.63,TREES AND POWERLINES DOWN IN NORTON AND COUNTY WIDE. (MRX)
0046,UNK,DALLAS,PAULDING,GA,33.92,-84.84,EMERGENCY MANAGER REPORTED 1 LARGE TREE DOWN ON MERCHANTS DRIVE NEAR DALLAS THAT IS BLOCKING THE ROAD. NUMEROUS POWERLINES HAVE ALSO BEEN DOWNED. (FFC)
0050,UNK,2 NNE BERRY,FAYETTE,AL,33.69,-87.59,TREE DOWN ON CR 63 NEAR CR 130. TIME ESTIMATED FROM RADAR. (BMX)
0050,UNK,1 ESE FAYETTE,FAYETTE,AL,33.69,-87.82,TREE DOWN IN THE 500 BLOCK OF 6TH AVE NE. TIME ESTIMATED FROM RADAR. (BMX)
0050,UNK,1 NW ALTOONA,BLOUNT,AL,34.04,-86.35,TREE DOWN IN THE 6800 BLOCK OF COUNTY HWY 39. TIME ESTIMATED FROM RADAR. (BMX)
0050,UNK,ROCKY CREEK,CHEROKEE,GA,34.09,-84.43,TREE ON A HOUSE OFF WILEY BRIDGE ROAD. (FFC)
0050,UNK,SALTVILLE,SMYTH,VA,36.88,-81.76,MULTIPLE TREES WERE BLOWN DOWN IN THE SALTVILLE AREA. (RNK)
0050,UNK,SOMERSET,PULASKI,KY,37.08,-84.61,TREES WERE REPORTED TO HAVE BEEN BLOWN DOWN THROUGHOUT THE COUNTY. (JKL)
0050,UNK,3 NNW SUITER,BLAND,VA,37.15,-81.24,A TREE WAS BLOWN DOWN ACROSS GRAPEFIELD ROAD. (RNK)
0055,UNK,3 NW FULTONDALE,JEFFERSON,AL,33.64,-86.84,TREES DOWN BLOCKING FIELDSTOWN ROAD IN GARDENDALE (BMX)
0055,UNK,5 SE DALLAS,BLOUNT,AL,33.8,-86.6,TREES DOWN IN AND AROUND REMLAP INCLUDING THE 500 BLOCK OF BEAVER CREEK RD...300 BLOCK OF COUNTY HWY 15 AS WELL AS INLAND DAM RD. TIME ESTIMATED FROM RADAR. (BMX)
0055,UNK,BARBOURVILLE,KNOX,KY,36.87,-83.88,TREES WERE REPORTED TO HAVE BEEN BLOWN DOWN IN BARBOURVILLE AND THROUGHOUT THE COUNTY. (JKL)
0057,64,1 NNW FULTONDALE,JEFFERSON,AL,33.63,-86.81,NEAR JAMESTOWN MANOR DRIVE AND MAIN STREET IN GARDENDALE (BMX)
0100,UNK,3 NW MONTICELLO,WAYNE,KY,36.87,-84.89,A TREE WAS BLOWN DOWN. (JKL)
0105,UNK,3 WNW NEW LEXINGTON,FAYETTE,AL,33.58,-87.71,TREE DOWN ON CR 68 NEAR VICK RD. TIME ESTIMATED FROM RADAR. (BMX)
0107,UNK,3 WSW TRUSSVILLE,JEFFERSON,AL,33.62,-86.63,TREES REPORTED DOWN ON I-59 NEAR MP 139 (BMX)
0107,UNK,SPRINGVILLE,ST. CLAIR,AL,33.77,-86.48,TREES AND POWERLINES DOWN IN SPRINGVILLE ON TUCKER LANE AS WELL AS WILSON ST (BMX)
0110,UNK,1 S BEDFORD,BEDFORD,VA,37.32,-79.52,911 REPORTS TREE DOWN... JOPPA MILL RD (RNK)
0113,77,4 W LAMAR,PROWERS,CO,38.07,-102.69,(PUB)
0115,UNK,3 NW ALABASTER,SHELBY,AL,33.28,-86.85,TREES DOWN AT HIGHWAY 17 AND FIELDSTONE DRIVE IN HELENA (BMX)
0115,UNK,4 SSW HOMEWOOD,JEFFERSON,AL,33.42,-86.83,TREE DOWN ON HOUSE NEAR MOUNTAIN BRANCH DR AND TYLER RD (BMX)
0115,UNK,ROSWELL,FULTON,GA,34.02,-84.36,SEVERAL TREES DOWN IN ROSWELL. TREE ON A HOUSE ON HIGHLAND COLONY DRIVE (FFC)
0115,UNK,IDER,DEKALB,AL,34.7,-85.67,A FEW TREES AND POWER LINES WERE DOWNED BY THUNDERSTORM WINDS. (HUN)
0115,UNK,RUGBY,GRAYSON,VA,36.62,-81.45,A FEW TREES WERE BLOWN DOWN AROUND THE COMMUNITY OF RUGBY. (RNK)
0115,UNK,CUBAGE,BELL,KY,36.7,-83.52,A TREE WAS BLOWN DOWN. (JKL)
0115,UNK,5 NE CLINCHPORT,SCOTT,VA,36.73,-82.68,ONE TREE DOWN ON HWY 65 NORTH OF THE MANVILLE COMMUNITY. (MRX)
0115,UNK,1 N LAMAR,PROWERS,CO,38.09,-102.62,AT LEAST 1 POWER POLE DOWN IN LAMAR. EVENT TIME ESTIMATED (PUB)
0117,UNK,3 NE INVERNESS,SHELBY,AL,33.43,-86.68,TREES DOWN IN BROOK HIGHLAND NEIGHBORHOOD. ALSO TREE DOWN ON INVERNESS COUNTRY CLUB RD. REPORTED VIA SOCIAL MEDIA. (BMX)
0118,UNK,1 SW EAST CONWAY HILL,FULTON,GA,33.86,-84.42,TREES AND POWERLINES DOWN ON WEST CONWAY DRIVE NORTHWEST (FFC)
0119,UNK,2 W NORTH JOHNS,JEFFERSON,AL,33.37,-87.13,TREES AND POWERLINES DOWN AT MULTIPLE LOCATIONS NW OF ADGER (BMX)
0120,UNK,4 SSW OHATCHEE,CALHOUN,AL,33.73,-86.06,ONE TREE DOWN NEAR THE 5400 BLOCK OF BOILING SPRINGS RD. TIME ESTIMATED FROM RADAR. (BMX)
0125,UNK,5 NNW POOLES CROSSROADS,CHILTON,AL,32.82,-86.75,TREES DOWN ON ALABAMA HIGHWAY 22 BETWEEN MAPLESVILLE AND CLANTON. TIME ESTIMATED FROM RADAR. (BMX)
0125,UNK,NORTHSIDE,TUSCALOOSA,AL,33.47,-87.63,TREES DOWN IN NORTHSIDE. VIA SOCIAL MEDIA... TIME ESTIMATED FROM RADAR. (BMX)
0125,UNK,COMFORT HILL,DEKALB,GA,33.76,-84.29,AROUND 20 INSTANCES OF TREES AND POWER LINES DOWN THROUGHOUT DEKALB COUNTY. (FFC)
0125,60,2 W HAYWARD,PENNINGTON,SD,43.87,-103.38,PEA SIZE HAIL (UNR)
0127,60,3 N CHANDLER,MARICOPA,AZ,33.34,-111.86,AND 0.25 IN. HAIL. (PSR)
0135,UNK,4 S LINCOLN,TALLADEGA,AL,33.53,-86.14,TREE ON A HOUSE ON STAR CIRCLE. TIME ESTIMATED FROM RADAR. (BMX)
0142,60,5 WNW HERMOSA,CUSTER,SD,43.86,-103.3,PEA SIZE HAIL COVERED THE GROUND (UNR)
0143,UNK,5 SSE CHILDERSBURG,TALLADEGA,AL,33.21,-86.32,TREE DOWN ON KIMBERLY RD. ALSO TREES DOWN ON MERKEL MT LANE AND ODENS MILL RD...ALL IN THE VICINITY OF THE OAK GROVE COMMUNITY. TIME ESTIMATED FROM RADAR. (BMX)
0143,60,BURLINGTON,KIT CARSON,CO,39.31,-102.27,(GLD)
0145,UNK,1 SW ANNISTON,CALHOUN,AL,33.65,-85.83,TREE DOWN NEAR THE 100 BLOCK OF NOBLE ST. TIME ESTIMATED FROM RADAR. (BMX)
0146,UNK,1 ESE WINTERBORO,TALLADEGA,AL,33.32,-86.17,TREE DOWN ON CHASTAIN RD. TIME ESTIMATED FROM RADAR. (BMX)
0148,UNK,JEMISON,CHILTON,AL,32.96,-86.75,TREES AND POWERLINES DOWN ACROSS NORTHERN CHILTON COUNTY (BMX)
0203,UNK,NNE MUSCADINE,CLEBURNE,AL,33.74,-85.39,TREES DOWN NEAR THE 2700 BLOCK OF CR 49. TIME ESTIMATED FROM RADAR. (BMX)
0205,UNK,5 NNW POOLES CROSSROADS,CHILTON,AL,32.82,-86.75,TREES DOWN ON ALABAMA HIGHWAY 22 BETWEEN MAPLESVILLE AND CLANTON. TIME ESTIMATED FROM RADAR. CORRECTED TIME. (BMX)
0207,69,2 NE ECHETA,CAMPBELL,WY,44.47,-105.83,(UNR)
0210,UNK,2 SE HOLLIS CROSSROADS,CLEBURNE,AL,33.5,-85.61,TREES DOWN NEAR THE 300 BLOCK OF CR 140. TIME ESTIMATED FROM RADAR. (BMX)
0215,UNK,MILLERVILLE,CLAY,AL,33.19,-85.93,A FEW TREES WERE BLOWN DOWN IN MILLERVILLE. (BMX)
0230,UNK,2 NW BOOTH,AUTAUGA,AL,32.53,-86.6,TREES DOWN ALONG CR 21 NEAR CR 113 AND 69. TIME ESTIMATED FROM RADAR. (BMX)
0300,UNK,8 SSE STAPLETON,LINCOLN,NE,41.37,-100.45,TRANSMISSION LINES DOWN ON GARFIELD ROAD. (LBF)
0300,UNK,FAIRMOUNT,RICHLAND,ND,46.05,-96.6,TIME APPROXIMATE. COUNTY OFFICIAL REPORTED THE TOP OF THE WATER TOWER TAKEN OFF IN THE CITY OF FAIRMOUNT. (FGF)
0340,UNK,SCOTTSVILLE,ALLEN,KY,36.75,-86.2,TWO TREES DOWN. (LMK)
0433,70,7 W MOSKEE,CROOK,WY,44.3,-104.33,(UNR)
0611,UNK,1 WSW JOPPATOWNE,HARFORD,MD,39.41,-76.37,TREE DOWN ON SHORE DRIVE AT TOWNE CENTER DRIVE (LWX)
0636,59,ALMENA,NORTON,KS,39.89,-99.71,TIME ESTIMATED FROM RADAR. (GLD)
0701,60,2 WSW HAYS,ELLIS,KS,38.87,-99.35,MEASURED WIND GUST FROM MOBILE MESONET VIA THE PECAN FIELD PROJECT (DDC)
0806,64,RUSSELL AIRPORT,RUSSELL,KS,38.87,-98.82,(ICT)
1015,60,CLAY CENTER,CLAY,KS,39.38,-97.12,MINOR TREE LIMB DAMAGE. EXACT DIAMETER UNKNOWN. (TOP)
Time,Size,Location,County,State,Lat,Lon,Comments
1452,100,ALMOND,SWAIN,NC,35.37,-83.57,(GSP)
1601,175,MONTICELLO,WAYNE,KY,36.84,-84.85,HAIL FALLING AT DISPATCH CENTER. (JKL)
1631,100,4 ENE MORRISVILLE,POLK,MO,37.51,-93.36,(SGF)
1748,100,LODI,MEDINA,OH,41.03,-82.01,SUMMIT COUNTY SKYWARN MEMBER REPORTED 1 INCH HAIL IN LODI. WINDS PICKING UP AT LOCATION. (CLE)
1750,100,6 N DAHLONEGA,LUMPKIN,GA,34.62,-83.98,(FFC)
1751,100,2 ENE TREMONT CITY,CHAMPAIGN,OH,40.03,-83.8,(ILN)
1834,300,1 WSW TOMPKINSVILLE,MONROE,KY,36.69,-85.71,ACTUAL PHOTO MEASUREMENT 3.5 INCH GARGANTUAN HAIL (LMK)
1855,250,11 SSW ALLARDT,FENTRESS,TN,36.23,-84.94,REPORTED BY COCORAHS STATION CLARKRANGE 6.0 NE. SEVERAL DENTS TO VEHICLES. (OHX)
1900,150,6 SW SUNBRIGHT,MORGAN,TN,36.18,-84.75,DEER LODGE (MRX)
1906,100,1 S JAMESTOWN,FENTRESS,TN,36.42,-84.94,QUARTER SIZE HAIL REPORTED DOWNTOWN JAMESTOWN. (OHX)
1908,125,7 NW ALGOOD,JACKSON,TN,36.28,-85.53,PHOTOS SHOW HALF DOLLAR SIZE FELL IN THE DODSON BRANCH COMMUNITY (OHX)
1910,100,5 SE JEFFERSON CITY,JEFFERSON,TN,36.07,-83.42,(MRX)
1913,100,W WASHINGTON COURT HOUS,FAYETTE,OH,39.54,-83.44,(ILN)
1920,100,5 N ROCKWOOD,MORGAN,TN,35.95,-84.68,(MRX)
1920,100,NORRIS,ANDERSON,TN,36.21,-84.06,(MRX)
1921,175,W FRANKLIN,WILLIAMSON,TN,35.93,-86.84,GOLF BALL SIZED HAIL REPORTED AT OLD NATCHEZ TRACE COUNTRY CLUB (OHX)
1925,175,7 E MCEWEN,DICKSON,TN,36.09,-87.52,GOLF BALL SIZE HAIL REPORTED NEAR TENNESSEE CITY (OHX)
1928,100,3 SW BELLE MEADE,DAVIDSON,TN,36.07,-86.89,QUARTER PLUS SIZED HAIL REPORTED AT PERCY WARNER PARK (OHX)
1930,100,E COOKEVILLE,PUTNAM,TN,36.16,-85.51,QUARTER SIZED HAIL REPORTED NEAR COOKEVILLE. (OHX)
1940,150,6 SSW HARTSVILLE,WILSON,TN,36.31,-86.19,PHOTOS SHOW HAIL UP TO PING PONG BALL SIZE FELL IN NORTHEAST WILSON COUNTY (OHX)
1945,100,W MONTEREY,PUTNAM,TN,36.13,-85.24,QUARTER SIZE HAIL REPORTED IN MONTEREY (OHX)
1950,175,HARRIMAN,ROANE,TN,35.93,-84.56,(MRX)
1950,300,COOKEVILLE,PUTNAM,TN,36.16,-85.51,WKRN-TV PHOTOS SHOW HAIL RANGING FROM GOLF BALL TO LARGE APPLE SIZE FELL IN COOKEVILLE (OHX)
1951,100,3 WSW BOYNTON BEACH,PALM BEACH,FL,26.52,-80.14,QUATER SIZE HAIL REPORTED ON BOYNTON BEACH BLVD BETWEEN MILITARY TRAIL AND JOG RD. RELAYED BY LOCAL MEDIA. (MFL)
1956,100,N BELLEVUE,DAVIDSON,TN,36.08,-86.93,ONE INCH PLUS HAIL REPORTED IN RIVERWALK SUBDIVISION IN BELLEVUE (OHX)
2015,175,7 SE COOKEVILLE,PUTNAM,TN,36.08,-85.42,GOLF BALL SIZE HAIL REPORTED ON PHIFER MOUNTAIN (OHX)
2035,175,6 WSW PLEASANT HILL,WHITE,TN,35.95,-85.31,GOLF BALL SIZE HAIL REPORTED IN DEROSSETT AND BONDECROFT COMMUNITIES (OHX)
2049,175,7 NW PLEASANTON,BUFFALO,NE,41.04,-99.18,ON GOING AT THIS TIME. (GID)
2056,100,BALD EAGLE,BLAIR,PA,40.73,-78.17,1 INCH HAIL MM 54 ON I99 (CTP)
2130,100,MINOT,WARD,ND,48.23,-101.3,QUARTER SIZE HAIL IN NORTH MINOT DAMAGED AT LEAST 3 CARS IN A CENEX PARKING LOT. TIME ESTIMATE BASED ON RADAR. (BIS)
2138,175,4 SE ARCADIA,SHERMAN,NE,41.38,-99.07,NICKEL TO GOLF BALL SIZE HAIL IN PROGRESS. (GID)
2225,125,4 WNW HOLT,MARSHALL,MN,48.31,-96.27,LARGE HAIL...STRONG WINDS AND VERY HEAVY RAIN. (FGF)
2230,100,13 SSW ANSLEY,CUSTER,NE,41.11,-99.48,(LBF)
2237,100,1 SE NINEVEH,WARREN,VA,39,-78.15,(LWX)
2245,175,1 S FORT HARTSUFF STATE,VALLEY,NE,41.72,-99.01,A FEW STONES UP TO GOLF BALL SIZE. ADJUSTED LOCATION REFERENCE FROM OFFICIAL DESIGNATION OF 9 MILES NW OF ORD. (GID)
2245,125,5 ESE VOLTAIRE,MCHENRY,ND,47.99,-100.74,BROADCAST MEDIA REPORTED HAIL THE SIZE OF HALF DOLLARS STILL IN DITCHES APPROX 90 MINS AFTER THE STORM PASSED. HAIL WAS LIKELY MUCH LARGER BEFORE MELTING. TIME ESTIMATE (BIS)
2253,100,8 W MASON CITY,CUSTER,NE,41.22,-99.45,LOTS OF HAIL THAT IS SEVERELY STRIPPING CROPS. (LBF)
2254,100,SWIFT RUN,ROCKINGHAM,VA,38.37,-78.58,(LWX)
2305,175,BALFOUR,MCHENRY,ND,47.95,-100.53,(BIS)
0001,100,SUMMERVILLE,CHATTOOGA,GA,34.48,-85.35,QUARTER SIZED HAIL IN SUMMERVILLE. (FFC)
0020,175,3 W BREMEN,CULLMAN,AL,33.99,-87.02,GOLFBALL SIZED HAIL WAS REPORTED. (HUN)
0120,125,3 SW ROCKERVILLE,PENNINGTON,SD,43.93,-103.4,MOSTLY PEA SIZE 3-5 INCHES DEEP. A FEW LARGER STONES TO HALF DOLLAR SIZE. FOG FORMING OVER HAIL PATH. (UNR)
0151,100,HERMOSA,CUSTER,SD,43.84,-103.19,(UNR)
1045,100,6 E RILEY,RILEY,KS,39.3,-96.72,(TOP)
