Time,F_Scale,Location,County,State,Lat,Lon,Comments
Time,Speed,Location,County,State,Lat,Lon,Comments
1212,UNK,3 SE WILDERNESS STATE P,EMMET,MI,45.73,-84.9,MULTIPLE TREES AND POWER LINES DOWN. TIME ESTIMATED BY RADAR. (APX)
2343,UNK,RHINELANDER,ONEIDA,WI,45.63,-89.41,REPORTS OF TREES AND POWER LINES DOWN IN RHINELANDER TOWARDS EAGLE RIVER. TIME ESTIMATED VIA RADAR (GRB)
2359,UNK,2 SW ALTMAR,OSWEGO,NY,43.49,-76.03,TREE BLOCKING ROADWAY NEAR INTERSECTION OF BARBER ROAD AND ELDRED ROAD. (BUF)
Time,Size,Location,County,State,Lat,Lon,Comments
1200,100,LAKE ANN,BENZIE,MI,44.73,-85.84,. (APX)
1224,150,EAST JORDAN,CHARLEVOIX,MI,45.16,-85.13,. (APX)
1431,200,GLENNIE,ALCONA,MI,44.57,-83.72,DELAYED REPORT. TIME ESTIMATED VIA RADAR. (APX)
