Time,F_Scale,Location,County,State,Lat,Lon,Comments
2256,UNK,4 SW PERSIA,HARRISON,IA,41.54,-95.62,(OAX)
2322,UNK,4 N UNDERWOOD,POTTAWATTAMIE,IA,41.44,-95.68,(OAX)
Time,Speed,Location,County,State,Lat,Lon,Comments
1524,UNK,LEBANON,YORK,ME,43.39,-70.85,METAL STORAGE SHED BLOWN DOWN... ALONG WITH A COUPLE OF HUGE TREES. (GYX)
1700,UNK,2 W ROCHESTER,STRAFFORD,NH,43.3,-71.02,LARGE BRANCHES ON POWER LINES (GYX)
1730,UNK,SOMERSWORTH,STRAFFORD,NH,43.26,-70.87,TREE DOWN ON WIRES (GYX)
1752,UNK,3 S BAR MILLS,YORK,ME,43.56,-70.55,TREES AND WIRES DOWN NEAR SIMPSON ROAD (GYX)
1810,UNK,5 W SCARBOROUGH,CUMBERLAND,ME,43.58,-70.42,TREES AND LIMBS DOWN. DELAYED REPORT. TIME ESTIMATED FROM RADAR. (GYX)
1840,UNK,FALMOUTH,CUMBERLAND,ME,43.73,-70.24,LARGE TREE DOWN AT THE FORECASTER NEWSPAPER OFFICE (GYX)
1911,UNK,TILLMAN,JASPER,SC,32.46,-81.11,SOUTH CAROLINA HIGHWAY PATROL REPORTED A TREE DOWN AND IN THE ROADWAY NEAR THE INTERSECTION OF HW-321 AND HW-336. (CHS)
1919,UNK,4 SSW MORGANTON,BURKE,NC,35.69,-81.72,MEDIA REPORTS TREES AND POWERLINES DOWN NEAR HWY 64 AND PINE CREST DR. (GSP)
1928,UNK,3 NE HICKORY,CATAWBA,NC,35.77,-81.29,PUBLIC REPORTS SEVERAL TREES DOWN. (GSP)
1946,UNK,2 ENE SUN CITY,BEAUFORT,SC,32.31,-80.93,TREE REPORTED DOWN ON WISTERIA LANE. TIME ESTIMATED BASED ON RADAR. (CHS)
1949,UNK,1 NNE CONOVER,CATAWBA,NC,35.72,-81.21,MEDIA RELAYED SPOTTER REPORT OF A LARGE OAK TREE DOWN ON HWY 16 AND QUARTER SIZED HAIL. (GSP)
2001,UNK,5 N COLUMBUS,POLK,NC,35.32,-82.22,MEDIA RELAYED REPORT FROM MILL SPRING FD OF POWERLINES DOWN ON HICKORY NUT RD. (GSP)
2002,UNK,2 SSW BEAUFORT,BEAUFORT,SC,32.41,-80.69,WARNING POINT REPORTED TREE LIMB BROUGHT DOWN POWERLINE AT 500 BLOCK OF BATTERY CREEK ROAD. (CHS)
2005,65,2 E LADNER,HARDING,SD,45.83,-103.69,(UNR)
2006,UNK,4 S FERNANDINA BEACH,NASSAU,FL,30.6,-81.46,BROADCAST MEDIA RECEIVED REPORT OF A TREE DOWN ACROSS PHILIPS MANOR DRIVE. TIMING ESTIMATED BY RADAR. (JAX)
2007,UNK,CATAWBA,CATAWBA,NC,35.71,-81.08,COUNTY OFFICIAL REPORTS A FEW TREES DOWN ACROSS THE CITY. (GSP)
2020,60,BINGHAM,SOMERSET,ME,45.06,-69.88,(GYX)
2025,UNK,CAPE FAIR,STONE,MO,36.73,-93.51,TREE DOWN ACROSS ROADWAY ON LONGBEND ROAD BLOCKING ENTIRE ROADWAY. (SGF)
2035,59,4 S MANDAN,MORTON,ND,46.77,-100.89,AWOS STATION 4 S MANDAN /Y19/. (BIS)
2038,UNK,1 WNW BROOKS CROSSROADS,YADKIN,NC,36.12,-80.8,PUBLIC REPORTS ONE TREE DOWN. TIME ESTIMATED FROM RADAR. (RNK)
2045,UNK,3 NW SUMNER,OXFORD,ME,44.42,-70.48,POWER POLE AND WIRES DOWN (GYX)
2048,UNK,DAVIDSON,MECKLENBURG,NC,35.5,-80.85,SEVERAL TREES BLOWN DOWN ON MAIN STREET AND CATAWBA AVE. (GSP)
2049,UNK,5 NNE BUNNELL,FLAGLER,FL,29.53,-81.22,TREE ACROSS THE ROAD AT 1 PARKVIEW PARKWAY (JAX)
2056,58,7 S SHADEHILL,PERKINS,SD,45.67,-102.17,(UNR)
2100,UNK,BRIGHTON,SUFFOLK,MA,42.35,-71.15,TREE DOWN ON PARKDALE AVE (BOX)
2102,UNK,4 NW GROVER,WELD,CO,40.9,-104.28,CORN CROP BLOWEN DOWN DUE TO STRONG WINDS (BOU)
2115,UNK,MARBLEHEAD,ESSEX,MA,42.48,-70.87,TREES DOWN ON ROOSEVELT AVE AND FAIRVIEW AVE. (BOX)
2117,60,8 ESE REDIG,HARDING,SD,45.24,-103.38,(UNR)
2134,58,2 SSE TUCSON,PIMA,AZ,32.13,-110.95,(TWC)
2135,UNK,1 ESE REIDSVILLE,ROCKINGHAM,NC,36.35,-79.65,NUMEROUS TREES AND POWER LINES DOWN. ALSO REPORTED QUARTER SIZE HAIL. (RNK)
2142,UNK,3 SSE DANBURY,STOKES,NC,36.37,-80.18,TREE BROUGHT DOWN SOME CABLE LINE AROUND HWY 8 (RNK)
2156,60,8 SSE HOOVER,BUTTE,SD,45,-103.23,(UNR)
2157,UNK,3 ENE RYAN FIELD,PIMA,AZ,32.17,-111.13,REPORTS OF MANY HOMES IN AREA WITH SIGNIFICANT ROOF DAMAGE. (TWC)
2200,UNK,4 E WALNUT COVE,STOKES,NC,36.29,-80.06,TREE DOWN ON PINE HALL ROAD (RNK)
2200,71,1 ENE MUD BUTTE,MEADE,SD,45.01,-102.86,(UNR)
2201,UNK,5 ESE CAMP SPRINGS,CASWELL,NC,36.26,-79.42,MULTIPLE TREES DOWN AND STRUCTURES DAMAGED. (RNK)
2210,UNK,1 WSW PLEASANT GROVE,ALAMANCE,NC,36.19,-79.34,TREES DOWN NEAR THE INTERSECTION OF NC 62 AND JEFFERIES CROSS RD. (RAH)
2217,UNK,1 SW OXFORD,GRANVILLE,NC,36.3,-78.6,TREES AND POWERLINES DOWN THROUGHOUT OXFORD. TIME AND LOCATION ESTIMATED. (RAH)
2219,59,VIGO PARK,SWISHER,TX,34.65,-101.5,(LUB)
2225,UNK,2 S BAYARD,DUVAL,FL,30.11,-81.52,WJAX RELAYED A REPORT OF SEVERAL SMALL TO MEDIUM SIZED TREES UPROOTED AT AN APARTMENT COMPLEX. (JAX)
2235,UNK,3 NE VANCEVILLE,TIFT,GA,31.47,-83.41,TREES AND POWERLINES DOWN ON FERRY LAKE ROAD AT ROBIN COOK ROAD. (TAE)
2239,UNK,5 SE CARR,ORANGE,NC,36.17,-79.17,TREES AND POWERLINES DOWN IN CEDAR GROVE. (RAH)
2240,UNK,INGLESIDE,FRANKLIN,NC,36.18,-78.3,MULTIPLE TREES AND POWER LINES DOWN IN INGLESIDE. (RAH)
2240,UNK,ROGERSVILLE,WEBSTER,MO,37.12,-93.06,SEVERE THUNDERSTORM WIND GUSTS SNAPPED A TREE AND TOSSED A TRAMPOLINE SEVERAL YARDS FROM A HOME. (SGF)
2247,UNK,KITTRELL,VANCE,NC,36.22,-78.44,MULTIPLE TREES AND POWER LINES DOWN IN KITTRELL. (RAH)
2252,76,2 SW BRIDGER,ZIEBACH,SD,44.53,-101.93,(UNR)
2254,UNK,3 N NORWOOD,STANLY,NC,35.27,-80.13,ONE TREE DOWN AND POWER OUTAGES REPORTED ON SNUGGS RD NEAR INDIAN MOUND RD IN NORWOOD. (RAH)
2259,UNK,5 SE CARR,ORANGE,NC,36.17,-79.17,TREES AND POWERLINES DOWN IN CEDAR GROVE. (RAH)
2300,UNK,LOUISBURG,FRANKLIN,NC,36.1,-78.3,MULTIPLE TREES AND POWER LINES DOWN IN LOUISBURG. (RAH)
2300,UNK,6 E MILLER,LAWRENCE,MO,37.21,-93.73,SEVERE THUNDERSTORM WIND GUSTS SNAPPED SEVERAL TREE LIMBS WITHIN THE TURNBACK CREEK VALLEY EAST OF MILLER. (SGF)
2300,70,1 N HEREFORD,MEADE,SD,44.4,-102.88,(UNR)
2310,UNK,3 NNE EAST MILLINOCKET,PENOBSCOT,ME,45.67,-68.56,ONE TREE DOWN ON RTE 11 BTW MEDWAY AND GRINDSTONE. TIME ESTIMATED FROM RADAR. (CAR)
2313,UNK,5 NNW DURHAM,DURHAM,NC,36.04,-78.96,ONE TREE DOWN NEAR THE INTERSECTION OF COLE MILL RD AND ROSE OF SHARON RD. (RAH)
2315,UNK,4 ENE MONCURE,CHATHAM,NC,35.63,-79,TREE DOWN ON POWERLINES APPROX 0.3 MILES SOUTH OF EXIT 84 FROM US-1. (RAH)
2315,UNK,4 WSW NEW HILL,WAKE,NC,35.66,-78.97,NUMEROUS TREES AND POWERLINES DOWN IN BONSAL. (RAH)
2325,UNK,1 S CANDOR,MONTGOMERY,NC,35.28,-79.75,NUMEROUS TREES DOWN ALONG HWY 220 APPROXIMATELY 3 MILES SOUTHEAST OF TROY. (RAH)
2330,UNK,2 SSE CASTALIA,NASH,NC,36.06,-78.04,SEVERAL TREES DOWN IN THE CASTALIA AREA ON NC 58 AND EDWARDS ROAD. TIME ESTIMATED BY RADAR. . (RAH)
2336,UNK,3 NNW BETHESDA,DURHAM,NC,35.99,-78.86,TREES AND POWERLINES DOWN AT HWY 70 AND HOLLOWAY ST BLOCKING THE INTERSECTION. (RAH)
2340,90,2 N KIMBALL,KIMBALL,NE,41.26,-103.66,KIMBALL SHERRIFF ESTIMATES DOWNBURST WINDS 80-100MPH. 2 BUILDINGS DESTROYED. ONE 50 FEET BY 40 FEET WITH 8X8 INCH ANCHOR POSTS THAT WERE SNAPPED/BROKEN. (CYS)
2340,UNK,2 N KIMBALL,KIMBALL,NE,41.26,-103.66,KIMBALL SHERRIFF REPORTED 70-80MPH WINDS NORTH OF I-80 ON HIGHWAY 71. TREES AND POWER POLES DOWN. THINKING STRAIGHT LINE DOWNBURST WINDS. (CYS)
2343,UNK,5 WSW ANGIER,HARNETT,NC,35.48,-78.83,SEVERAL TREES DOWN ON KIPLAND RD. TREE FELL ON A VAN. DAMAGE TO A FEW HOUSES. TIME ESTIMATED BY RADAR. (RAH)
2350,76,4 E CACTUS FLAT,JACKSON,SD,43.84,-101.82,(UNR)
2350,65,3 E WICKSVILLE,PENNINGTON,SD,44.1,-102.5,(UNR)
2351,66,3 E PHILIP,HAAKON,SD,44.05,-101.6,(UNR)
2352,65,3 SE PICACHO,PINAL,AZ,32.69,-111.46,(TWC)
2355,77,5 SSW HAYES,STANLEY,SD,44.31,-101.06,SPOTTER REPORTS 77MPH PEAK GUST ON DAVIS STATION. (ABR)
0000,UNK,2 E KADOKA,JACKSON,SD,43.83,-101.47,I-90 CLOSED DUE TO SEVERAL OVER-TURNED TRUCKS BETWEEN KADOKA... EXIT 150... AND BELVIDERE... EXIT 163 (UNR)
0000,78,1 NE MIDLAND,HAAKON,SD,44.08,-101.14,(UNR)
0009,UNK,1 WSW RALEIGH,WAKE,NC,35.81,-78.65,TREES AND NUMEROUS POWER LINES ALONG GLENWOOD AVE SOUTH NEAR THE HAYES BARTON AREA. (RAH)
0010,61,4 E COTTONWOOD HEIGHTS,SALT LAKE,UT,40.61,-111.73,MESOWEST SITE UTSTR S-TURNS BIG COTTONWOOD CANYON (SLC)
0010,77,9 ENE BELVIDERE,JACKSON,SD,43.9,-101.1,(UNR)
0015,UNK,BELVIDERE,JACKSON,SD,43.83,-101.27,SIGNS BLOWN DOWN... GARBAGE CANS BLOWN ACROSS STREET (UNR)
0025,UNK,OKATON,JONES,SD,43.89,-100.89,CAMPER BLOWN OVER ON INTERSTATE. TIME ESTIMATED. (ABR)
0030,UNK,7 NNE ANDERSON,ANDERSON,SC,34.62,-82.61,EMERGENCY MANAGER RELAYED A REPORT OF A MOVING VAN AND TRAVEL TRAILER BLOWN DOWN ON HWY 81 NORTH. (GSP)
0030,62,7 E WANBLEE,JACKSON,SD,43.58,-101.52,(UNR)
0034,72,2 S MURDO,JONES,SD,43.86,-100.71,MOST RECENT PEAK WIND GUST FOR STATION 2 MILE SOUTH OF MURDO. (ABR)
0039,60,2 W PAPILLION,SARPY,NE,41.16,-96.08,114TH AND CORNHUSKER (OAX)
0050,UNK,MAGMA,PINAL,AZ,33.13,-111.5,100 FEET OF POWER POLES AND POWER LINES BLOWN DOWN BY STRONG DOWNBURST WIND (PSR)
0051,UNK,3 SW BROADWAY,LEE,NC,35.43,-79.09,TREE IN THE ROAD AT THE 400 BLOCK OF COX MILL RD. (RAH)
0100,71,2 NNE MAGMA,PINAL,AZ,33.16,-111.49,SRP WEATHER STATION (PSR)
0100,60,11 SW PARMELEE,TODD,SD,43.23,-101.2,(UNR)
0100,60,9 SSE DRAPER,JONES,SD,43.81,-100.44,TIME ESTIMATED. (ABR)
0105,UNK,SPRINGFIELD,SARPY,NE,41.08,-96.13,TREES DOWN AND POWER OUT. (OAX)
0110,60,CEDAR CREEK,CASS,NE,41.05,-96.1,(OAX)
0130,UNK,BOGART,OCONEE,GA,33.95,-83.53,EMERGENCY MNGR RECEIVED REPORTS OF SEVERAL TREES DOWN ACROSS NORTHERN PORTION OF OCONEE COUNTY...PARTICULARLY UP TOWARDS BOGART (FFC)
0130,69,15 SSE MISSION,TODD,SD,43.1,-100.6,(UNR)
0135,UNK,1 NNW BELL ARTHUR,PITT,NC,35.6,-77.52,TREE DOWN ON STANTONSBURG RD BETWEEN BELL ARTHUR RD AND CHINQUAPIN RD (MHX)
0136,UNK,4 SE MICRO,JOHNSTON,NC,35.52,-78.17,TREES DOWN ON POWER LINES ALONG AYCOCK ROAD NEAR RAINS CROSSROADS ROAD. (RAH)
0151,60,4 S BURLINGTON,KIT CARSON,CO,39.25,-102.27,REPORTED AT THE AIRPORT. GUSTS DROPPED BELOW 60 MPH AROUND THE TOP OF THE HOUR. (GLD)
0154,UNK,5 N IVA,ANDERSON,SC,34.38,-82.66,COUNTY OFFICIALS REPORT TREES BLOWN DOWN ON JONES RD. (GSP)
0154,UNK,1 W VALENTINE,CHERRY,NE,42.87,-100.57,6 INCH DIAMETER TREE LIMB BROKE OFF ACROSS THE STREET FROM A TRAINED SPOTTERS HOUSE. VTN ASOS WAS CONSISTENTLY GUSTING TO 59 MPH FOR A DURATION OF 10 MINUTES. (LBF)
0156,64,VALENTINE,CHERRY,NE,42.87,-100.55,(LBF)
0200,61,1 NE WINNER,TRIPP,SD,43.39,-99.84,(UNR)
0235,62,AINSWORTH,BROWN,NE,42.55,-99.86,(LBF)
0305,60,MULLEN,HOOKER,NE,42.04,-101.04,60 MPH WINDS BLEW 4 SHINGLES OFF OF ROOF. (LBF)
0315,58,NEWPORT,ROCK,NE,42.6,-99.33,COOP REPORTED SEVERAL LARGE BRANCHES LAYING IN YARD. (LBF)
0320,60,NE GOODLAND,SHERMAN,KS,39.35,-101.71,MEASURED IN NORTHEAST GOODLAND. (GLD)
0352,60,8 WSW STAPLETON,LOGAN,NE,41.44,-100.65,RADAR ESTIMATED TIME OF 1052PM CDT. (LBF)
0407,60,3 S GANDY,LOGAN,NE,41.43,-100.46,(LBF)
0415,58,1 ENE CAPE COLONY,CHOWAN,NC,36.03,-76.57,EDE AWOS. (AKQ)
0526,62,3 SW WHITEHALL SHORES,PASQUOTANK,NC,36.26,-76.18,ECG ASOS. (AKQ)
0619,60,EDISON,FURNAS,NE,40.28,-99.78,HOME ANEMOMETER MEASURED GUSTS TO AROUND 60 MPH. HAIL TO AROUND PENNY SIZE ALSO REPORTED. (GID)
1000,UNK,2 W OLATHE,JOHNSON,KS,38.89,-94.85,ONE THIRD OF A HEALTHY MAPLE SNAPPED AND FELL ONTO NEIGHBORING FENCE. ESTIMATED DIAMETER OF SECTION IS 10 TO 12 INCHES. SMALL HAIL ALSO NOTICED AT TIME OF EVENT. (EAX)
1039,UNK,CHAUTAUQUA,CHAUTAUQUA,KS,37.02,-96.18,THE EAST SIDE DOOR OF THE FIRE BARN WAS PUSHED IN 12 TO 18 INCHES. TIME IS BASED ON RADAR AND PREVIOUS REPORTS. (ICT)
1115,UNK,8 SW CHARLESTON,KANAWHA,WV,38.27,-81.73,HICKORY TREE DOWN. (RLX)
Time,Size,Location,County,State,Lat,Lon,Comments
1810,150,3 WSW OLLIE,FALLON,MT,46.58,-104.16,(BYZ)
1823,100,2 NNW STARKSBORO,ADDISON,VT,44.25,-73.07,DIME TO QUARTER SIZE HAIL AT THE ROCKVILLE MARKET FARM (BTV)
1832,100,5 W BAKER,FALLON,MT,46.37,-104.39,QUARTER SIZED HAIL REPORTED ON SOCIAL MEDIA. (BYZ)
1915,150,MORGANTON,BURKE,NC,35.74,-81.7,PUBLIC REPORTS PING PONG BALL SIZED HAIL CURRENTLY FALLING. (GSP)
1928,150,3 NE HICKORY,CATAWBA,NC,35.77,-81.29,PING PONG SIZE HAIL NE PART OF HICKORY. (GSP)
1944,175,4 NNE HICKORY,CATAWBA,NC,35.79,-81.31,MEDIA REPORTS GOLF BALL SIZED HAIL AT HWY 127 AND CLONINGER MILL RD. (GSP)
2021,100,2 NE LOVE VALLEY,IREDELL,NC,36.01,-80.96,PUBLIC REPORTS QUARTER SIZED HAIL FALLING IN NW IREDELL COUNTY. (GSP)
2120,125,2 N REIDSVILLE,ROCKINGHAM,NC,36.37,-79.68,(RNK)
2156,100,8 SSE HOOVER,BUTTE,SD,45,-103.23,(UNR)
2157,100,3 ENE RYAN FIELD,PIMA,AZ,32.17,-111.13,HAIL GENERALLY 1... ALTHOUGH SOME A LITTLE BIGGER (TWC)
2200,100,5 S DUNLAP,HARRISON,IA,41.78,-95.6,(OAX)
2201,100,6 SE CAMP SPRINGS,CASWELL,NC,36.25,-79.42,(RNK)
2208,100,1 WNW SEABROOK,ROCKINGHAM,NH,42.9,-70.9,HAIL CONTINUES TO FALL. (GYX)
2209,175,4 N CHEYENNE,LARAMIE,WY,41.2,-104.79,WIND GUSTS TO 40 MPH. (CYS)
2214,100,5 W HOYT,WELD,CO,40.02,-104.16,(BOU)
2220,100,1 NW STOKESDALE,GUILFORD,NC,36.25,-80,. (RAH)
2305,175,6 WSW UNION CENTER,MEADE,SD,44.55,-102.78,(UNR)
2310,125,4 ENE MONCURE,CHATHAM,NC,35.64,-79.01,QUARTER TO HALF DOLLAR SIZE HAIL FALLING AT THE SKY MART AT US-1 AND OLD US-1. (RAH)
2312,125,3 N BUSHNELL,KIMBALL,NE,41.28,-103.89,RELAYED VIA TWITTER. (CYS)
2322,150,6 SW OMAHA,DOUGLAS,NE,41.2,-96.09,PING PONG BALL SIZE HAIL AT 96TH AND Q STREETS. (OAX)
2324,100,6 NNW DURHAM,DURHAM,NC,36.06,-78.94,SPOTTER REPORTED QUARTER SIZE HAIL. (RAH)
2348,175,3 SW UNDERWOOD,POTTAWATTAMIE,IA,41.35,-95.72,(OAX)
2350,125,3 N RDU INTERNATIONAL A,WAKE,NC,35.92,-78.79,HALF-DOLLAR SIZED HAIL REPORTED IN BRIER CREEK NEAR THE INTERSECTION OF GLENWOOD AVE AND TW ALEXANDER DR. (RAH)
0030,150,6 SW OMAHA,DOUGLAS,NE,41.2,-96.09,PING PONG BALL SIZE HAIL AT 96TH AND Q STREETS. (OAX)
0035,100,POTTER,CHEYENNE,NE,41.22,-103.31,NICKEL TO QUARTER SIZED HAIL. PICTURE RECEIVED VIA FACEBOOK. (CYS)
0038,175,2 WSW PAPILLION,SARPY,NE,41.15,-96.08,GOLFBALL SIZE HAIL AT HWY 370 AND 114TH ST (OAX)
0050,100,2 SSE OMAHA,DOUGLAS,NE,41.23,-96,(OAX)
0056,100,1 S PAPILLION,SARPY,NE,41.14,-96.04,DIME TO QUARTER SIZE HAIL AT 90TH AND SCHRAM RD. (OAX)
0114,125,SPRINGFIELD,SARPY,NE,41.08,-96.13,1/2 INCH TO 1 1/4 INCH HAIL. (OAX)
0115,150,CEDAR CREEK,CASS,NE,41.05,-96.1,(OAX)
0152,100,1 S MANLEY,CASS,NE,40.9,-96.17,(OAX)
0235,100,1 NE SUGAR CITY,CROWLEY,CO,38.24,-103.65,(PUB)
0407,100,3 S GANDY,LOGAN,NE,41.43,-100.46,(LBF)
