Time,F_Scale,Location,County,State,Lat,Lon,Comments
1727,UNK,6 SW DUETTE,MANATEE,FL,27.54,-82.2,LATE REPORT VIA PUBLIC. RECEIVED NUMEROUS PICTURES OF SNAPPED TREES ALONG THE PATH. TRACK IS APPROXIMATELY 8 MILES LONG. TIMES ESTIMATED OFF OF THE REPORT AND RADAR. (TBW)
1745,UNK,6 NE DUETTE,HILLSBOROUGH,FL,27.65,-82.06,TORNADO MOVED THROUGH OPEN FIELD OBSERVED BY MOSAIC PLANT WORKERS. TIME ESTIMATED OFF OF RADAR. (TBW)
1757,UNK,WARSAW,DUPLIN,NC,35,-78.09,EF0 TORNADO WITH ESTIMATED 80 MPH WINDS. (MHX)
1812,UNK,4 W SEVEN SPRINGS,WAYNE,NC,35.22,-77.92,SEVERAL TURKEY BARNS DAMAGED ON JUBILEE ROAD. (RAH)
1813,UNK,7 E CALYPSO,DUPLIN,NC,35.15,-77.98,EF1 TORNADO WITH ESTIMATED 100 MPH WINDS. EIGHT POWERPOLES SNAPPED OFF AND ROOF BLOWN OFF MOBILE HOME. (MHX)
1815,UNK,MURDOCK,CHARLOTTE,FL,27.01,-82.15,DAMAGE REPORTED IN MURDOCK OF TREES DOWN...LIGHT POSTS DAMAGED...WINDOWS AND BUILDING DAMAGE. TIME ESTIMATED BASED OFF OF RADAR. (TBW)
1837,UNK,3 N HARBOUR HEIGHTS,DESOTO,FL,27.04,-82.01,TRAINED SPOTTER REPORTED A TORNADO. (TBW)
1935,UNK,WAVERLY,SUSSEX,VA,37.03,-77.1,*** 3 FATAL *** RTE 460 CLOSED DUE TO POSSIBLE TORNADA. TIME ESTIMATED FROM RADAR. FATALATIES REPORTED VIA MEDIA AND LAW ENFORCEMENT. (AKQ)
1954,UNK,COLERAIN BEACH,BERTIE,NC,36.2,-76.76,CONFIRMED EF0 TORNADO...MINOR STRUCTURE AND TREE DAMAGE (AKQ)
2016,UNK,4 SSW CHERAW,CHESTERFIELD,SC,34.64,-79.93,NWS SURVEY TEAM CONCLUDED THAT AN EF0 TORNADO BRIEFLY TOUCHED DOWN 3 TIMES ON A PATH ALONG HIGHWAY 1 BETWEEN PATRICK AND CHERAW. MAXIMUM WINDS WERE ESTIMATED TO RANGE F (CAE)
2035,UNK,2 SE APPOMATTOX,APPOMATTOX,VA,37.34,-78.79,MAJOR DAMAGE TO HOMES ALONG RT 460 EAST OF APPOMATTOX. (RNK)
2105,UNK,5 S BAHAMA,DURHAM,NC,36.1,-78.89,NUMEROUS TREES DOWN ON PARAGON CIRCLE AND GLEN OAKS DRIVE. TIME ESTIMATED. (RAH)
2110,UNK,5 S BAHAMA,DURHAM,NC,36.09,-78.9,NUMEROUS TREES DOWN ALONG THE 400-600 BLOCK OF GOODWIN ROAD NEAR STEPHEN ROAD...CRESTVIEW ROAD. AND EAKER ROAD. TIME ESTIMATED. (RAH)
2110,UNK,WEBER CITY,FLUVANNA,VA,37.76,-78.29,CONFIRMED EF0 TORNADO HAD A PATH OF 4.5 MILES AND UPROOTED NUMEROUS TREES AND DID MINOR DAMAGE TO HOUSES (AKQ)
2124,UNK,KENTS STORE,FLUVANNA,VA,37.88,-78.13,TORNADO REPORTED ON THE GROUND (AKQ)
2133,UNK,3 W DABNEY,GRANVILLE,NC,36.36,-78.54,NUMEROUS TREES DOWN AND 2 FARM SILOS DOWN NEAR HUNTSBORO ROAD AND HAROLD OBERLIN ROAD. TIME ESTIMATED. (RAH)
2140,UNK,6 SW BULLOCKSVILLE,VANCE,NC,36.43,-78.43,TORNADO REPORTED ON THE GROUND NEAR ROUTE 39 AND WILL JEFFERSON ROAD. (RAH)
2148,UNK,KEATS,MECKLENBURG,VA,36.56,-78.3,CONFIRMED EF1 TORNADO NUMEROUS TREE DOWNED WITH STRUCTURAL DAMAGE INCLUDING HOME MOVED OFF FOUNDATION (AKQ)
2202,UNK,LA CROSSE,MECKLENBURG,VA,36.7,-78.09,ROOF OFF OF SINGLE WIDE TORNADO FROM POSSIBLE TORNADO (AKQ)
2202,UNK,UNION LEVEL,MECKLENBURG,VA,36.72,-78.23,REPORT OF TREES DOWN AND POSSIBLE TORNADO CALLED INTO DISPATCH. (AKQ)
2345,UNK,TAPPAHANNOCK,ESSEX,VA,37.92,-76.87,MULTIPLE STRUCTURES DAMAGED FROM POSSIBLE TORNADO (AKQ)
2350,UNK,1 ENE NAYLORS,RICHMOND,VA,37.98,-76.84,MULTIPLE HOUSES DESTROYED NEAR NEWLAND IN THE NAYLORS BEACH AND RAPPAPOINT AREAS (AKQ)
0014,UNK,2 SW REDGATE,ST. MARYS,MD,38.24,-76.62,EF-0. TREE DAMAGE FROM SHORELINE OF POTOMAC TO ACROSS HAMPTON ROAD. TORNADO WAS A CONTINUATION OF THE 30 MILE PATH PREVIOUSLY REPORTED THROUGH THE MIDDLE PENINSULA AND (LWX)
0020,UNK,4 NNW WYALUSING,BRADFORD,PA,41.72,-76.29,TORNADO TOUCHED DOWN JUST SOUTH OF ROUTE 6 NORTH OF WYALUSING AND TRACK NORTHEAST FOR ABOUT 1 MILE. THE WIDTH OF THE TORNADO WAS ABOUT 100 YARDS. MAXIMUM WINDS WERE EST (BGM)
0038,UNK,WHITE HORSE,LANCASTER,PA,40.03,-75.99,EF-2 CONFIRMED. MAX WINDS 125 MPH. (CTP)
0125,UNK,1 WSW BAYPORT,MIDDLESEX,VA,37.75,-76.69,EF0 WIND DAMAGE AT BOY SCOUT CAMP (AKQ)
0128,UNK,1 W MORATTICO,LANCASTER,VA,37.8,-76.62,DAMAGE TO TREES AND BUILDINGS...POSSIBLE TORNADO (AKQ)
0138,UNK,REMLIK,MIDDLESEX,VA,37.66,-76.62,BARN BLOWN DOWN. ESTIMATED 95 MPH WINDS. (AKQ)
Time,Speed,Location,County,State,Lat,Lon,Comments
1230,UNK,1 SW SWEETWATER,MONROE,TN,35.59,-84.48,POWER LINES DOWN (MRX)
1240,UNK,1 ESE LAWTEY,BRADFORD,FL,30.04,-82.06,EMERGENCY MANAGER REPORTS SEVERAL TREES DOWN NEAR THE 900 BLOCK OF NE 223RD ST. (JAX)
1245,UNK,GREENBACK,LOUDON,TN,35.65,-84.18,SEVERAL TREES DOWN IN THE GREENBACK AREA. (MRX)
1255,UNK,FARRAGUT,KNOX,TN,35.87,-84.18,TREE KNOCKED DOWN ON A CHURCH IN FARRAGUT. (MRX)
1316,UNK,E CLINTON,ANDERSON,TN,36.09,-84.13,SEVERAL TREES DOWN (MRX)
1321,UNK,4 SSW LONG CREEK,OCONEE,SC,34.72,-83.29,TREES DOWN ON BRASSTOWN ROAD IN WESTERN OCONEE COUNTY. (GSP)
1340,UNK,N KNOXVILLE,KNOX,TN,35.97,-83.95,A FEW TREES AND POWER LINES DOWN IN NORTH KNOX COUNTY (MRX)
1340,UNK,S CLINTON,ANDERSON,TN,36.09,-84.13,POWER LINES AND TREES DOWN ALONG LEE ROAD (MRX)
1340,UNK,MAYNARDVILLE,UNION,TN,36.25,-83.81,BARN DAMAGE ALONG LITTLE VALLEY RD (MRX)
1350,UNK,10 ENE RAINBOW LAKES ES,MARION,FL,29.23,-82.3,LARGE TREE DOWN NEAR THE INTERSECTION OF NW 39TH STREET AND NW 110TH AVE. (JAX)
1400,UNK,2 NE MAULDIN,GREENVILLE,SC,34.81,-82.27,THE ROOF OF A SHED WAS BLOWN OFF AT THE GOLDEN STRIP CAREER CENTER. (GSP)
1403,UNK,CLARKESVILLE,HABERSHAM,GA,34.61,-83.52,TREE DOWN ON A HOUSE ON VIEW STREET. (GSP)
1448,UNK,5 WNW AWENDAW,BERKELEY,SC,33.06,-79.69,TREES DOWN ON HALFWAY CREEK ROAD ONE MILE SOUTH OF STEED CREEK ROAD. TIME ESTIMATED BY RADAR. (CHS)
1505,UNK,5 NNW SPARTANBURG,SPARTANBURG,SC,35.01,-81.96,POWERLINE DOWN AT SHOALLY CREEK ROAD AND BOILING SPRINGS ROAD. (GSP)
1530,UNK,5 SE RUTHERFORDTON,RUTHERFORD,NC,35.31,-81.9,SEVERAL TREES BLOWN DOWN IN SOUTHERN AND EASTERN RUTHERFORD COUNTY FROM 1030 AM TO 1050 AM. (GSP)
1559,UNK,FLETCHER,HENDERSON,NC,35.43,-82.5,NUMEROUS TREES DOWN. (GSP)
1600,UNK,5 NW SHELBY,CLEVELAND,NC,35.34,-81.6,NUMEROUS TREES DOWN ACROSS THE NORTHERN HALF OF CLEVELAND COUNTY. (GSP)
1600,UNK,CASAR,CLEVELAND,NC,35.51,-81.62,SEVERAL LARGE TREE LIMBS DOWN IN CASAR. (GSP)
1600,UNK,MAIDEN,CATAWBA,NC,35.58,-81.21,TREES DOWN ON OLD MILL ROAD. (GSP)
1600,UNK,VALDESE,BURKE,NC,35.75,-81.56,MANY TREES DOWN ON LOVELADY ROAD AND CRESCENT DRIVE. (GSP)
1603,65,3 ENE TOLARSVILLE,BLADEN,NC,34.79,-78.82,MEASURED BY HOMEOWNER WEATHER STATION. GUSTS SHIFTED FROM SOUTH TO NORTH. SOME SMALL LIMBS DOWN. (ILM)
1615,UNK,ICARD,BURKE,NC,35.73,-81.46,TREES BLOCKING INTERSTATE 40 EAST LANES. (GSP)
1615,UNK,HICKORY,CATAWBA,NC,35.74,-81.33,TREES DOWN ON 10TH AVENUE SW. (GSP)
1618,65,3 ENE TOLARSVILLE,BLADEN,NC,34.79,-78.82,MEASURED BY HOMEOWNER WEATHER STATION. GUSTS SHIFTED FROM SOUTH TO NORTH. SOME SMALL LIMBS DOWN. (ILM)
1642,UNK,TABOR CITY,COLUMBUS,NC,34.15,-78.87,POWER LINES DOWN. (ILM)
1645,UNK,TAYLORSVILLE,ALEXANDER,NC,35.92,-81.18,NUMEROUS TREES DOWN AROUND COUNTY...MOSTLY WITH THE LINE OF THUNDERSTORMS BEFORE NOON. (GSP)
1645,UNK,5 ESE GLADE VALLEY,SURRY,NC,36.46,-80.97,SEVERAL LARGE BRANCHES DOWN AND DIME SIZED HAIL. (RNK)
1647,UNK,GASTONIA,GASTON,NC,35.25,-81.17,CUMBERLAND AVENUE A TREE FELL DOWN BRINGING DOWN A POWERLINE. (GSP)
1705,UNK,3 ENE LINCOLNTON,LINCOLN,NC,35.49,-81.2,TREES BLOCKING ASHBURY CHURCH ROAD AND GASTONIA HIGHWAY. (GSP)
1706,UNK,2 NW BOOMER,WILKES,NC,36.08,-81.27,911 CALL CENTER REPORTS MULTIPLE TREES DOWN ALONG BOOMER ROAD. TIME RADAR ESTIMATED. (RNK)
1715,UNK,3 NNE FORT MILL,YORK,SC,35.05,-80.92,POWERLINES IN ROAD ON SPRINGFIELD PARKWAY AT OLD NATION ROAD. (GSP)
1720,UNK,5 SW BOONVILLE,YADKIN,NC,36.18,-80.78,ONE TREE DOWN ON CRANBERRY ROAD NEAR STARMOUNT HIGH SCHOOL. (RNK)
1720,UNK,3 SW FLOYD,FLOYD,VA,36.88,-80.35,POWER LINE DOWN ON LONGLEVEL ROAD. (RNK)
1730,UNK,4 SSE CHARLOTTE,MECKLENBURG,NC,35.14,-80.81,TREE BLOCKING QUEENS ROAD AS SHOWN ON TELEVISION. (GSP)
1730,UNK,STATESVILLE,IREDELL,NC,35.79,-80.89,SCATTERED TREES DOWN WITH THE PASSAGE OF THE LINE OF THUNDERSTORMS. (GSP)
1730,UNK,4 ENE DOBSON,SURRY,NC,36.4,-80.65,MAIL CARIER REPORTS SEVERAL LARGE BRANCHES LARGER THAN THE SIZE OF HER WRIST DOWN ALONG SIMPSON MILL ROAD. (RNK)
1737,UNK,23 NNW LANCASTER,LANCASTER,SC,35.04,-80.89,DOT REPORTED TREES AND POWERLINES DOWN ACROSS THE NORTHERN PORTION OF LANCASTER CO. (CAE)
1754,UNK,4 WNW PILOT MOUNTAIN,SURRY,NC,36.41,-80.53,911 CALL CENTER REPORTS MULTIPLE TREES DOWN ALONG ARARAT ROAD IN SW PATRICK COUNTY. (RNK)
1754,UNK,3 E ARARAT,PATRICK,VA,36.6,-80.45,911 CALL CENTER REPORTS MULTIPLE TREES DOWN ALONG ARARAT HIGHWAY IN SW PATRICK COUNTY. (RNK)
1755,UNK,8 E CALYPSO,DUPLIN,NC,35.15,-77.96,EMERGENCY MANAGEMENT REPORTED TREE DOWN NEAR WAYNE/DUPLIN BORDER. CORRECTED... TIME BASED ON RADAR. (MHX)
1755,UNK,2 NE MOCKSVILLE,DAVIE,NC,35.92,-80.53,MANY TREES DOWN WITH SOME ACROSS ROADS AND POWERLINES FROM JUST OUTSIDE OF MOCKSVILLE TO FARMINGTON. (GSP)
1758,UNK,4 SSW FLOYD,FLOYD,VA,36.86,-80.33,POWER LINE BLOWN DOWN NEAR FAIRVIEW CHURCH ROAD AND ROUTE 8. (RNK)
1800,UNK,WARSAW,DUPLIN,NC,35,-78.09,PUBLIC REPORTED TREES SNAPPED AND LARGE LIMBS DOWN IN WARSAW. TIME BASED ON RADAR. (MHX)
1807,UNK,1 NW HUNTSVILLE,YADKIN,NC,36.09,-80.52,TREES DOWN ON FARMINGTON ROAD (RNK)
1808,UNK,4 W SEVEN SPRINGS,WAYNE,NC,35.22,-77.91,MOBILE HOME DESTROYED ON SANDERSON RD (RAH)
1810,UNK,5 S CHRISTIANSBURG,MONTGOMERY,VA,37.07,-80.41,TREE DOWN ON UNION VALLEY ROAD (RNK)
1815,UNK,8 N LANCASTER,LANCASTER,SC,34.84,-80.81,RANGER AT ANDREW JACKSON STATE PARK REPORTED NUMEROUS LARGE TO SMALL LIMBS DOWN IN THE PARK. (CAE)
1815,UNK,SUMMERLINS CROSSROADS,DUPLIN,NC,35.08,-77.96,POWER LINES DOWN (MHX)
1820,UNK,WINSTON-SALEM,FORSYTH,NC,36.1,-80.26,EM REPORTS MULTIPLE TREES DOWN ACROSS FORSYTH COUNTY INCLULDING SEVERAL IN WINSTON-SALEM. TIME ESTIMATED BY RADAR. (RAH)
1823,UNK,1 W LA GRANGE,LENOIR,NC,35.31,-77.81,TRUCK BLOWN OFF ROAD ON US 70 (MHX)
1830,UNK,JASON,GREENE,NC,35.38,-77.78,BROADCAST MEDIA RELAYED REPORT OF LARGE TREE BRANCHES DOWN IN JASON ALONG HWY 903. (MHX)
1830,UNK,4 SSE LINWOOD,DAVIDSON,NC,35.7,-80.3,TREE UPROOTED AND DOWN ON A HOUSE ALONG HICKORY POINT DRIVE WITH DAMAGE TO THE ROOF OF THE RESIDENCE. (RAH)
1835,UNK,MONROE,UNION,NC,34.99,-80.54,SEVERAL REPORTS OF TREES AND POWERLINES DOWN THROUGHOUT THE COUNTY. (GSP)
1835,UNK,CASTORIA,GREENE,NC,35.54,-77.67,EMERGENCY MANAGER REPORTED TREES DOWN IN CASTORIA. TIME BASED ON RADAR. (MHX)
1835,UNK,1 ESE SARATOGA,WILSON,NC,35.65,-77.77,FEW REPORTS OF SOME TREES DOWN. (RAH)
1843,UNK,3 SSE WALNUT COVE,STOKES,NC,36.26,-80.11,TREES DOWN ON HIGHWAY 65 (RNK)
1845,UNK,4 E SPENCER,ROWAN,NC,35.68,-80.36,TREE DOWNED ON POWER LINES ALONG LONG FERRY RD (GSP)
1850,UNK,3 SW TRINITY,DAVIDSON,NC,35.86,-80.05,ROOF BLOWN OFF A MOBILE HOME ON FAIRWOOD DRIVE IN TRINITY. (RAH)
1855,UNK,8 E CALYPSO,DUPLIN,NC,35.15,-77.96,EMERGENCY MANAGEMENT REPORTED TREE DOWN NEAR WAYNE/DUPLIN BORDER. (MHX)
1855,UNK,AYDEN,PITT,NC,35.47,-77.42,POWER LINES DOWN (MHX)
1855,UNK,COLLINSVILLE,HENRY,VA,36.72,-79.91,2 TREES DOWN ON A HOUSE IN COLLINSVILLE (RNK)
1856,UNK,MAYODAN,ROCKINGHAM,NC,36.41,-79.97,SEVERAL TREES BLOWN DOWN BY THUNDERSTORM WINDS. (RNK)
1857,UNK,5 ESE WHITE STORE,ANSON,NC,34.87,-80.18,POWER LINE DOWN ON UNION CHURCH RD NEAR HWY 109 SOUTH. (RAH)
1902,UNK,4 SSE KERNERSVILLE,FORSYTH,NC,36.07,-80.04,LARGE TREE DOWN ON A HOUSE NEAR INTERSECTION OF SOUTH BUNKER HILL ROAD AND SANDY RIDGE ROAD. DAMAGE TO THE ROOF. (RAH)
1910,UNK,4 N POLKTON,ANSON,NC,35.06,-80.21,TREE DOWN ON MCSWAIN RD NEAR HWY 742 N AND JOHNSON RD. (RAH)
1915,UNK,1 S GREENSBORO,GUILFORD,NC,36.07,-79.83,LARGE TREE DOWN AT S ELAM AVE AND SHERWOOD AV. TIME ESTIMATED BY RADAR. (RAH)
1915,UNK,5 W AXTON,HENRY,VA,36.67,-79.8,TREE DOWN BLOCKING A.P. HILL ROAD. TIME ESTIMATED FROM RADAR. (RNK)
1918,UNK,WILLIAMSTON,MARTIN,NC,35.85,-77.06,BROADCAST MEDIA RELAYED A PUBLIC REPORT OF LARGE TREE LIMBS DOWN IN WILLIAMSTON. TIME BASED ON RADAR. (MHX)
1930,UNK,STEWARTSVILLE,BEDFORD,VA,37.27,-79.8,SMALL OUTBUILDING WAS DAMAGED (RNK)
1945,UNK,5 SSE MAYFIELD,ROCKINGHAM,NC,36.45,-79.55,THREE TREES DOWN IN THE RUFFIN AREA. TIME ESTIMATED FROM RADAR. (RNK)
1946,UNK,MOUNT GILEAD,MONTGOMERY,NC,35.22,-80,TREES DOWN IN MT. GILEAD NEAR HWY 109 SOUTH. (RAH)
1948,UNK,TROY,MONTGOMERY,NC,35.36,-79.89,TREE DOWN IN TROY. NO ADDITIONAL INFORMATION GIVEN. (RAH)
1950,UNK,2 S CHATHAM,PITTSYLVANIA,VA,36.79,-79.39,MULTIPLE TREES AND POWER LINES DOWN ON RT 29 (RNK)
2000,UNK,5 E DANVILLE CITY,PITTSYLVANIA,VA,36.57,-79.33,POWER LINES AND POLES DOWN ON MOUNTAIN HILL ROAD. (RNK)
2005,UNK,1 NE KENNON,CHARLES CITY,VA,37.32,-76.98,TREE DOWN ACROSS TELEPHONE LINE ALONG CAPITAL TRAIL EAST OF CHARLES CITY CH (AKQ)
2005,UNK,2 ESE SLATERVILLE,NEW KENT,VA,37.49,-76.91,TREES DOWN ALONG ROUTE 33 EAST OF OLD STAGE ROAD (AKQ)
2010,UNK,1 W COLERIDGE,RANDOLPH,NC,35.64,-79.62,TREES DOWN IN THE 6600 BLOCK OF NC HWY 42 SOUTH NEAR DEEP RIVER CHURCH RD. (RAH)
2015,UNK,2 E CAMP SPRINGS,CASWELL,NC,36.31,-79.46,THREE TO FOUR TREES DOWN IN THE CHERRY GROVE AREA. TIME ESTIMATED BY RADAR. (RNK)
2015,UNK,5 ESE BLAIRS,PITTSYLVANIA,VA,36.64,-79.3,TREES AND POWER LINES DOWN. (RNK)
2022,UNK,2 ENE SILER CITY,CHATHAM,NC,35.74,-79.43,TREE DOWN ON VAN THOMAS RD NEAR SILK HOPE LINDLEY MILL RD. (RAH)
2022,UNK,WEST POINT,KING WILLIAM,VA,37.55,-76.8,TREE DOWN ON THOMPSON REPORTED BY SCHOOL BUS DRIVER (AKQ)
2025,UNK,4 SE HARPERS CROSSROADS,CHATHAM,NC,35.52,-79.43,TREE ON NC 42 NEAR SILER CITY GLENDON RD. (RAH)
2030,UNK,KECOUGHTAN,CITY OF HAMPTON,VA,37.02,-76.35,TREE DOWN ON POWERLINES ALONG ROBINSON RD. (AKQ)
2035,UNK,CEDAR GROVE,CITY OF NEWPORT N,VA,37.04,-76.48,TREES DOWN NEAR INTERSECTION OF CEDAR/RIVER RD. (AKQ)
2040,UNK,1 ESE MILTON,CASWELL,NC,36.53,-79.19,SEVERAL TREES DOWN IN THE MILTON AREA. TIME ESTIMATE FROM RADAR. (RNK)
2040,UNK,SMITHFIELD,ISLE OF WIGHT,VA,36.98,-76.62,ROOD BLOWN OFF A BARN (AKQ)
2040,UNK,4 SE APPOMATTOX,APPOMATTOX,VA,37.32,-78.77,MULTIPLE TREES DOWN IN THE EVERGREEN AREA (RNK)
2045,UNK,MEBANE,ALAMANCE,NC,36.09,-79.28,LARGE TREE DOWN IN MEBANE. (RAH)
2045,UNK,2 NE MILTON,HALIFAX,VA,36.56,-79.18,TREE DOWN (RNK)
2045,UNK,KINGSVILLE,PRINCE EDWARD,VA,37.25,-78.44,TREE DOWN ON FARMVILLE ROAD (AKQ)
2050,UNK,NEWPORT NEWS,CITY OF NEWPORT N,VA,37.08,-76.51,TREES ON AT LEAST 2 HOMES IN NEWPORT NEWS (AKQ)
2057,UNK,4 WNW GOLDSTON,CHATHAM,NC,35.62,-79.38,TREE ON A RESIDENCE IN THE 14000 BLOCK OF NC 902 IN BEAR CREEK. (RAH)
2058,UNK,6 ESE HILLSBOROUGH,ORANGE,NC,36.04,-79.01,TREES DOWN ON POWER LINES IN ENO. (RAH)
2100,UNK,4 W NEW CANTON,BUCKINGHAM,VA,37.69,-78.37,MULTIPLE TREES DOWN NEAR CHESTNUT GROVE CHURCH (RNK)
2105,UNK,6 N DURHAM,DURHAM,NC,36.07,-78.93,TREE DOWN. TIME ESTIMATED. (RAH)
2106,58,YORK RIV E REAR RGE LT,ANZ632,VA,37.25,-76.33,(AKQ)
2107,UNK,1 S SOUTH BOSTON,HALIFAX,VA,36.69,-78.9,DEAD TREE FELL AND BROUGHT DOWN POWER LINE (RNK)
2110,UNK,3 W DILLWYN,BUCKINGHAM,VA,37.54,-78.51,TREE DOWN ON FANNY WHITE RD (RNK)
2110,UNK,PRINCE FREDERICK,CALVERT,MD,38.55,-76.59,TREES DOWN AT HARDESTY RD AND HARDESTY CT (LWX)
2115,UNK,3 NNW SILVER CITY,HOKE,NC,35.03,-79.25,ROOF BLOWN OFF OF A CONVENIENT STORE NEAR THE INTERSECTION OF NC HIGHWAY 401 AND PARR AVENUE. (RAH)
2115,UNK,5 N SURL,PERSON,NC,36.39,-78.89,TREE DOWN AT DENNYS STORE ROAD/ALLENSVILLE ROAD. TIME ESTIMATED BY RADAR. (RAH)
2118,UNK,1 NE GRANDY,BRUNSWICK,VA,36.81,-77.95,TREES DOWN ALONG OLD INDIAN RD (AKQ)
2120,UNK,2 N CHAPEL HILL,ORANGE,NC,35.95,-79.04,TREES DOWN NEAR THE INTERSECTION OF KENMORE ROAD AND SHADY LAWN ROAD. ROAD IMPASSIBLE. (RAH)
2125,UNK,KENTS STORE,FLUVANNA,VA,37.88,-78.13,NUMEROUS TREES DOWN (AKQ)
2130,UNK,3 NNW BROWNSVILLE,MARLBORO,SC,34.44,-79.62,MEDIA MEASURED 66 MPH GUST AND OBSERVED A FEW DOWNED TREES (ILM)
2130,UNK,SANFORD,LEE,NC,35.48,-79.18,ONE TREE WAS BLOWN DOWN ONTO A SHED AND TRUCK. (RAH)
2130,UNK,4 ENE MONCURE,CHATHAM,NC,35.64,-79.01,TREE DOWN ON US-1 NEAR OLD US-1 AT MILE MARKER 84 BLOCKING THE MERGING LANE AND RIGHT LANE. (RAH)
2130,UNK,3 NNE SAXE,CHARLOTTE,VA,36.97,-78.64,TREE DOWN ON SAXEKEY RD NEAR MOSSING FORD RD. (RNK)
2140,UNK,LOUISA,LOUISA,VA,38.02,-78,TREES DOWN WIDESPREAD ACROSS THE CENTRAL PORTION OF THE COUNTY (AKQ)
2142,UNK,5 NNE MINTURN,DILLON,SC,34.58,-79.43,SEVERAL TREES DOWN... SHINGLES BLOWN OFF ROOFS OF 2 HOMES AND 1 INCH HAIL NEAR THE INTERSECTION OF CAROLINA CHURCH ROAD AND PARRISH MILL ROAD. (ILM)
2146,UNK,2 NW LAHORE,ORANGE,VA,38.22,-77.99,NUMEROUS TREES DOWN (LWX)
2150,UNK,APEX,WAKE,NC,35.73,-78.84,TREE DOWN IN BACKYARD. (RAH)
2152,UNK,2 WNW OXFORD,GRANVILLE,NC,36.32,-78.63,LARGE TREE DOWN ON POWERLINES ON ENON ROAD. (RAH)
2155,UNK,7 S MAXTON,ROBESON,NC,34.64,-79.35,TRAILER TURNED OVER BETWEEN ROLAND AND MAXTON SOMEONE POSSIBLY PINNED UNDER IT (ILM)
2156,UNK,GILLS,MECKLENBURG,VA,36.67,-78.29,TREE LIMBS BLOWING ACROSS HWY 58 AND ROUTE 4. ALSO RECEIVED 0.50 INCH DIAMETER HAIL. (AKQ)
2159,UNK,1 SE COOKSTOWN,SPOTSYLVANIA,VA,38.28,-77.68,TREE DOWN ON CHANCELLORSVILLE ROAD (LWX)
2200,UNK,SHANNON HILL,GOOCHLAND,VA,37.88,-78.04,TREES DOWN ALONG SHANNON HILL ROAD (AKQ)
2200,62,8 E SMITH ISLAND,ANZ543,VA,37.97,-75.88,(LWX)
2202,UNK,LA CROSSE,MECKLENBURG,VA,36.7,-78.09,ROOF PEELED OFF OF MOBILE HOME. (AKQ)
2205,UNK,4 WNW FRANKLINTON,FRANKLIN,NC,36.12,-78.52,REPORT OF A TREE ON A HOUSE NEAR FRANKLINTON. (RAH)
2206,UNK,2 ESE FORKSVILLE,BRUNSWICK,VA,36.74,-78.01,TREES DOWN ALONG FORKSVILLE RD (AKQ)
2207,UNK,2 E LEESBURG,LOUDOUN,VA,39.1,-77.52,TREE DOWN ON RT 15 NORTH OF LEESBURG AT JCT WITH SELMA LANE (LWX)
2210,UNK,5 S BAHAMA,DURHAM,NC,36.1,-78.87,NUMEROUS TREES DOWN AT SNOW HILL ROAD AND TORRIDGE ROAD. (RAH)
2210,UNK,2 E DABNEY,VANCE,NC,36.35,-78.45,NUMEROUS TREES DOWN ON STAGE COACH ROAD AND DABNEY ROAD. TIME ESTIMATED BY RADAR. (RAH)
2210,UNK,1 NNE HEFLIN,STAFFORD,VA,38.5,-77.56,TREES DOWN ON POWER LINES AT TACKETTS MILL ROAD AND MILL LANE. (LWX)
2212,UNK,1 SW PALMER SPRINGS,MECKLENBURG,VA,36.55,-78.26,TREES DOWN ON PALMER SPRINGS RD ABOUT 1 MILE EAST OF ROUTE 4 (AKQ)
2220,UNK,4 S HOPE MILLS,CUMBERLAND,NC,34.92,-78.94,TREE DOWN ON I-95 SOUTHBOUND AT MILE MARKER 39. (RAH)
2224,UNK,2 W NORLINA,WARREN,NC,36.45,-78.24,TREE DOWN ON RIDGEWAY-DREWRY RD. (RAH)
2230,UNK,1 NNW GILLS,AMELIA,VA,37.31,-78.21,TREES DOWN ALONG SAYLERS CREEK ROAD (AKQ)
2231,UNK,WOODBRIDGE,PRINCE WILLIAM,VA,38.64,-77.26,REPORTS OF TREES DOWN. (LWX)
2232,UNK,FREDERICKSBURG,CITY OF FREDERICK,VA,38.3,-77.49,TREE DOWN AND SEVERAL WIRES DOWN. (LWX)
2235,UNK,CEDAR HILLS,GOOCHLAND,VA,37.7,-77.88,TREES DOWN ALONG FAIRGROUND ROAD. (AKQ)
2235,UNK,3 NE COMLY,MONTOUR,PA,41.15,-76.69,NUMEROUS TREES DOWN ALONG EXCHANGE ROAD. (CTP)
2240,UNK,2 E LANDISBURG,PERRY,PA,40.34,-77.27,TREES DOWN/ONE ON HOME (CTP)
2242,UNK,2 E CLARKSBURG,MONTGOMERY,MD,39.24,-77.23,WIRES DOWN AT ROUTE 27 AT DAVILS MILL ROAD (LWX)
2244,59,SUSSEX COUNTY AIRPORT,SUSSEX,DE,38.69,-75.36,(PHI)
2244,UNK,GEORGETOWN,SUSSEX,DE,38.69,-75.39,TREES AND WIRES DOWN...TIME BASED ON WIND GUST OBSERVATIONS. (PHI)
2245,UNK,3 N CHANTILLY,FAIRFAX,VA,38.91,-77.41,TREE DOWN (LWX)
2245,UNK,1 N MCLEAN,FAIRFAX,VA,38.95,-77.18,TREES DOWN ON POWERLINES. (LWX)
2246,UNK,3 NNW NEW HOPE,WAKE,NC,35.85,-78.58,LARGE TREE DOWN ON A BUILDING...AND SIDING WAS BLOWN OFF OF ANOTHER NEARBY BUILDING (RAH)
2249,70,2 N GERMANTOWN,MONTGOMERY,MD,39.2,-77.26,(LWX)
2253,UNK,5 ESE AFTON,WARREN,NC,36.31,-78.13,TREE DOWN ON PARKTOWN RD. (RAH)
2254,UNK,2 E LEESBURG,LOUDOUN,VA,39.1,-77.52,TREE DOWN ON RT 15 NORTH OF LEESBURG AT JCT WITH SELMA LANE (LWX)
2255,UNK,1 SE HOBBTON,SAMPSON,NC,35.17,-78.31,BARN DESTROYED AT 700 SUTTONTOWN RD (RAH)
2255,UNK,2 SSE PRICE MILL,BRUNSWICK,VA,36.79,-77.91,TREES DOWN ALONG OLD INDIAN RD (AKQ)
2255,UNK,2 SW EDENSHIRE,CHESTERFIELD,VA,37.33,-77.52,TREE DOWN ON EAST FAIR RD (AKQ)
2255,UNK,2 S HOLLIDAY,HANOVER,VA,37.91,-77.61,TREES DOWN ACROSS THE WEST END OF HANOVER COUNTY (AKQ)
2258,UNK,2 E ALEXANDRIA,CITY OF ALEXANDRI,VA,38.82,-77.06,PART OF A STEEL STRUCTURE UNDER CONSTRUCTION WAS BLOWN ONTO EAST MONROE AVENUE. (LWX)
2300,UNK,2 ESE RAWLINGS,BRUNSWICK,VA,36.93,-77.75,TREES DOWN NEAR BOYDTON PLANK RD AND RAWLINGS ROAD (AKQ)
2300,UNK,2 WNW PLUM POINT,CALVERT,MD,38.63,-76.53,LARGE TREES UPROOTED AND BLOWN ONTP POWER LINES AFFECTING 4-5 POWER LINE POLES AS WELL AS BLOCKING ENTIRE ROADWAY. (LWX)
2301,UNK,WASHINGTON,DISTRICT OF COLUM,DC,38.91,-77.02,DONWED TREES AND POWER LINES AT PORTAL DRIVE AND POPLAR (LWX)
2302,UNK,4 NNW LAKE WHEELER,WAKE,NC,35.76,-78.73,SEVERAL 12 INCH DIAMETER TREES DOWN AT THE 5500 BLOCK OF DILLARD. TIME ESTIMATED BY RADAR. (RAH)
2305,UNK,2 SSW LOUISBURG,FRANKLIN,NC,36.08,-78.31,MULTIPLE REPORTS OF TREES DOWN ACROSS COUNTY. ONE REPORT OF A TREE ON A HOUSE. NO INJURIES REPORTED. (RAH)
2305,UNK,NANCY WRIGHTS CORNER,CAROLINE,VA,38.09,-77.51,NUMEROUS TREES AND POWER LINES DOWN ACROSS NORTHERN CAROLINE COUNTY. NUMEROUS ROADS BLOCKED. (AKQ)
2306,UNK,2 SSW GAITHER,HOWARD,MD,39.34,-77.01,LARGE TWO FOOT DIAMETER CEDAR TREE DOWN (LWX)
2310,UNK,WELLSVILLE,YORK,PA,40.05,-76.94,NUMEROUS TREES REPORTED DOWN COUNTYWIDE. (CTP)
2315,UNK,BRIDGETON,CUMBERLAND,NJ,39.43,-75.23,TREES AND WIRES BLOWN DOWN (PHI)
2320,UNK,2 SE STAFFORD PLACE,CHESTERFIELD,VA,37.27,-77.46,TREE ACROSS WOODPECKER RD (AKQ)
2320,UNK,VINELAND,CUMBERLAND,NJ,39.46,-75,TREE INTO A PRESCHOOL ON STEWART STREET... WIRES DOWN ON MAYS LANDING AND PANTHER ROAD. (PHI)
2322,UNK,1 NW ACCOKEEK,PRINCE GEORGES,MD,38.68,-77.03,TREES DOWN. SOME INTO WIRES AND OVER DRIVEWAY. (LWX)
2324,UNK,1 NE SPRING GROVE,YORK,PA,39.89,-76.85,TREE DOWN ON A HOME ALONG ROUTE 116 IN JACKSON TWP. (CTP)
2324,UNK,1 SE PROGRESS,DAUPHIN,PA,40.28,-76.82,TREES DOWN ACROSS EXIT RAMP AT I-83 AND UNION DEPOSIT RD. (CTP)
2325,UNK,WINDSOR FARMS,CITY OF RICHMOND,VA,37.56,-77.49,TREE BLOCKING SOUTHBOUND LANES ON INTERSTATE 195 (AKQ)
2330,UNK,3 NE COMLY,MONTOUR,PA,41.15,-76.69,NUMEROUS TREES DOWN ALONG EXCHANGE ROAD. (CTP)
2335,UNK,1 N MANCHESTER,YORK,PA,40.08,-76.72,ROOF OFF A BARN IN EAST MANCHESTER TWP. (CTP)
2335,UNK,HUGHESVILLE,LYCOMING,PA,41.24,-76.73,MULTIPLE TREES DOWN (CTP)
2337,UNK,1 E AFTON,WARREN,NC,36.33,-78.2,TREE DOWN BETWEEN LIMERTOWN RD AND PARKTOWN RD. (RAH)
2339,UNK,2 W DAHLGREN,KING GEORGE,VA,38.33,-77.09,TREES DOWN NEAR JAMES MADISON PKWY AND HILLCREST DR (LWX)
2339,65,1 SW RUXTON,BALTIMORE,MD,39.39,-76.66,(LWX)
2340,UNK,1 ENE MANCHESTER MILL,PRINCE GEORGE,VA,37.26,-77.25,TREES DOWN ACROSS NORTHERN PRINCE GEORGE COUNTY INCLUDING JORDAN POINT RD...MIDDLE RD AND JAMES RIVER RD. (AKQ)
2342,UNK,2 W BALTIMORE INNER HAR,BALTIMORE CITY,MD,39.29,-76.64,LARGE TREE DOWN ON CALHOUN ST IN WEST BALTIMORE (LWX)
2343,60,MARIETTA,LANCASTER,PA,40.06,-76.55,(CTP)
2345,UNK,MOUNT JOY,LANCASTER,PA,40.11,-76.51,ROOFS DAMAGED ON SEVERAL STRUCTURES IN THE MOUNT JOY...ELIZABETHTOWN AND RHEEMS AREA. (CTP)
2348,UNK,BRIDGETON,CUMBERLAND,NJ,39.43,-75.23,TREES AND WIRES BLOWN DOWN (PHI)
2350,UNK,MOUNT LAUREL,BURLINGTON,NJ,39.93,-74.89,A FEW TREES AND WIRES DOWN THROUGHOUT COUNTY WITH POWER OUTAGES (PHI)
2353,UNK,2 SSW ROWANTA,DINWIDDIE,VA,37.01,-77.46,TREES DOWN ACROSS SOUTHEASTERN DINWIDDE COUNTY (AKQ)
2355,UNK,1 W NEW KENT,NEW KENT,VA,37.52,-77,TREES DOWN. (AKQ)
2355,UNK,3 SSW MINOR,KING AND QUEEN,VA,37.8,-77,TREE ON A MOBILE HOME ON HOLMESTOWN ROAD (AKQ)
0000,UNK,1 NNE SPEED,EDGECOMBE,NC,35.98,-77.44,TREE DOWN ACROSS HIGHWAY 122 JUST NORTHEAST OF SPEED. TIME ESTIMATED. (RAH)
0003,UNK,1 WSW ABELL,ST. MARYS,MD,38.25,-76.75,TREE DOWN ON THATCHET THICKET RD NEAR OLEN MATTINGLY RD (LWX)
0005,UNK,MYERSTOWN,LEBANON,PA,40.37,-76.31,TELEPHONE POLES DOWN ALONG HOUTZTOWN ROAD (CTP)
0010,UNK,SUFFOLK,CITY OF SUFFOLK,VA,36.73,-76.58,NUMEROUS TREES DOWN ACROSS SUFFOLK (AKQ)
0010,UNK,2 SSW GOLDEN BEACH,ST. MARYS,MD,38.46,-76.71,TREES DOWN NEAR INTERSECTION OF NEW MARKET TURNER ROAD AND FLORA CORNER ROAD. (LWX)
0015,UNK,1 S SCOTLAND NECK,HALIFAX,NC,36.12,-77.42,DOWNED TREES AND POWER LINES THROUGHOUT COUNTY. (RAH)
0015,UNK,WYALUSING,BRADFORD,PA,41.67,-76.26,ROOF OFF GARAGE... TREES DOWN. (BGM)
0016,UNK,3 W CALIFORNIA,ST. MARYS,MD,38.3,-76.55,TREE DOWN BLOCKING WILDEWOOD PARKWAY AT WILDEWOOD DRIVE. (LWX)
0018,UNK,LANCASTER,LANCASTER,PA,40.04,-76.3,NUMEROUS TREES REPORTED DOWN COUNTYWIDE. (CTP)
0030,UNK,1 ESE TIMBERLY HEIGHTS,PRINCE GEORGE,VA,37.21,-77.33,TREES DOWN ALONG BAXTER ROAD (AKQ)
0032,UNK,WHITE HORSE,LANCASTER,PA,40.03,-75.99,SEVERAL BUILDINGS SUFFERED WIND DAMAGE (CTP)
0039,UNK,2 SE HOLLYWOOD,ST. MARYS,MD,38.33,-76.55,TREES DOWN AT 235 MERVELL DEAN RD (LWX)
0040,60,5 E DARES BEACH,ANZ533,MD,38.56,-76.41,(LWX)
0042,63,2 S ELVERSON,CHESTER,PA,40.13,-75.83,(PHI)
0054,61,FRANKLIN,CITY OF FRANKLIN,VA,36.68,-76.94,(AKQ)
0110,UNK,SUFFOLK,CITY OF SUFFOLK,VA,36.73,-76.58,NUMEROUS TREES DOWN ACROSS SUFFOLK (AKQ)
0110,UNK,4 SW WEST POINT,NEW KENT,VA,37.51,-76.85,TREES DOWN. (AKQ)
0110,61,MOOSIC,LACKAWANNA,PA,41.36,-75.7,WNEP TV ROOF TOP MEASUREMENT (BGM)
0122,UNK,GREAT MILLS,ST. MARYS,MD,38.24,-76.5,TREES DOWN (LWX)
0123,UNK,1 NE CRADOCK,CITY OF PORTSMOUT,VA,36.8,-76.31,MINOR STRUCTURAL DAMAGE. SHINGLES BLOWN FROM ROOF. (AKQ)
0127,UNK,3 NNW CHAPTICO,ST. MARYS,MD,38.4,-76.8,A FEW TREES DOWN IN LEXINGTON PARK AND LEONARDTOWN (LWX)
0130,UNK,1 NNW ROBANNA SHORES,YORK,VA,37.19,-76.44,TREE DOWN IN RESIDENTIAL BACKYARD (AKQ)
0136,74,WILLOUGHBY DEGAUS,ANZ632,VA,36.98,-76.32,(AKQ)
0137,UNK,NORFOLK INTL AIRPORT,CITY OF NORFOLK,VA,36.9,-76.2,POWER OUT AT NORFOLK INTERNATIONAL AIRPORT (AKQ)
0138,UNK,1 NW FRANKLIN,CITY OF FRANKLIN,VA,36.69,-76.95,POWER OUT IN FRANKLIN BETWEEN FRANKLIN HIGH SCHOOL AND BUSINESS HWY 58 (AKQ)
0144,UNK,REMLIK,MIDDLESEX,VA,37.67,-76.62,ROOF AND STRUCTURAL DAMAGE (AKQ)
0152,UNK,FRANKLIN TWP,CHESTER,PA,39.77,-75.83,DOWNED PINE TREE PULLED DOWN ELECTRIC POLS ALONG STRICKERSVILLE ROAD. A TREE FALLING ONTO A CAR CAUSING MINOR DAMAGE WAS ALSO REPORTED. (PHI)
0200,UNK,ROME,ONEIDA,NY,43.23,-75.49,4 TREES DOWN ON LIBERTY STREET (BGM)
0230,UNK,FELTON,KENT,DE,39.01,-75.58,TREES DOWN ON WIRES. TIME ESTIMATED FROM RADAR (PHI)
0232,UNK,WYNNEFIELD,PHILADELPHIA,PA,39.99,-75.24,LARGE TREE ONTO A HOUSE ON NORTH WANAMAKER STREET NEAR WOODCREST AVENUE. (PHI)
0245,UNK,CHELTENHAM,MONTGOMERY,PA,40.06,-75.09,LARGE TREE TOPPLED INTO THE ROOF OF A HOME ALONG THE 8200 BLOCK OF NEW 2ND STREET. (PHI)
0250,UNK,PENNSAUKEN,CAMDEN,NJ,39.96,-75.06,TREES AND WIRES DOWN...TIME ESTIMATED FROM RADAR (PHI)
0310,60,EAST AMWELL TWP,HUNTERDON,NJ,40.45,-74.81,ALONG WITH PEA SIZED HAIL (PHI)
0344,UNK,MILLTOWN,MIDDLESEX,NJ,40.45,-74.43,POLE AND NUMEROUS TREES DOWN. (PHI)
0345,58,FRISCO,DARE,NC,35.23,-75.61,WXFLOW SITE IN FRISCO WOODS REPORTED A 50 KNOT WIND GUST. (MHX)
0353,UNK,BURLINGTON,HARTFORD,CT,41.77,-72.97,TREE AND WIRES DOWN ON THE GEORGE WASHINGTON TURNPIKE. (BOX)
0355,67,LARCHMONT,WESTCHESTER,NY,40.93,-73.75,(OKX)
0356,58,2 N AVON,MAINLAND DARE,NC,35.37,-75.5,WXFLOW SITE NEAR SOUNDSIDE OF AVON REPORTED A 50 KNOT GUST. (MHX)
0415,UNK,PRINCETON,MERCER,NJ,40.35,-74.66,WIRES AND TREES DOWN...TIME ESTIMATED FROM RADAR (PHI)
0429,UNK,ASBURY PARK,MONMOUTH,NJ,40.22,-74.01,WIND DAMAGE TO MULTIPLE TRANSFORMERS IN ASBURY PARK (PHI)
0429,UNK,NEWBURGH,ORANGE,NY,41.5,-74.02,TREES DOWN ON CARS AT THE INTERSECTION OF 9W AND CHESTNUT LANE. (OKX)
0430,67,1 WSW SHIP BOTTOM,ANZ451,NJ,39.64,-74.21,(PHI)
0430,59,SANDY HOOK,MONMOUTH,NJ,40.44,-73.99,(PHI)
0435,UNK,RUTLAND,WORCESTER,MA,42.36,-71.95,TREES DOWN ON GLENWOOD AND WACHUSETT STREET. (BOX)
0448,UNK,ATHOL,WORCESTER,MA,42.59,-72.23,TREE DOWN ON CAR AT THE INTERSECTION OF PARTRIDGEVILLE AND COOLIDGE ROADS. (BOX)
0456,UNK,2 E WINCHESTER CENTER,LITCHFIELD,CT,41.9,-73.1,TREE AND WIRES DOWN BLOCKING ROAD ON FOREST AVE (ALY)
0459,UNK,SPRINGFIELD,HAMPDEN,MA,42.12,-72.54,TREE LIMB DOWN ON WIRES ON ORLANDO STREET. (BOX)
0500,UNK,MASSAPEQUA,NASSAU,NY,40.67,-73.47,LARGE TREE ON HOUSE ON CHICAGO AVENUE AND FOREST AVENUE (OKX)
0500,64,EATONS NECK,SUFFOLK,NY,40.95,-73.39,(OKX)
0503,58,SPRINGFIELD,HAMPDEN,MA,42.12,-72.54,AT SPRINGFIELD CENTRAL HS. (BOX)
0510,UNK,GLOCESTER,PROVIDENCE,RI,41.92,-71.67,TREE DOWN PARTIALLY BLOCKING ROUTE 44. (BOX)
0514,UNK,WEST GREENWICH,KENT,RI,41.63,-71.65,TREE DOWN BLOCKING A ROAD. (BOX)
0515,UNK,OLD GREENWICH,FAIRFIELD,CT,41.02,-73.56,TREE ON HOUSE WITH DAMAGE ON LOCKWOOD RD. NO POWER IN NEIGHBORHOOD. (OKX)
0517,UNK,AGAWAM,HAMPDEN,MA,42.07,-72.62,TREE DOWN BLOCKING THE ROAD. (BOX)
0525,61,1 ESE NORWALK,FAIRFIELD,CT,41.08,-73.4,(OKX)
0528,UNK,MEADOWVALE,BERKSHIRE,MA,42.7,-73.18,TREES AMD WIRES DOWN. (ALY)
0530,UNK,OLD GREENWICH,FAIRFIELD,CT,41.02,-73.56,TREE ON HOUSE WITH DAMAGE ON LOCKWOOD RD. NO POWER IN NEIGHBORHOOD. (OKX)
0530,UNK,SOMERS,TOLLAND,CT,41.98,-72.45,MULTIPLE TREES AND WIRES DOWN ON TURNPIKE ROAD AT DEERFIELD ROAD. (BOX)
0537,UNK,MONSON,HAMPDEN,MA,42.1,-72.31,MULTIPLE LARGE LIMBS DOWN ON MULTIPLE STREETS. (BOX)
0538,UNK,BELCHERTOWN,HAMPSHIRE,MA,42.27,-72.4,MULTIPLE LARGE LIMBS DOWN ON MULTIPLE STREETS. (BOX)
0543,UNK,WEST SPRINGFIELD,HAMPDEN,MA,42.12,-72.65,TREE DOWN ON ADRIAN AVENUE. (BOX)
0545,UNK,NEW BRITAIN,HARTFORD,CT,41.68,-72.79,TREE LIMBS DOWN ON SEVERAL STREETS. (BOX)
0559,UNK,LUDLOW,HAMPDEN,MA,42.17,-72.48,SEVERAL TREES DOWN...TREE LIMB DOWN ON A HOUSE ON HOLYOKE STREET. (BOX)
0601,UNK,BEVERLY,ESSEX,MA,42.56,-70.84,TREE DOWN ON ROUTE 128 NEAR EXIT 17...TREE IS IN THE BREAKDOWN LANE. (BOX)
0603,68,3 SE HARTFORD,HARTFORD,CT,41.73,-72.64,(BOX)
0604,UNK,WESTFIELD,HAMPDEN,MA,42.14,-72.76,LARGE LIMB DOWN ON EAST MOUNTAIN ROAD. (BOX)
0611,67,STONY BROOK,SUFFOLK,NY,40.91,-73.13,SEVERAL BRANCHES DOWN THROUGHOUT THE NEIGHBORHOOD OF WEST MEADOW BEACH (OKX)
0613,UNK,HARTFORD,HARTFORD,CT,41.77,-72.68,POWER LINES DOWN ON NEWBURY STREET. LARGE LIMB DOWN ON WIRES ON GRANDVIEW TERRACE. (BOX)
0614,UNK,HAMPDEN,HAMPDEN,MA,42.07,-72.42,LARGE LIMB DOWN ON MILL STREET. (BOX)
0623,75,SOUTH GLASTONBURY,HARTFORD,CT,41.67,-72.6,(BOX)
0625,UNK,MIDDLETOWN,MIDDLESEX,CT,41.55,-72.65,MULTIPLE REPORTS OF TREE LIMBS AND POWER LINES DOWN ACROSS THE TOWN OF MIDDLETOWN (OKX)
0625,UNK,ANDOVER,TOLLAND,CT,41.73,-72.37,TREE AND WIRES DOWN. (BOX)
0630,UNK,ENFIELD,HARTFORD,CT,41.97,-72.57,MULTIPLE LARGE BRANCHES...SMALL TREES...AND WIRES DOWN IN THE EASTERN PART OF TOWN. (BOX)
0634,UNK,RIVERHEAD,SUFFOLK,NY,40.91,-72.63,WIRES DOWN ON SOUND AVENUE AND WARNER DRIVE (OKX)
0635,58,BRIDGEPORT AIRPORT,FAIRFIELD,CT,41.16,-73.13,(OKX)
0635,UNK,ASHFORD,WINDHAM,CT,41.87,-72.12,TREES AND WIRES DOWN. (BOX)
0635,UNK,STAFFORD,TOLLAND,CT,41.98,-72.28,TREES AND WIRES DOWN. (BOX)
0635,UNK,BILLERICA,MIDDLESEX,MA,42.55,-71.27,TREE DOWN ON CASTLEWOOD DRIVE. (BOX)
0640,58,SHIRLEY AIRPORT,SUFFOLK,NY,40.82,-72.86,(OKX)
0640,UNK,DURHAM,MIDDLESEX,CT,41.47,-72.68,MULTIPLE REPORTS OF TREES AND POWER LINES DOWN ACROSS MIDDLESEX COUNTY. POWER OUTAGES REPORTED. (OKX)
0640,UNK,DOVER,NORFOLK,MA,42.25,-71.28,SEVERAL TREES AND WIRES DOWN THROUGHOUT TOWN. (BOX)
0640,UNK,WORCESTER,WORCESTER,MA,42.27,-71.81,MULTIPLE TREES AND WIRES DOWN. (BOX)
0642,UNK,GLASTONBURY,HARTFORD,CT,41.7,-72.6,TREE AND WIRES DOWN ON GRIST MILL ROAD AT ROUTE 83. (BOX)
0642,66,DRACUT,MIDDLESEX,MA,42.67,-71.3,(BOX)
0646,59,HAMPTON,WINDHAM,CT,41.78,-72.05,(BOX)
0648,UNK,MONSON,HAMPDEN,MA,42.1,-72.31,TREE DOWN ON STAFFORD ROAD. (BOX)
0650,UNK,WEST BROOKFIELD,WORCESTER,MA,42.24,-72.15,TREE DOWN NEAR THE STATE POLICE ACADEMY. (BOX)
0655,UNK,NEW HAVEN,NEW HAVEN,CT,41.31,-72.92,MULTIPLE REPORTS OF TREES AND POWER LINES DOWN. POWER OUTAGES REPORTED. (OKX)
0705,69,3 SE HAMPTON BAYS,ANZ345,NY,40.85,-72.48,(OKX)
0708,UNK,MONSON,HAMPDEN,MA,42.1,-72.31,TREE DOWN ON BETHANY ROAD. (BOX)
0710,UNK,SALEM,NEW LONDON,CT,41.48,-72.27,MULTIPLE REPORTS OF TREES AND POWER LINES DOWN ACROSS NEW LONDON COUNTY. POWER OUTAGES REPORTED. (OKX)
0715,UNK,WOODSTOCK,WINDHAM,CT,41.95,-71.98,MULTIPLE TREES DOWN ON ROUTE 171. HALF OF TOWN WITHOUT POWER. (BOX)
0722,UNK,BARRE,WORCESTER,MA,42.42,-72.11,TREES DOWN ON SOUTH BARRE ROAD. (BOX)
0730,UNK,SOUTHAMPTON,SUFFOLK,NY,40.88,-72.4,MULTIPLE REPORTS OF TREES AND POWER LINES DOWN ACROSS TOWN OF SOUTHAMPTON (OKX)
0731,UNK,WALPOLE,NORFOLK,MA,42.14,-71.24,LARGE TREE AND WIRES DOWN ON HOUSE. (BOX)
0733,UNK,WARWICK,KENT,RI,41.7,-71.42,TREE LIMBS AND BRANCHES DOWN ON NARRAGANSETT PARKWAY. (BOX)
0735,UNK,1 E HUDSON,HILLSBOROUGH,NH,42.76,-71.41,SEVERAL TREES AND WIRES DOWN THROUGHOUT TOWN. DELAYED REPORT. TIME ESTIMATED FROM RADAR. (GYX)
0736,UNK,PLAINVILLE,BRISTOL,MA,41.68,-70.96,SEVERAL TREES AND WIRES DOWN...BLOCKING ROADS. (BOX)
0736,UNK,CHELMSFORD,MIDDLESEX,MA,42.6,-71.37,2 LARGE TREES DOWN ON WARREN AVENUE. (BOX)
0737,UNK,NORTH ATTLEBORO,BRISTOL,MA,41.98,-71.33,MULTIPLE WIRES DOWN. (BOX)
0739,UNK,SHERBORN,MIDDLESEX,MA,42.23,-71.37,TREES AND WIRES DOWN. (BOX)
0743,69,BOSTON,SUFFOLK,MA,42.32,-71.07,(BOX)
0744,UNK,EASTON,BRISTOL,MA,42.03,-71.1,MULTIPLE TREES DOWN BLOCKING BAY ROAD. (BOX)
0744,83,3 SSW MILTON,NORFOLK,MA,42.21,-71.11,(BOX)
0752,UNK,SMITHFIELD,PROVIDENCE,RI,41.88,-71.55,LARGE TREE AND WIRES DOWN BLOCKING WIPPLE STREET NEAR THE DOUGLAS PIKE. (BOX)
0753,UNK,SHARON,NORFOLK,MA,42.12,-71.18,LARGE BRANCH AND WIRES DOWN. (BOX)
0759,UNK,TIVERTON,NEWPORT,RI,41.65,-71.2,TREES AND WIRES DOWN BLOCKING ROAD. (BOX)
0800,UNK,CHESTER,HAMPDEN,MA,42.28,-72.98,PORTIONS OF ABBOTT HILL ROAD WASHED AWAY (BOX)
0800,63,BOSTON,SUFFOLK,MA,42.32,-71.07,(BOX)
0801,UNK,EASTON,BRISTOL,MA,42.03,-71.1,TREE DOWN AT THE INTERSECTION OF CRANBERRY AND DEAN STREETS. (BOX)
0802,UNK,SHERBORN,MIDDLESEX,MA,42.23,-71.37,LARGE TREE DOWN. (BOX)
0811,UNK,CONCORD,MIDDLESEX,MA,42.45,-71.35,TREES...WIRES...AND POLES DOWN. ROADS CLOSED IN MULTIPLE LOCATIONS INCLUDING ELM STREET...CRESCENT STREET...MACARTHUR ROAD...AND ORNAC ROAD NEAR ROUTE 2. (BOX)
0815,UNK,SCITUATE,PROVIDENCE,RI,41.8,-71.62,TREE DOWN AND UTILITY POLE SNAPPED IN HALF. (BOX)
0818,UNK,SHERBORN,MIDDLESEX,MA,42.23,-71.37,THREE TREES DOWN ON HUNTING LANE AND NORTH MAIN STREET. (BOX)
0820,65,SOUTH KINGSTOWN,WASHINGTON,RI,41.43,-71.55,(BOX)
0820,UNK,BRAINTREE,NORFOLK,MA,42.2,-71,TREE DOWN ON POWER LINES ON RUSSELL ROAD. (BOX)
0820,UNK,5 SSW OTISFIELD,OXFORD,ME,44.08,-70.59,TREE DOWN ON BOLSTERS MILLS ROAD. TIME ESTIMATED FROM RADAR. (GYX)
0821,UNK,DUXBURY,PLYMOUTH,MA,42.04,-70.67,LARGE TREE DOWN BLOCKING BOTH TRAVEL LANES OF ROUTE 3 NORTH NEAR MILE MARKER 23.6. (BOX)
0824,UNK,FOXBORO,NORFOLK,MA,42.06,-71.25,WIRES DOWN ON CHESTNUT STREET BLOCKING THE FRONT DOOR OF A HOUSE. (BOX)
0827,UNK,CONCORD,MIDDLESEX,MA,42.45,-71.35,POLE AND WIRES DOWN BLOCKING MUSKETEQUID ROAD. (BOX)
0830,UNK,MELROSE,MIDDLESEX,MA,42.45,-71.06,NUMEROUS TREE LIMBS DOWN. (BOX)
0830,UNK,NAPLES,CUMBERLAND,ME,43.97,-70.61,LARGE LIMBS DOWNED ON PONTOON BOAT (GYX)
0833,UNK,SCITUATE,PROVIDENCE,RI,41.8,-71.62,LARGE PINE TREE DOWN BLOCKING ONE LANE OF ROAD. (BOX)
0845,UNK,MARSHFIELD,PLYMOUTH,MA,42.09,-70.71,TREE DOWN ON HOUSE. (BOX)
0846,UNK,MERRIMAC,ESSEX,MA,42.83,-71,MULTIPLE TREES DOWN ON HARRIMEN ROAD AND HADLEY ROAD. (BOX)
0852,UNK,ASHBURNHAM,WORCESTER,MA,42.63,-71.9,TREE AND WIRES DOWN ON CASHMAN HILL ROAD. (BOX)
0853,76,BRISTOL,BRISTOL,RI,41.68,-71.27,(BOX)
0853,UNK,BRISTOL,BRISTOL,RI,41.68,-71.27,SEVERAL LARGE TREES DOWN AROUND ROGER WILLIAMS UNIVERSITY AND OTHER PARTS OF TOWN (BOX)
0855,UNK,LYNN,ESSEX,MA,42.47,-70.96,LARGE BRANCH DOWN ON WIRES ON POND STREET. (BOX)
0905,UNK,NORTON,BRISTOL,MA,41.97,-71.18,LARGE BRANCH DOWN ON OAK STREET. (BOX)
0909,UNK,BILLERICA,MIDDLESEX,MA,42.55,-71.27,TREE DOWN ON B STREET. (BOX)
0911,UNK,GLOCESTER,PROVIDENCE,RI,41.92,-71.67,TREE DOWN BLOCKING THE ROAD. (BOX)
0915,UNK,SOUTH BOSTON,SUFFOLK,MA,42.33,-71.05,WIRES DOWN ON WEST FIFTH STREET. (BOX)
0915,UNK,ORONO,PENOBSCOT,ME,44.88,-68.67,TREES AND POWER LINES DOWN. UNIVERSITY OF MAINE WITHOUT POWER. TIME IS ESTIMATED. (CAR)
0918,UNK,MIDDLEBORO,PLYMOUTH,MA,41.89,-70.91,WIRES DOWN. (BOX)
0919,UNK,CANTON,NORFOLK,MA,42.15,-71.13,WIRES DOWN. (BOX)
0925,UNK,LINCOLN,PENOBSCOT,ME,45.36,-68.51,LARGE TREE DOWN IN TOWN. TIME IS ESTIMATED. (CAR)
0933,UNK,HANSON,PLYMOUTH,MA,42.06,-70.85,TREES AND WIRES DOWN. (BOX)
0933,UNK,HUBBARDSTON,WORCESTER,MA,42.48,-72.02,TREE DOWN ON NEW TEMPLETON ROAD. (BOX)
0942,UNK,JAMAICA PLAIN,SUFFOLK,MA,42.3,-71.12,TREE DOWN. (BOX)
1000,UNK,MILO,PISCATAQUIS,ME,45.25,-68.99,TREE DOWN ON SUMMER STREET... WITH NUMEROUS LIMBS DOWN THROUGH TOWN. THUNDERSTORM WINDS COMBINED WITH ICE ACCUMULATION ON TREES. (CAR)
1002,UNK,PLAINVILLE,BRISTOL,MA,41.68,-70.96,TWO TREES DOWN. (BOX)
1012,UNK,DORCHESTER,SUFFOLK,MA,42.28,-71.08,TREE DOWN ON HOUSE. (BOX)
1016,UNK,NATICK,MIDDLESEX,MA,42.28,-71.35,ROUTE 9 CLOSED IN BOTH DIRECTIONS AT THE NATICK MALL DUE TO DOWNED POWER LINES. (BOX)
Time,Size,Location,County,State,Lat,Lon,Comments
1718,100,2 WSW ELKIN,WILKES,NC,36.25,-80.88,TRAINED SPOTTER REPORTS QUARTER INCH HAIL AND MULTIPLE TREE LIMBS DOWN. (RNK)
1748,175,ARARAT,SURRY,NC,36.4,-80.57,(RNK)
1748,175,NNE ARARAT,PATRICK,VA,36.6,-80.51,(RNK)
1853,125,GREENVILLE,PITT,NC,35.6,-77.37,PUBLIC REPORTED HALF DOLLAR SIZED HAIL IN GREENVILLE. TIME BASED ON RADAR. (MHX)
1945,100,3 WNW CHATHAM,PITTSYLVANIA,VA,36.84,-79.44,(RNK)
2025,150,1 S LEDA,HALIFAX,VA,36.88,-79.08,ALSO MENTIONED SEVERAL 3-4 IN BRANCHES DOWN AROUND PROPERTY. (RNK)
2055,125,2 SSW HILLSBOROUGH,ORANGE,NC,36.05,-79.11,HAIL LARGER THAN QUARTERS NEAR THE INTERSECTION OF INTERSTATE 85 AND NC HIGHWAY 86. (RAH)
2112,100,2 SSE DILLWYN,BUCKINGHAM,VA,37.51,-78.45,E JAMES ANDERSON HWY (RNK)
2130,250,OXFORD,GRANVILLE,NC,36.31,-78.59,TENNIS BALL SIZE HAIL IN OXFORD. (RAH)
2145,300,3 SE TUNGSTEN,VANCE,NC,36.49,-78.42,HAIL NEARLY SOFTBALL SIZE. TIME ESTIMATED (RAH)
2150,175,CREEDMOOR,GRANVILLE,NC,36.12,-78.69,GOLF BALL SIZE HAIL. (RAH)
2151,300,CASTLE HEIGHTS,MECKLENBURG,VA,36.61,-78.31,(AKQ)
2156,150,2 SW PEMBROKE,ROBESON,NC,34.66,-79.22,PING PONG SIZED HAIL REPORTED. (ILM)
2203,300,3 NW SOUTH HILL,MECKLENBURG,VA,36.76,-78.17,3 INCH HAIL NW OF SOUTH HILL.4 (AKQ)
2210,175,ST. PAULS,ROBESON,NC,34.81,-78.97,REPORT OF GOLF BALL SIZED HAIL. TIME ESTIMATED BY RADAR. (ILM)
2212,100,2 WNW HENDERSON,VANCE,NC,36.34,-78.45,QUARTER SIZE HAIL AT ENON ROAD AND HIGHWAY 158. (RAH)
2215,175,3 E WHITTLES MILL,LUNENBURG,VA,36.79,-78.12,GOLF BALL SIZE HAIL FOR DURATION OF 2 MINUTES. (AKQ)
2225,100,JETERSVILLE,AMELIA,VA,37.29,-78.1,(AKQ)
2229,175,4 NNE WISE,WARREN,NC,36.54,-78.16,HAIL NEAR PASCHALL IN EXTREME NORTHERN WARREN COUNTY. (RAH)
2230,150,5 SSE HOPE MILLS,CUMBERLAND,NC,34.91,-78.94,PUBLIC REPORTS PEA TO PING PONG BALL SIZE HAIL FALLING ON ROSLIN FARM ROAD. (RAH)
2240,100,CEDAR CREEK,CUMBERLAND,NC,34.95,-78.75,(RAH)
2241,100,3 WSW MERCHANT,BRUNSWICK,VA,36.67,-78,QUARTER SIZE HAIL AND VERY GUSTY WINDS (AKQ)
2250,150,3 NNW RALEIGH,WAKE,NC,35.85,-78.66,PING PONG SIZED HAIL AT NORTH HIILLS MALL. (RAH)
2318,100,MECHANICSVILLE,HANOVER,VA,37.63,-77.36,ROUTE 360 AND LEE DAVIS ROAD. (AKQ)
2340,100,NIMITZ TRAILER PARK,PRINCE GEORGE,VA,37.25,-77.32,(AKQ)
2342,125,1 SE CITY POINT HOPEWEL,CITY OF HOPEWELL,VA,37.31,-77.27,(AKQ)
0010,100,1 SSW NEWSTEAD FARM,PRINCE GEORGE,VA,37.24,-77.28,QUARTER SIZE HAIL (AKQ)
0035,125,1 NE HIGHLAND PARK,CITY OF HOPEWELL,VA,37.3,-77.29,HALF DOLLAR SIZE HAIL AND WIND GUSTS UP TO 50 MPH (AKQ)
0115,100,NANSEMOND SQUARE,CITY OF SUFFOLK,VA,36.71,-76.59,QUARTER SIZE HAIL (AKQ)
