Time,F_Scale,Location,County,State,Lat,Lon,Comments
Time,Speed,Location,County,State,Lat,Lon,Comments
2305,UNK,3 SW ALLAGASH,AROOSTOOK,ME,47.05,-69.09,REPORT OF MULTIPLE TREES DOWN SOUTH OF ALLAGASH GATE VIA NORTH MAINE WOODS EMPLOYEE ON FACEBOOK. (CAR)
2344,UNK,4 SE WINTERVILLE,AROOSTOOK,ME,46.92,-68.52,MULTIPLE TREES DOWN ALONG ROUTE 11 NEAR SOUCY HILL (CAR)
2350,UNK,2 S GRAND LAKE MATAGAMO,PENOBSCOT,ME,46.13,-68.79,SEVERAL TREES DOWN NEAR EAST BRANCH OF THE PENOBSCOT AND MATAGAMON WILDERNESS CAMPGROUND. (CAR)
0000,UNK,2 SSW MASARDIS,AROOSTOOK,ME,46.47,-68.39,ONE OR TWO TREES REPORTED DOWN ON ROUTE 11 BETWEEN MASARDIS AND OXBOW. (CAR)
0006,UNK,NEW SWEDEN,AROOSTOOK,ME,46.94,-68.12,THREE TREES DOWN. TIME ESTIMATED BY RADAR. REPORT VIA FACEBOOK. (CAR)
0035,UNK,1 E BRIDGEWATER,AROOSTOOK,ME,46.43,-67.83,TREE DOWN ON POWER LINES. (CAR)
Time,Size,Location,County,State,Lat,Lon,Comments
