Time,F_Scale,Location,County,State,Lat,Lon,Comments
Time,Speed,Location,County,State,Lat,Lon,Comments
1232,UNK,2 SSE FALLS CITY,KARNES,TX,28.95,-98.01,THUNDERSTORM WINDS BLEW OVER A GRAIN BIN AND SOME YARD FIXTURES. TIME ESTIMATED WITH RADAR. (EWX)
1815,UNK,4 SSW CROXTON CROSSROAD,SUMTER,GA,31.91,-84.35,CARPORT LOCATED AT A RESIDENCE OFF BOO COSBY ROAD WAS DAMAGED WHEN RADAR-ESTIMATED 30KT WINDS MOVED OVER THE AREA. (FFC)
0205,UNK,1 WSW LYNCHBURG,CLINTON,OH,39.24,-83.81,SOCIAL MEDIA REPORT OF 25-30 FT FLAG POLE BENT OVER... GARDEN WINDMILL KNOCKED DOWN... AND VAN WINDOW BROKEN FROM FLYING DEBRIS. TIME ESTIMATED FROM RADAR. (ILN)
Time,Size,Location,County,State,Lat,Lon,Comments
1210,100,FALLS CITY,KARNES,TX,28.98,-98.02,(EWX)
1220,150,7 W FALLS CITY,WILSON,TX,28.97,-98.14,LOCAL PUBLIC REPORTED PING PONG SIZED HAIL. (EWX)
1245,100,3 ENE CESTOHOWA,KARNES,TX,29.02,-97.88,PUBLIC REPORTED 1 INCH HAIL OBSERVED. (EWX)
