Time,F_Scale,Location,County,State,Lat,Lon,Comments
Time,Speed,Location,County,State,Lat,Lon,Comments
1829,UNK,5 W BRYCEVILLE,Nassau,FL,30.38,-82.02,911 CALL CENTER REPORTED A ROADWAY BLOCKED BY A DOWNED TREE AT 7578 COUNTY ROAD 121. TIME ESTIMATED BY RADAR. (JAX)
1900,UNK,1 ENE WAYNESVILLE,HAYWOOD,NC,35.49,-82.99,911 CALL CENTER REPORTED A FEW TREES DOWN IN WAYNESVILLE. (GSP)
1902,UNK,5 S CALLAHAN,Nassau,FL,30.48,-81.85,911 CALL CENTER REPORTED A TREE FELL ON A POWER LINE AND CAUSED A SMALL FIRE AT 43000 THOMAS CREEK ROAD. TIME ESTIMATED BY RADAR. (JAX)
1907,UNK,5 SE SWISS,YANCEY,NC,35.87,-82.38,911 CALL CENTER REPORTED TREES DOWN TO THE SOUTH OF BURNSVILLE. TIME ESTIMATED FROM RADAR. (GSP)
2000,UNK,ELIZABETHTON,CARTER,TN,36.34,-82.23,TREE FELL ON A HOUSE ON BEAR HOLLOW RD (MRX)
2025,UNK,3 W WOODRIDGE,ALBEMARLE,VA,37.9,-78.49,TREE DOWN NEAR THE INTERSECTION OF BLENHEIM ROAD AND SECRETARYS ROAD. (LWX)
2040,UNK,1 E MONTEVIDEO,ROCKINGHAM,VA,38.37,-78.75,TREE DOWN AT THE INTERSECTION OF POWER DAM ROAD AND MCGAHEYSVILLE ROAD. (LWX)
2048,UNK,2 SW NEW CASTLE,CRAIG,VA,37.48,-80.14,TOPS BROKEN OUT OF PINE TREES... AND SEVERAL OAKS WERE UPROOTED AT RESIDENCE ALONG ROUTE 624. TIME ESTIMATED BY RADAR. (RNK)
2110,UNK,4 NNW CRIMORA,AUGUSTA,VA,38.21,-78.87,MULTIPLE TREES DOWN ALONG PATTERSON MILL ROAD. (LWX)
2115,UNK,1 E MONTEVIDEO,ROCKINGHAM,VA,38.37,-78.75,TREE DOWN AT THE INTERSECTION OF POWER DAM ROAD AND MCGAHEYSVILLE ROAD. (LWX)
2124,UNK,2 WSW BLACKSBURG,MONTGOMERY,VA,37.22,-80.45,LARGE BRANCH DOWNED ABOUT THE SIZE OF A WRIST ON HETHER DRIVE IN BLACKSBURG. TIME RADAR ESTIMATED. (RNK)
2138,UNK,3 S FALCONERVILLE,AMHERST,VA,37.49,-79.1,TREE DOWN. (RNK)
2142,UNK,1 WSW FAIRVIEW,UNION,NC,35.13,-80.56,EMERGENCY MNGR REPORTED MULTIPLE TREES DOWN AND MINOR DAMAGE TO A TRAILER ON BRENT HAIGLER RD. TIME ESTIMATED FROM RADAR. (GSP)
2142,UNK,5 ENE MOUNT JULIET,WILSON,TN,36.23,-86.44,TREES DOWN INCLUDING ONE ON POWER LINES NEAR HIGHWAY 70 AND HIGHWAY 109. (OHX)
2145,UNK,4 SSW CHRISTIANSBURG,MONTGOMERY,VA,37.09,-80.42,LARGE TREE LIMB DOWN (RNK)
2154,UNK,2 N HAYS,WILKES,NC,36.27,-81.11,TREE DOWN ON TRAPHILL RD. TIME RADAR ESTIMATED. (RNK)
2158,UNK,1 E HULBERT,CHEROKEE,OK,35.93,-95.12,TREES DOWN ON HIGHWAY 51 EAST OF HULBERT. TIME IS RADAR ESTIMATED. (TSA)
2211,UNK,2 SSW FORKS OF BUFFALO,AMHERST,VA,37.66,-79.2,ONE TREE DOWN. (RNK)
2218,UNK,6 SW RONDA,WILKES,NC,36.17,-81.03,TREE DOWN ON ANTIOCH CHURCH RD. TIME RADAR ESTIMATED (RNK)
2225,UNK,GOODLETTSVILLE,DAVIDSON,TN,36.32,-86.71,A SMALL TREE WAS BLOWN DOWN AND SMALL HAIL WAS OBSERVED. (OHX)
2234,UNK,3 NNW MINERAL BLUFF,FANNIN,GA,34.95,-84.31,TWO TREES REPORTED DOWN AT THE 700 BLOCK OF SALEM RD. ONE TREE ALSO BROUGHT DOWN POWERLINES AS IT FELL. (FFC)
2235,UNK,GALLATIN,SUMNER,TN,36.38,-86.45,POWER LINES WERE BLOWN DOWN AND A TREE FELL ON A HOUSE IN GALLATIN... REPORTED BY GALLATIN FD. (OHX)
2259,UNK,4 NW ASHLAND CITY,CHEATHAM,TN,36.32,-87.11,TREES DOWN NORTHWEST OF ASHLAND CITY. (OHX)
2313,UNK,FERRUM,FRANKLIN,VA,36.92,-80.02,TREES DOWN. (RNK)
2326,UNK,1 W FORT SMITH,SEBASTIAN,AR,35.39,-94.42,1 INCH TREE LIMBS DOWN ONE WEST OF FORT SMITH REGIONAL AIRPORT. TIME IS RADAR ESTIMATED. (TSA)
2329,UNK,2 SSW CENTENARY,BUCKINGHAM,VA,37.67,-78.54,ONE TREE DOWN ON WELL WATER ROAD. (RNK)
2353,UNK,3 ESE PENHOOK,PITTSYLVANIA,VA,36.97,-79.59,TREE DOWN ON SMITH MOUNTAIN RD NEAR GRETNA RD (RNK)
0020,UNK,2 ENE CLAYVILLE,CHESTERFIELD,VA,37.47,-77.78,TREES DOWN ON MOSELEY RD. JUST EAST OF THE POWHATAN/CHESTERFIELD COUNTY LINE. (AKQ)
0025,UNK,5 N POCAHONTAS STATE PA,CHESTERFIELD,VA,37.45,-77.57,TREES DOWNED AT FORDHAM RD AND HULL STREET ROAD IN CHESTERFIELD. (AKQ)
0030,UNK,WALDRON,SCOTT,AR,34.9,-94.09,SEVERAL TREES WERE BLOWN DOWN. (LZK)
0100,UNK,3 W CHATSWORTH,MURRAY,GA,34.76,-84.82,POWER LINES REPORTED DOWN AT THE INTERSECTION OF HWY 52 AND HWY 225. (FFC)
0155,UNK,1 NW MOUNT IDA,MONTGOMERY,AR,34.56,-93.64,TREES WERE BLOWN DOWN. (LZK)
0205,UNK,2 SSE CHINA GROVE,ROWAN,NC,35.54,-80.56,TRAINED SPOTTER REPORTED NUMEROUS TREES DOWN ON DAUGHERTY RD. TIME ESTIMATED FROM RADAR. (GSP)
0210,UNK,NORMAN,MONTGOMERY,AR,34.46,-93.68,TREES WERE BLOWN DOWN ALONG HIGHWAY 27 SOUTH ABOUT 1/4 MILE OUTSIDE OF NORMAN. (LZK)
Time,Size,Location,County,State,Lat,Lon,Comments
1225,175,4 S BOAZ,STONE,MO,36.96,-93.39,CORRECTS TIME ON PREVIOUS HAIL REPORT FROM 4 S BOAZ. REPORT OF GOLF BALL SIZE HAIL IN HOOTONTOWN BY A BUS DRIVER. TIME ESTIMATED BASED ON RADAR. (SGF)
1555,100,4 NNE SPRINGFIELD,GREENE,MO,37.25,-93.26,1 INCH HAIL REPORTED 4 NNE OF SPRINGFIELD. BETWEEN CHESTNUT AND MM HWY EXIT ON I44. (SGF)
2002,100,1 N NELLA,ASHE,NC,36.58,-81.55,(RNK)
0704,175,WHITE CLOUD,DONIPHAN,KS,39.98,-95.3,DELAYED REPORT: REPORT ON TWITTER OF GOLF BALL SIZED HAIL IN WHITE CLOUD. TIMING ESTIMATED FROM RADAR. (EAX)
0730,100,LANCASTER,ATCHISON,KS,39.57,-95.3,DELAYED REPORT: REPORT ON TWITTER OF A LOT OF QUARTER OR GREATER SIZED HAIL IN LANCASTER. (EAX)
0730,125,1 WSW BIG LAKE,SHERBURNE,MN,45.32,-93.76,SOCIAL MEDIA PICTURE OF LARGE HAIL NEAR BIG LAKE. (MPX)
0803,100,2 NNW ATCHISON,ATCHISON,KS,39.58,-95.14,DELAYED REPORT: REPORT ON TWITTER OF QUARTER SIZED HAIL IN ATCHISON... KS. TIMING ESTIMATED BY RADAR. (EAX)
0840,150,3 NE DEER PARK,POLK,WI,45.22,-92.35,(MPX)
0856,100,2 NE MERCER,IRON,WI,46.18,-90.04,(DLH)
0915,100,BEDFORD,TAYLOR,IA,40.67,-94.72,HEAVY RAIN ALSO FELL. 1.2 INCHES OF RAIN FROM THE THUNDERSTORM FELL IN 30 MINUTES. (DMX)
