Time,F_Scale,Location,County,State,Lat,Lon,Comments
2221,UNK,7 WSW BURDETTE,HAND,SD,44.66,-98.94,BRIEF TORNADO TOUCHDOWN IN AN OPEN FIELD. (ABR)
0035,UNK,6 NNE HAMILL,TRIPP,SD,43.67,-99.64,BRIEF TOUCHDOWN NEAR THE INTERSECTION OF 257TH STREET AND 325TH AVENUE... TIPPING OVER AND DAMAGING AN IRRIGATION PIVOT BEFORE DISSIPATING. HIGHEST WINDS OF THE TORNADO (UNR)
Time,Speed,Location,County,State,Lat,Lon,Comments
2018,UNK,8 SW CARY,ISSAQUENA,MS,32.72,-91.02,TREES DOWN... ONE ACROSS HWY 1 NEAR DERR PLANTATION RD. (JAN)
2053,70,RAPID CITY AIRPORT,PENNINGTON,SD,44.05,-103.06,(UNR)
2100,UNK,6 SSE MONTICELLO,LAWRENCE,MS,31.47,-90.08,COUNTY EM REPORTS POSSIBLE FUNNEL CLOUD AND DAMAGE AT 4708 HWY 587. DAMAGE INCLUDES STRUCTURAL DAMAGE AND DOWNED TREES. (JAN)
2120,UNK,6 ESE FLORA,MADISON,MS,32.52,-90.22,A COUPLE TREES DOWN IN S MADISON COUNTY... RANKIN RD... CEDAR HILL... AND COKER RD. (JAN)
2125,UNK,4 SE FOLSOM,CUSTER,SD,43.8,-102.81,LARGE TREE BRANCHES BROKEN. (UNR)
2150,UNK,3 E BRANDON,RANKIN,MS,32.28,-89.95,LARGE TREE DOWN IN BRANDON ALONG TRICKHAMBRIDGE RD JUST NORTH OF PAIGE MCDILL RD. WINDS ESTIMATED TO BE AROUND 40 MPH. (JAN)
2158,60,1 NNE ROCKYFORD,OGLALA LAKOTA,SD,43.51,-102.5,(UNR)
2235,UNK,2 E STANDING PINE,LEAKE,MS,32.67,-89.42,ONE TREE DOWN ACROSS HIGHWAY 487 SOUTHEAST OF CARTHAGE. TIME ESTIMATED BY RADAR. (JAN)
2236,UNK,4 N GRAYS,JASPER,SC,32.73,-81.03,TREE REPORTED DOWN POSSIBLY DUE TO OUTFLOW NEAR THE INTERSECTION OF GRAYS HIGHWAY WITH CAT BRANCH ROAD. (CHS)
2239,59,2 ENE PIERRE,HUGHES,SD,44.38,-100.28,(ABR)
2255,UNK,1 S EAST DUBLIN,LAURENS,GA,32.53,-82.87,TREE REPORTED DOWN AT THE INTERSECTION OF NATHANIEL DR AND OAKWOOD DR. (FFC)
0016,60,7 NE ALMERIA,LOUP,NE,41.91,-99.44,(LBF)
0030,UNK,5 N HAMILL,TRIPP,SD,43.66,-99.67,A SHED WAS LEVELED... MANY WINDOWS BROKEN... CEDAR TREES UPROOTED... 2 VERY LARGE PINE TREES BROKEN OFF ONE 6 FEET OFF THE GROUND THE OTHER ABOUT 12 FEET OFF THE GROUND (UNR)
0040,62,3 N TAYLOR,LOUP,NE,41.81,-99.38,DIME SIZE HAIL ALSO OBSERVED (LBF)
0045,UNK,4 W COMSTOCK,CUSTER,NE,41.56,-99.32,WIND DRIVEN HAIL RESULTED IN SOME CROP DAMAGE. CORN STALKS LAID OVER VIA SOCIAL MEDIA (LBF)
0050,UNK,3 SSW GRESSTON,DODGE,GA,32.24,-83.27,TREE DOWN ON POWER LINES AT THE INTERSECTION OF APPLE LN AND ANTIOCH CHURCH RD. (FFC)
0122,60,15 WNW PLATTE,CHARLES MIX,SD,43.47,-99.12,(FSD)
0348,UNK,ONEILL,HOLT,NE,42.46,-98.65,POWER CURRENTLY OUT IN MOST OF ONEILL. LARGE TREE DAMAGE REPORTED AT ST MARYS HIGH SCHOOL. GARAGE AND OUTBUILDINGS DESTROYED ON THE EAST SIDE OF ONEILL. MULTIPLE TREES (LBF)
0540,UNK,CEDAR RAPIDS,BOONE,NE,41.56,-98.15,SEMI TRACTOR TRAILER OVERTURNED. LARGE TREE BRANCHES UP TO 12" DIAMETER BROKEN. EVENT TIME BASED ON RADAR. (OAX)
0616,UNK,10 N SHELBY,POLK,NE,41.34,-97.45,DELAYED REPORT. SOME TREES AND TREE LIMBS WERE BLOWN DOWN OR SNAPPED OFF RESULTING IN POWER OUTAGES E OF SILVER CREEK TO HWY 81. TIME EST FM RADAR. (GID)
0700,59,4 NW YORK,YORK,NE,40.9,-97.66,(GID)
0838,UNK,2 SSE BROOKINGS,BROOKINGS,SD,44.28,-96.77,MULTIPLE TREES BLOWN OVER... BLEACHERS FLIPPED... AND DUGOUTS DAMAGED AT THE SOUTHBROOK SOFTBALL COMPLEX. REPORT VIA SOCIAL MEDIA. (FSD)
1120,UNK,5 S PLANTERSVILLE,LEE,MS,34.14,-88.67,LARGE TREE DOWN BLOCKING COUNTY ROAD NEAR PLANTERSVILLE. (MEG)
Time,Size,Location,County,State,Lat,Lon,Comments
1630,100,3 SSE RELIANCE,LYMAN,SD,43.83,-99.58,NICKEL TO QUARTER HAIL REPORTED. (ABR)
1952,100,8 NE CHARLSON,MOUNTRAIL,ND,48.13,-102.73,QUARTER SIZE HAIL REPORTED AT WHITE EARTH BAY RECREATION AREA. RELAYED VIA BROADCAST MEDIA. TIME ESTIMATED WITH RADAR. (BIS)
2048,200,BOX ELDER,PENNINGTON,SD,44.12,-103.07,(UNR)
2113,125,2 SE FARMINGDALE,PENNINGTON,SD,43.95,-102.86,(UNR)
2123,100,3 ENE PRESCOTT COURTHOU,YAVAPAI,AZ,34.56,-112.41,HAIL DAMAGE TO APPROXIMATELY 1000 CARS. LARGEST STONES WERE 1 INCH IN DIAMETER. (FGZ)
2125,175,1 NNW GEDDES,CHARLES MIX,SD,43.27,-98.71,VERY JAGGED HAIL... AND HARDLY RAINING ANY LIQUID DROPS. (FSD)
2125,100,4 SE FOLSOM,CUSTER,SD,43.8,-102.81,LARGE TREE BRANCHES BROKEN. (UNR)
2210,100,19 S OKREEK,TODD,SD,43.1,-100.34,(UNR)
2228,100,5 N MILLER,HAND,SD,44.6,-98.99,(ABR)
2245,100,7 N SAINT LAWRENCE,HAND,SD,44.62,-98.93,(ABR)
2259,125,7 WSW AMELIA,HOLT,NE,42.18,-99.09,(LBF)
2325,175,12 N AINSWORTH,BROWN,NE,42.72,-99.86,MOSTLY PEA SIZE WITH A DECENT AMOUNT OF GOLF BALL SIZE. (LBF)
2354,175,5 SW LYMAN,LYMAN,SD,43.82,-99.8,(ABR)
2356,175,1 N LONG PINE,BROWN,NE,42.55,-99.7,(LBF)
0000,100,3 S SAINT LAWRENCE,HAND,SD,44.48,-98.94,NICKELS AND QUARTERS. RADAR ESTIMATED TIME. (ABR)
0007,100,3 WNW BUTTE,BOYD,NE,42.93,-98.9,TRAINED SPOTTER (LBF)
0011,100,7 SSW FORDYCE,CEDAR,NE,42.61,-97.43,CORRECTS PREVIOUS HAIL REPORT FROM 7 SSW FORDYCE. (OAX)
0016,200,13 NNW TAYLOR,LOUP,NE,41.94,-99.48,(LBF)
0021,100,9 NE HUALAPAI PEAK,MOHAVE,AZ,35.18,-113.8,SPOTTER ESTIMATED QUARTER SIZE HAIL WHEN DRIVING WESTBOUND ON I40 NEAR MM 66. (VEF)
0025,125,4 NE TAYLOR,LOUP,NE,41.81,-99.33,(LBF)
0040,100,7 WSW HARTINGTON,CEDAR,NE,42.57,-97.39,SHREDDED CROPS AND TREES. (OAX)
0042,175,3 WSW COMSTOCK,CUSTER,NE,41.54,-99.3,LOTS OF PING PONG SIZE WITH SOME GOLF BALL (LBF)
0055,100,5 W BURWELL,LOUP,NE,41.78,-99.23,ONLY A FEW QUARTER SIZE HAIL (LBF)
0115,100,6 WNW COLERIDGE,CEDAR,NE,42.53,-97.31,(OAX)
0125,100,16 N ONEILL,HOLT,NE,42.69,-98.65,(LBF)
0150,275,HAZARD,SHERMAN,NE,41.09,-99.08,DELAYED REPORT. FACEBOOK PHOTO AND OTHER REPORTS VERIFY HAIL TO AROUND BASEBALL SIZE IN THE HAZARD AREA. (GID)
0210,100,3 N COLERIDGE,CEDAR,NE,42.55,-97.21,50 MPH WINDS ESTIMATED. (OAX)
0226,175,PLEASANTON,BUFFALO,NE,40.97,-99.08,HAIL UP TO GOLF BALL SIZE FROM 921-926 PM. (GID)
0247,150,6 WSW GIBBON,BUFFALO,NE,40.71,-98.95,DELAYED REPORT. MULTIPLE PHOTOS RCVD VIA SOCIAL MEDIA OF HAIL RANGING FROM SIZE OF DIMES TO PING PONG BALLS. LARGE TREE BRANCH SNAPPED OFF APPROX 4 INCHES IN DIAMETER. (GID)
0350,175,6 WSW GIBBON,BUFFALO,NE,40.72,-98.95,(GID)
