Time,F_Scale,Location,County,State,Lat,Lon,Comments
1420,UNK,BEE BRANCH,VAN BUREN,AR,35.45,-92.4,DAMAGE TO A HOUSE WAS REPORTED IN BEE BRANCH BY LAW ENFORCEMENT. (LZK)
1543,UNK,CHILTON,CARTER,MO,36.93,-90.92,EF-1 TORNADO. 95 MPH WINDS. 6 MILE TRACK FROM JUST SOUTHWEST OF CHILTON TO 5 NE OF CHILTON. 100 YARDS WIDE. OLD SCHOOL HOUSE NEARLY DESTROYED. HUNDREDS OF TREES SNAPPED (PAH)
1715,UNK,1 E AVA,JACKSON,IL,37.89,-89.48,EF-0 TORNADO. 75 MPH WINDS. PATH 1 MILE EAST OF AVA TO 6.5 MILES NORTHEAST OF AVA. PATH LENGTH 6 MILES. PATH WIDTH 50 YARDS. TREES WITH CONSIDERABLE DAMAGE. NUMEROUS LA (PAH)
1723,UNK,4 E PINCKNEYVILLE,PERRY,IL,38.08,-89.31,EF-1 TORNADO. 95 MPH WINDS. PATH WIDTH 200 YARDS. PATH LENGTH 6 MILES FROM ABOUT 4.5 MILES EAST OF PINCKNEYVILLE TO NEAR TAMAROA. NUMEROUS TREES SNAPPED NEAR BASE OR UP (PAH)
2042,UNK,GREENWOOD,JOHNSON,IN,39.62,-86.11,TORNADO DAMAGE OBSERVED NEAR SMITH VALLEY ROAD AND SR 135 (IND)
2054,UNK,5 NE SHELBY,BOLIVAR,MS,34,-90.71,TORNADO BEGAN ABOUT A MILE EAST OF US HWY 61 AND MOVED NORTHEAST DOWNING TREES AND POWERLINES ALONG THE PATH. TORNADO DAMAGE CONTINUED INTO COAHOMA COUNTY. (JAN)
2055,UNK,6 S MARIANNA,LEE,AR,34.69,-90.77,COUNTY EM REPORTS TORNADO DAMAGE SOUTH OF MARIANNA. GRAIN BINS FLATTENED... ROOF BLOWN OFF A BRICK HOUSE... MOBILE HOME COMPLETELY DESTROYED... CABINS DAMAGED (MEG)
2109,UNK,5 S CLARKSDALE,COAHOMA,MS,34.13,-90.58,FROM VIDEO (MEG)
2155,UNK,1 S COMO,PANOLA,MS,34.5,-89.94,MULTIPLE DAMAGED HOMES JUST SOUTH OF COMO MISSISSIPPI. RELAYED VIA SOCIAL MEDIA. TIME IS RADAR ESTIMATED. (MEG)
2155,UNK,2 E FOUNTAIN CITY,WAYNE,IN,39.96,-84.88,EF0 TORNADO DESTROYED SEVERAL OUTBUILDINGS ON EAST FOUNTAIN CITY PIKE ROAD. (ILN)
2212,UNK,2 E ARCANUM,DARKE,OH,39.99,-84.52,EF0 TORNADO LIFTED UP THE ROOF OF A LARGE METAL BUILDING LOFTING IT ONTO A NEARBY CAR. (ILN)
2218,UNK,3 E BLANDINSVILLE,MCDONOUGH,IL,40.55,-90.81,SPOTTER REPORTS SEEING DEBRIS FROM A FUNNEL NORTH OF HIS LOCATION POSSIBLY NEAR ILLINOIS ROUTE 9 WEST OF SCIOTA. LOCATION APPROXIMATED BASED ON DESCRIPTION. (DVN)
2227,UNK,1 N GOOD HOPE,MCDONOUGH,IL,40.57,-90.67,STATE POLICE REPORT TORNADO ON THE GROUND. TIME APPROXIMATED. (DVN)
2245,UNK,3 NW REYNOLDS,ROCK ISLAND,IL,41.36,-90.71,SPOTTER REPORTED DEBRIS (DVN)
2248,UNK,HOLLY SPRINGS,MARSHALL,MS,34.77,-89.44,MULTIPLE TREES AND HOMES DAMAGED NEAR TCHULOHOMA AND HWY 5. HIGHWAY 5 IS NOW CLOSED. (MEG)
2248,UNK,ASHLAND,BENTON,MS,34.83,-89.18,*** 2 FATAL *** (MEG)
2248,UNK,1 N ASHLAND,BENTON,MS,34.85,-89.18,MULTIPLE INJURIES REPORTED JUST NORTH OF ASHLAND. A COMMAND POST HAS BEEN SETUP AT THE FIRE STATION. POWER IS OUT THROUGHOUT THE CITY. (MEG)
2307,UNK,WALNUT,TIPPAH,MS,34.95,-88.9,WEDGE TORNADO ON THE GROUND ON HIGHWAY 72 JUST EAST OF WALNUT MISSISSIPPI. (MEG)
2307,UNK,2 S MIDDLETON,HARDEMAN,TN,35.03,-88.89,SIGNIFICANT DAMAGE REPORTED JUST SOUTH OF MIDDLETON NEAR THE MISSISSIPPI AND TENNESSEE BORDER. (MEG)
2328,UNK,1 E CANAAN,BENTON,MS,34.93,-89.12,MULTIPLE STRUCTURES DAMAGED. PICTURE RELAYED VIA SOCIAL MEDIA SHOWING FIELD OF DEBRIS NEAR CANAAN. (MEG)
2330,UNK,SELMER,MCNAIRY,TN,35.17,-88.59,HEAVY DEBRIS REPORTED IN SELMER. (MEG)
2336,UNK,2 S HOLLY SPRINGS,MARSHALL,MS,34.74,-89.44,MDOT REPORTS TORNADO DEBRIS BLOCKING ROADWAY AT INTERSECTION OF HIGHWAY 4 AND HIGHWAY 7. ALL LANES CLOSED. FIND ALT ROUTE. (MEG)
0008,UNK,8 W WALNUT,BENTON,MS,34.95,-89.04,HOUSE SEVERELY DAMAGED. RELAYED VIA SOCIAL MEDIA. TIME IS RADAR ESTIMATED. (MEG)
0016,UNK,4 SSE LINDEN,PERRY,TN,35.56,-87.82,*** 2 FATAL *** AN EF-2 TORNADO TOUCHED DOWN FOUR MILES SOUTH OF LINDEN AND TRAVELED EAST-NORTHEAST FOR 13.9 MILES. A BRICK HOME ON HURRICANE CREEK RD RECEIVED DAMAGE C (OHX)
0020,UNK,5 E JUMPERTOWN,PRENTISS,MS,34.71,-88.58,MOBILE HOME DESTROYED NEAR JUMPERTOWN. TIME IS RADAR ESTIMATED. (MEG)
0027,UNK,4 N BOONEVILLE,PRENTISS,MS,34.72,-88.57,SPOTTER REPORTS TORNADO ON GROUND. (MEG)
0040,UNK,BOONEVILLE,PRENTISS,MS,34.66,-88.57,INTERSECTION OF COUNTY ROAD 7100 AND 7081 ARE CLOSED DUE TO TREES AND POWERLINES DOWN ON ROAD. (MEG)
0052,UNK,13 WSW COLLINWOOD,WAYNE,TN,35.1,-87.96,*** 7 INJ *** AN EF-3 TORNADO TOUCHED DOWN JUST EAST OF THE HARDIN COUNTY/ WAYNE COUNTY LINE ABOUT 2.5 MILES SOUTHWEST OF THE TOWN OF LUTTS. THE TORNADO REACHED ITS PEA (OHX)
0100,UNK,3 N WATERLOO,LAUDERDALE,AL,34.95,-88.07,EF-2 TORNADO SNAPPED AND UPROOTED NUMEROUS TREES...DAMAGED SEVERAL SINGLE FAMILY HOMES...AND ONE CHURCH ALONG ITS 7.4 MILE PATH. MAX WIND SPEED 115 MPH. MAX PATH WIDTH (HUN)
0105,UNK,5 SE WALNUT GROVE,LAUDERDALE,AL,35,-87.98,HOUSES DAMAGED ALONG CR 40 JUST SOUTH OF THE TENNESSEE LINE. DAMAGE CORRESPONDS TO TORNADO DEBRIS SIGNATURE FROM DUAL POL RADAR. TIME ESTIMATED FROM RADAR. (HUN)
0108,UNK,14 SW COLLINWOOD,WAYNE,TN,35.03,-87.92,THIS TORNADO IS THE CONTINUATION OF THE EF-2 TORNADO WHICH TOUCHED DOWN IN LAUDERDALE COUNTY ALABAMA NEAR WATERLOO. THE TORNADO DAMAGE IN TENNESSEE WAS RATED AN EF-1 WI (OHX)
0111,UNK,4 NNW FALMOUTH,PENDLETON,KY,38.72,-84.37,*** 3 INJ *** CONFIRMED EF1 TORNADO ROLLED A MOBILE HOME ONTO ITS TOP ON THE EASTSIDE OF BETHEL LANE. SEVERAL 6-8 INCH TREES WERE ALSO SNAPPED. (ILN)
0116,UNK,6 E BUTLER,PENDLETON,KY,38.77,-84.27,CONFIRMED EF1 TORNADO LIFTED AND DESTROYED A CAMPER AT THE INTERSECTION OF HICKORY GROVE ROAD AND ROUTE 10. THERE WAS ALSO MINOR STRUCTURAL DAMAGE AT TWO NEARBY MOBILE (ILN)
0140,UNK,BOONEVILLE,PRENTISS,MS,34.66,-88.57,INTERSECTION OF COUNTY ROAD 7100 AND 7081 ARE CLOSED DUE TO TREES AND POWERLINES DOWN ON ROAD. (MEG)
0412,UNK,3 ESE ALEXANDRIA,DE KALB,TN,36.06,-85.98,AN EF-2 TORNADO TOUCHED DOWN ON HELTON CREEK JUST SOUTHWEST OF DRY BRANCH ROAD IN DEKALB COUNTY. THE TORNADO CONTINUED TO THE EAST-NORTHEAST AND REACHED A MAXIMUM WIDTH (OHX)
0425,UNK,2 ENE LUBECK,WOOD,WV,39.25,-81.59,EF0 TORNADO CONFIRMED IN COMMUNITY OF LARKMEAD. WINDS ESTIMATED TO BE 70 MPH. MAXIMUM PATH WIDTH 25 YARDS WITH A LENGTH OF 317 YARDS. SEE PNS FOR SPECIFIC DAMAGE. (RLX)
0945,UNK,3 SSE SPRING HILL,BARBOUR,AL,32.04,-85.32,TORNADO DEBRIS SIGNATURE CONFIRMED BY DUAL-POL RADAR DATA. (BMX)
1029,UNK,1 SSE BOOT HILL,BARBOUR,AL,31.86,-85.63,TORNADO DEBRIS SIGNATURE CONFIRMED BY DUAL-POL RADAR DATA. (BMX)
Time,Speed,Location,County,State,Lat,Lon,Comments
1230,UNK,6 NNW GRAND BAY,MOBILE,AL,30.55,-88.38,TREES ACROSS THE ROAD AT FORT LAKE RD AND GASTON LOOP RD. TIME ESTIMATED FROM RADAR. (MOB)
1247,UNK,1 S BROKEN BOW,MCCURTAIN,OK,34.02,-94.74,SEVERAL TREES AND POWER LINES DOWN IN BROKEN BOW. (SHV)
1248,UNK,2 N THEODORE,MOBILE,AL,30.58,-88.18,TREES AND POWER LINES DOWN ON OLD PASCAGOULA RD. NEAR CARROL PLANTATION RD. TIME ESTIMATED VIA RADAR. (MOB)
1316,UNK,DANVILLE,YELL,AR,35.05,-93.39,MULTIPLE REPORTS OF TREES AND POWER LINES DOWN AROUND THE COUNTY. (LZK)
1330,UNK,2 WSW DEES,MOBILE,AL,30.55,-88.38,MEDIA REPORTS TREES ACROSS ROADWAY AT FORT LAKE ROAD AND GASTON LOOP ROAD (MOB)
1340,UNK,ATKINS,POPE,AR,35.24,-92.95,*** 1 FATAL... 1 INJ *** LOCAL COORDINATOR REPORTED FALLEN TREE ON HOUSE IN ATKINS. THERE WERE ALSO REPORTS OF TREES AND POWER LINES DOWN IN THE SOUTHEAST PART OF POPE CO (LZ
1355,UNK,ATKINS,POPE,AR,35.24,-92.95,LOCAL COORDINATOR REPORTED FALLEN TREE ON HOUSE IN ATKINS. THERE WERE ALSO REOPRTS OF TREES AND POWER LINES DOWN IN THE SOUTHEAST PART OF POPE COUNTY. (LZK)
1401,60,2 W LESLIE,SEARCY,AR,35.83,-92.59,TREES UPROOTED AND DAMAGE TO AWNING IN YARD. (LZK)
1418,UNK,2 N DAMASCUS,VAN BUREN,AR,35.41,-92.42,OBSERVER REPORTED BOTH POWERLINES AND LARGE PINE TREES DOWN. (LZK)
1420,UNK,2 S NORFORK,BAXTER,AR,36.18,-92.28,LARGE TREE WAS REPORTED BLOCKING HIGHWAY 5 SOUTH. (LZK)
1425,UNK,WATERLOO,MONROE,IL,38.33,-90.16,SEVERAL TREES DOWN EAST OF WATERLOO. TIME ESTIMATED FROM RADAR. (LSX)
1426,UNK,FAIRFIELD BAY,VAN BUREN,AR,35.61,-92.26,A TREE WAS REPORTED ON A HOUSE IN FAIRFIELD BAY. (LZK)
1430,UNK,MORELAND,POPE,AR,35.37,-93,NUMEROUS TREES AND POWERLINES DOWN IN TOWN. TREES BLOCKING ROADWAYS. (LZK)
1436,UNK,FREEBURG,ST. CLAIR,IL,38.43,-89.91,DAMAGE TO A FENCE. TIME ESTIMATE FROM RADAR (LSX)
1440,UNK,MOUNTAIN VIEW,STONE,AR,35.87,-92.11,TWO HOMES WERE REPORTED WITH TREES ON THEM AS WELL AS A BARN BLOW DOWN AND ROOF DAMAGE TO OTHERS. HIGHWAY 87 WAS BLOCKED WITH TREES NORTH OF MOUNTAIN VIEW. (LZK)
1440,UNK,2 SE VIOLA,FULTON,AR,36.38,-91.96,LAW ENFORCEMENT REPORTS THAT A ROOF WAS DISPLACED FROM BARN. (LZK)
1440,UNK,MOODY,HOWELL,MO,36.53,-91.99,POWER LINES DOWN... SHED BLOWN OVER... TREES DOWN. (SGF)
1441,UNK,CUSHMAN,INDEPENDENCE,AR,35.86,-91.78,EMERGENCY MANAGEMENT REPORTS WIND DAMAGE TO A MOBILE HOME. (LZK)
1450,UNK,2 S WEST PLAINS,HOWELL,MO,36.7,-91.85,DELAYED STORM REPORT - A LARGE TREE WAS BLOWN DOWN ON TO AN OUTDOOR PATIO STRUCTURE AND OUTBUILDINGS. A COUPLE OUTBUILDINGS WERE HEAVILY DAMAGED. A BRICK WALL WAS COMPL (SGF)
1507,UNK,3 SW HARDY,SHARP,AR,36.29,-91.52,LAW ENFORCEMENT REPORTED SEVERAL HOMES DESTROYED AND A LOT OF STRUCTURAL DAMAGE IN THE HIGHLAND AREA. (LZK)
1510,UNK,THAYER,OREGON,MO,36.52,-91.54,TREES AND ONE POWER POLE BLOWN OVER IN THAYER. (SGF)
1516,UNK,ALTON,OREGON,MO,36.69,-91.4,SEVERE THUNDERSTORM WIND GUSTS DOWNED A LARGE TREE IN THE COMMUNITY OF ALTON. (SGF)
1530,UNK,RAVENDEN,LAWRENCE,AR,36.24,-91.25,TREES DOWN IN RAVENDEN. (MEG)
1540,UNK,5 NW SHELBYVILLE,SHELBY,IL,39.46,-88.87,SEVERAL SMALL TREE BLOWN OVER. (ILX)
1544,UNK,FAIRBURY,LIVINGSTON,IL,40.75,-88.51,ONE HALF MILE EAST OF FAIRBURY ON US 24. POWER POLE DOWN DUE TO WINDS. (LOT)
1545,UNK,6 S VAN BUREN,CARTER,MO,36.92,-91.01,LATE REPORT. NUMEROUS TREES DOWN IN A DEFINED PATH NEAR BIG SPRINGS ALONG HWY Z. (PAH)
1550,UNK,MAYNARD,RANDOLPH,AR,36.42,-90.9,TREE DOWN IN MAYNARD. (MEG)
1555,UNK,ELLSINORE,CARTER,MO,36.93,-90.75,POWER LINES DOWN ALONG PORTIONS OF HWY 21. THE HWY IS CLOSING AT THIS TIME. (PAH)
1557,UNK,SW OAKLEY,MACON,IL,39.85,-88.82,HOUSE SHINGLES BLOWN OFF TOW SHEDS BLOWN DOWN. (ILX)
1600,UNK,PIEDMONT,WAYNE,MO,37.15,-90.7,PORTIONS OF COMMUNITY WITHOUT POWER (PAH)
1600,UNK,CERRO GORDO,PIATT,IL,39.89,-88.73,TREES AND POWER LINES BLOWN DOWN NEAR ROUTE 105 ALONG WITH DAMAGE TO A POLE BARN (ILX)
1604,UNK,2 N WELDON,DE WITT,IL,40.16,-88.75,GRAIN BIN THROWN INTO A FIELD. (ILX)
1610,UNK,GREENVILLE,WAYNE,MO,37.13,-90.45,DOWNED TREES ALONG HWY. PEA SIZE HAIL AND HEAVY RAIN. (PAH)
1612,60,NAYLOR,RIPLEY,MO,36.57,-90.61,REPORTED BY EM. (PAH)
1615,UNK,5 SW CADWELL,MOULTRIE,IL,39.63,-88.6,SEMI BLOWN OVER ON CADWELL ROAD BETWEEN SULLIVAN AND CADWELL. REPORTED BY EMERGENCY MANAGER VIA NWS CHAT. (ILX)
1617,UNK,PIEDMONT,WAYNE,MO,37.15,-90.7,PORTIONS OF COMMUNITY WITHOUT POWER (PAH)
1635,UNK,FOOSLAND,CHAMPAIGN,IL,40.35,-88.42,SIX POWER-LINE POLES DOWN (ILX)
1640,UNK,MARBLE HILL,BOLLINGER,MO,37.3,-89.98,POWER OUTAGES REPORTED THROUGHOUT THE COUNTY. TREE DOWN ALONG HWY 51 JUST NORTH OF HWY CC (PAH)
1645,UNK,1 SW PUXICO,STODDARD,MO,36.94,-90.17,TREE DOWN ON HOUSE. (PAH)
1705,62,1 E SPARTA,RANDOLPH,IL,38.15,-89.69,(LSX)
1720,UNK,CAPE GIRARDEAU,CAPE GIRARDEAU,MO,37.31,-89.55,LATE REPORT. SEVERAL TREE LIMBS DOWN. (PAH)
1725,UNK,AVA,JACKSON,IL,37.89,-89.5,TREE DOWN ALONG HWY 4 AND ALONG DALLAS ROAD NEAR MURPHYSBORO. (PAH)
1729,60,5 S CARBONDALE,JACKSON,IL,37.65,-89.22,REPORTED NEAR UNITY POINT SCHOOL. (PAH)
1730,UNK,MULKEYTOWN,FRANKLIN,IL,37.97,-89.11,LATE REPORT. TIME ESTIMATED. STRUCTURE DAMAGE TO HOME. (PAH)
1730,UNK,BONNIE,JEFFERSON,IL,38.2,-88.91,LATE REPORT. TIME ESTIMATED. STRUCTURE DAMAGE TO HOME REPORTED VIA MULTI MEDIA. (PAH)
1739,60,SESSER,FRANKLIN,IL,38.09,-89.05,WINDS ESTIMATED. LARGE TREE LIMBS DOWN IN THE COMMUNITY. (PAH)
1740,UNK,8 N LONOKE,LONOKE,AR,34.9,-91.9,REPORTS OF POWER LINES DOWN ALONG HIGHWAY 236 AROUND CLAY HILL. (LZK)
1742,UNK,HERRIN,WILLIAMSON,IL,37.8,-89.03,POWER LINE DOWN ALONG HERRIN ROAD. (PAH)
1743,UNK,JUDSONIA,WHITE,AR,35.28,-91.64,REPORT OF A TREE DOWN ON EVENING STREET IN JUDSONIA (LZK)
1745,UNK,PINCKNEYVILLE,PERRY,IL,38.08,-89.38,POWER POLE SNAPPED AT GROUND LEVEL ON NEW STREET. PORTION OF HWY 154 CLOSED DUE TO DOWNED TREES. (PAH)
1803,60,1 E VIENNA,JOHNSON,IL,37.41,-88.87,WINDS ESTIMATED 50 TO 60 MPH. REPORTED BY OFF DUTY NWS EMPLOYEE. (PAH)
1806,62,2 NW WAYNE CITY,WAYNE,IL,38.37,-88.61,(PAH)
1810,UNK,4 N XENIA,CLAY,IL,38.69,-88.64,BARN DOORS BLOWN IN ON SOUTH SIDE... PARTIAL ROOF BLOWN OFF OF BARN AND EAST WALL BOWED OUT 18 INCHES. BARN SIZE 40 FOOT BY 80 FOOT - ON BUTTERNUT ROAD. (ILX)
1815,UNK,CARMI,WHITE,IL,38.09,-88.17,NEARLY 2 DOZEN TREES SNAPPED IN THE COMMUNITY. (PAH)
1829,UNK,EAST PRAIRIE,MISSISSIPPI,MO,36.78,-89.38,POWER LINE DOWN BLOCKING ROAD. (PAH)
1835,UNK,NEWTON,JASPER,IL,38.99,-88.16,WIND DAMAGE TO CAR PORT AND HOUSE ROOF AT 404 DAVIS STREET IN NEWTON (ILX)
1842,UNK,2 ESE PARKERSBURG,RICHLAND,IL,38.58,-88.02,7 TREES UPROOTED AND HOUSE SHIFTED WITH WINDOWS BLOWN OUT AT 6798 EAST WAYNE LANE IN SOUTHERN RICHLAND COUNTY. STORAGE SHED AND GRAIN BINS ALSO DAMAGED. (ILX)
1850,UNK,PRINCETON,GIBSON,IN,38.36,-87.57,TWO SEMI TRACTOR TRAILERS OVERTURNED ALONG INTERSTATE 64. (PAH)
1857,65,MOUNT CARMEL,WABASH,IL,38.42,-87.77,WINDS ESTIMATED 55 TO 65 MPH. (PAH)
1900,UNK,4 S SUMMIT,LEXINGTON,SC,33.87,-81.41,TREES DOWN ON POWER LINES. TIME ESTIMATED BY RADAR. (CAE)
1900,UNK,ROBINSON,CRAWFORD,IL,39.01,-87.74,TREES AND SEVERAL TREE LIMBS BLOWN DOWN IN ROBINSON AROUND 1 PM (ILX)
1903,UNK,4 SW CHAPIN,LEXINGTON,SC,34.12,-81.39,POWER LINES DOWN ACROSS ROAD (CAE)
1906,UNK,3 E LAWRENCEVILLE,LAWRENCE,IL,38.73,-87.63,2 AMEREN POWER POLES SNAPPED OFF AT THE GROUND. (ILX)
1915,UNK,7 S JONESBORO,CRAIGHEAD,AR,35.72,-90.69,POWER LINES DOWN (MEG)
1926,60,BICKNELL,KNOX,IN,38.78,-87.31,(IND)
1935,UNK,4 N DECKER,KNOX,IN,38.58,-87.52,SEMI BLOWN OVER ON NEAR US41 NORTH OF DECKER (IND)
1939,UNK,BICKNELL,KNOX,IN,38.78,-87.31,TREE DOWN ACROSS POWER LINE BETWEEN 9TH AND 10TH ON VIGO STREET (IND)
1944,60,NEWBURGH,WARRICK,IN,37.95,-87.4,WIND GUST ESTIMATED (PAH)
1949,60,7 SSE WASHINGTON,DAVIESS,IN,38.56,-87.12,(IND)
1949,60,INDIANAPOLIS,MARION,IN,39.78,-86.15,(IND)
1955,UNK,EVANSVILLE,VANDERBURGH,IN,37.98,-87.54,POWER LINES DOWN ALONG SOUTH SIDE OF CITY. POWER OUTAGES ALSO REPORTED ON WEST SIDE OF CITY AS WELL AS A BILLBOARD BLOWN OVER. (PAH)
1958,65,3 W MANILA,MISSISSIPPI,AR,35.88,-90.22,(MEG)
2003,59,JASPER,DUBOIS,IN,38.39,-86.94,WIND GUST FROM JASPER MIDDLE SCHOOL (LMK)
2004,UNK,5 E JASONVILLE,GREENE,IN,39.16,-87.11,TREES DOWN NEAR SR59 AND 100W (IND)
2005,UNK,9 SSE GREENCASTLE,PUTNAM,IN,39.52,-86.78,SEMI TRAILER BLOWN OFF US231 AT I-70. ONE INJURED. (IND)
2008,UNK,HATFIELD,SPENCER,IN,37.9,-87.22,SEVERAL TREES DOWN. (PAH)
2008,UNK,LINCOLN CITY,SPENCER,IN,38.12,-87,SEVERAL TREES DOWN. (PAH)
2010,58,1 S FERDINAND,DUBOIS,IN,38.21,-86.87,(LMK)
2010,UNK,3 S PARAGON,MORGAN,IN,39.35,-86.56,GRAIN BIN BLOWN OVER...PART OF A METAL ROOF DETACHED FROM A HOME...SEVERAL TREES DOWN. NEAR INTERSECTION OF POCKET HOLLOW ANBD BURNETT ROADS. (IND)
2015,60,9 NE HAYTI,PEMISCOT,MO,36.32,-89.63,(MEG)
2022,UNK,BRETZVILLE,DUBOIS,IN,38.3,-86.87,POWER LINES DOWN. (LMK)
2025,UNK,1 S CLAYTON,HENDRICKS,IN,39.67,-86.52,BARN DOOR BLEW IN NEAR US40 AND ZERO ROAD (IND)
2025,61,DANVILLE,HENDRICKS,IN,39.76,-86.52,MEASURED ON THE WEST SIDE OF DANVILLE (IND)
2030,UNK,1 S ORLEANS,ORANGE,IN,38.65,-86.46,POWER LINES DOWN NEAR HIGHWAY 37 NEAR ORLEANS. TREES DOWN ELSEWHERE IN THE COUNTY. (LMK)
2035,UNK,4 SE CHAMBERSBURG,ORANGE,IN,38.47,-86.34,MINOR ROOF DAMAGE AND AN ALUMINUM CAR PORT LIFTED OFF ITS BASE. (LMK)
2045,UNK,2 W SALEM,WASHINGTON,IN,38.6,-86.13,MANY TREES DOWN IN THE COUNTY... ESPECIALLY ON HIGHWAY 56 NEAR THE SALEM AIRPORT. (LMK)
2047,UNK,GREENWOOD,JOHNSON,IN,39.62,-86.11,SEVERAL LARGE TREE LIMBS DOWN NEAR OLIVE BRANCH ROAD AND SR135 (IND)
2050,UNK,2 SW BOGGSTOWN,SHELBY,IN,39.55,-85.94,TREE DAMAGE TO RELATIVELY LARGE TREES AND ROOF OFF OF A GARAGE ON ACADAMY ROAD. (IND)
2055,69,SEYMOUR,JACKSON,IN,38.96,-85.89,(IND)
2056,UNK,DUNCAN,BOLIVAR,MS,34.04,-90.74,TREES WERE DOWN IN THE NORTHERN PART OF THE COUNTY. POSSIBLE TORNADO. (JAN)
2100,UNK,1 S CLARKSDALE,COAHOMA,MS,34.19,-90.58,AT LEAST 15 HOMES SEVERELY DAMAGED OR DESTROYED JUST SOUTH OF CLARKSDALE. TIME IS RADAR ESTIMATED. (MEG)
2100,UNK,2 S CARMEL,HAMILTON,IN,39.94,-86.11,SEVERAL LARGE TREE LIMBS DOWN... WINDS MEASURED AT 58MPH (IND)
2110,UNK,ELWOOD,MADISON,IN,40.28,-85.84,TREES AND A FLAGPOLE DOWN (IND)
2112,UNK,FORTVILLE,HANCOCK,IN,39.94,-85.85,SEMI BLOWN OVER (IND)
2116,UNK,1 SSE SCOTTSVILLE,FLOYD,IN,38.38,-85.91,TREES DOWN ON REASER RD AND STILLER RD AS WELL SCOTTSVILLE RD. TIME ESTIMATED BASED ON RADAR. (LMK)
2120,UNK,RUSHVILLE,RUSH,IN,39.61,-85.45,HOUSES DAMAGED... TREES DOWN AND POWER OUTAGES IN RUSHVILLE (IND)
2120,UNK,ANDERSON,MADISON,IN,40.09,-85.69,TREES DOWN WITH GUSTS ESTIMATED AT 60MPH (IND)
2121,UNK,6 WSW INDIANAPOLIS,MARION,IN,39.74,-86.25,SEMI BLOWN OVER ON I74 NEAR MM101 (IND)
2125,UNK,NOBLESVILLE,HAMILTON,IN,40.06,-86.03,TREES DOWN ON HOUSE NEAR 161ST AND SEMINOLE ROAD (IND)
2126,58,CALVERT CITY,MARSHALL,KY,37.03,-88.35,REPORTED BY OFF DUTY NWS EMPLOYEE. (PAH)
2126,UNK,PADUCAH,MCCRACKEN,KY,37.07,-88.64,POWER OUTAGES REPORTED THROUGHOUT THE DOWNTOWN AREA. (PAH)
2130,UNK,OAK LEVEL,MARSHALL,KY,36.87,-88.47,LATE REPORT. TREE DOWN ALONG ARANT ROAD AND ONE DOWN ALONG J.B. COPELAND ROAD. (PAH)
2130,UNK,HANOVER,JEFFERSON,IN,38.71,-85.47,THREE TREES DOWN IN THE HANOVER AREA. (LMK)
2130,64,STRAUGHN,HENRY,IN,39.81,-85.29,(IND)
2132,70,GRAND RIVERS,LIVINGSTON,KY,37.01,-88.24,WIND GUST ESTIMATED. STORM ALSO PRODUCING PEA TO MARBLE SIZE HAIL. (PAH)
2134,75,BENTON,MARSHALL,KY,36.85,-88.36,WIND GUST ESTIMATED. STORM PRODUCING PEA SIZE HAIL. EVENT OCCURRED ALONG HWY 68 WEST NEAR MILE MARKER 4. SMALL TREE LIMBS DOWN. (PAH)
2135,UNK,3 NE ANDERSONVILLE,FAYETTE,IN,39.53,-85.26,LARGE TREE DOWN ACROSS SANES RD. NEAR W. JOHNSON SCHOOL RD. TIME ESTIMATED BY RADAR. (ILN)
2135,UNK,2 E CAMBRIDGE CITY,WAYNE,IN,39.81,-85.13,ONE HEALTHY TREE UPROOTED. (ILN)
2140,UNK,4 S SUMMIT,LEXINGTON,SC,33.87,-81.41,TREES DOWN ON POWER LINES. TIME ESTIMATED BY RADAR. (CAE)
2145,UNK,FORT WAYNE,ALLEN,IN,41.07,-85.14,6" HEALTHY LIMB DOWNED. PEAK GUST MEASURED AT 45 MPH. DELAYED REPORT. (IWX)
2151,UNK,14 SSE MURRAY CITY,XXX,XX,39.34,-82.04,2 TREES DOWN. ONE ON STATE ROUTE 229 AND ONE ON WEATHERMAN ROAD (ILN)
2151,UNK,1 NNW SAINT PETER,FRANKLIN,IN,39.34,-85.04,TREES DOWN STATE ROUTE 229 AS WELL AS WEATHERMAN ROAD (ILN)
2154,59,KOXD OXFORD MIAMI APT,BUTLER,OH,39.5,-84.78,(ILN)
2154,UNK,3 E WINCHESTER,RANDOLPH,IN,40.17,-84.92,MULTIPLE TREES AND POWER LINES DOWN (IND)
2155,62,GUILFORD,DEARBORN,IN,39.17,-84.91,LOST POWER TEMPORARILY. (ILN)
2200,UNK,DREW,SUNFLOWER,MS,33.81,-90.53,POWER LINE DOWN IN TOWN. (JAN)
2200,64,2 NW STRAUGHN,HENRY,IN,39.83,-85.32,(IND)
2201,UNK,2 W CAMBRIDGE CITY,WAYNE,IN,39.81,-85.2,ONE TREE KNOCKED DOWN ONTO HOUSE. (ILN)
2205,UNK,4 NNE DIXON,WEBSTER,KY,37.57,-87.66,DAMAGE PATH WAS HALF MILE WIDE AND 3 MILES LONG. WINDS ESTIMATED BETWEEN 60 AND 70 MPH. TWO UNANCHORED VERY OLD SHEDS WERE DESTROYED. A NEW METAL BLDG UNDER CONSTRUCTIO (PAH)
2205,UNK,ELDORADO,PREBLE,OH,39.9,-84.68,PART OF A ROOF BLOWN OFF IN EL DORADO. TIME ESTIMATED BY RADAR. (ILN)
2205,UNK,10 SE GREENVILLE,DARKE,OH,40,-84.49,BUILDING ROOF BLOWN OFF. NUMEROUS LARGE TREES DOWN ON ROADWAYS AND LINES DOWN. (ILN)
2207,UNK,1 E CAMDEN,PREBLE,OH,39.63,-84.62,MULTIPLE TREES DOWN ACROSS PREBLE COUNTY...INCLUDING NEAR INTERSECTION OF 725 AND UPPER SOMERS RD. TIME ESTIMATED BY RADAR. (ILN)
2219,59,KOXD OXFORD MIAMI APT,BUTLER,OH,39.5,-84.78,(ILN)
2223,UNK,2 NW PLEASANT HILL,MIAMI,OH,40.06,-84.37,MIAMI COUNTY EMERGENGY MANAGER REPORTED MULTIPLE BUILDINGS DAMAGED AT 1845 NORTH RANGELINE ROAD. HE WILL CONDUCT A DAMAGE SURVEY TOMORROW MORNING. (ILN)
2224,UNK,ADAIR,MCDONOUGH,IL,40.42,-90.5,TIME AND LOCATION APPROXIMATED. EMERGENCY MANAGER REPORTED POWER POLES AND LINES DOWN IN THE ADAIR AREA. (DVN)
2227,UNK,MURRAY,CALLOWAY,KY,36.61,-88.32,BROKEN GLASS DOOR (PAH)
2235,UNK,1 E CAMBRIDGE CITY,WAYNE,IN,39.81,-85.15,ONE HEALTHY TREE UPROOTED (ILN)
2240,UNK,EATON,PREBLE,OH,39.75,-84.63,ONE LARGE TREE KNOCKED DOWN. (ILN)
2242,UNK,1 S MIDDLE POINT,VAN WERT,OH,40.84,-84.45,POWER POLE WITH LINES DOWN ACROSS THE ROADWAY (IWX)
2245,UNK,4 WSW LEBANON,WARREN,OH,39.42,-84.28,NUMEROUS TREES DOWN (ILN)
2250,58,2 ESE PRINCETON,CALDWELL,KY,37.1,-87.85,MEASURED AT THE KENTUCKY MESONET SITE (PAH)
2250,UNK,2 NW ECKERTY,CRAWFORD,IN,38.33,-86.64,EM REPORTED A FEW TREES DOWN ACROSS ROADWAYS IN THE WESTERN PART OF THE COUNTY. TIME ESTIMATED BASED ON RADAR. (LMK)
2255,UNK,6 NW URBANA,CHAMPAIGN,OH,40.17,-83.83,TREE FELL ON CAR TRAVELING ON ROAD. (ILN)
2257,UNK,LYNN GROVE,CALLOWAY,KY,36.59,-88.44,2 TREES DOWN IN LYNN GROVE (PAH)
2258,UNK,6 SW BELLEFONTAINE,LOGAN,OH,40.29,-83.82,LARGE TREE DOWN NEAR INTERSECTION OF TOWNSHIP RD. 30 AND COUNTY ROAD 18. TIME ESTIMATED BY RADAR. (ILN)
2302,UNK,3 N DODD,PERRY,IN,37.95,-86.67,TREE DOWN OVER SHELLFLOWER ROAD. TIME ESTIMATED FROM RADAR. (LMK)
2305,UNK,CADIZ,TRIGG,KY,36.87,-87.82,A TREE FELL ON A HOUSE (PAH)
2307,UNK,5 WSW SYLVANIA,LUCAS,OH,41.69,-83.79,LUCAS COUNTY SHERIFF REPORTS POWER LINES DOWN NEAR THE INTERSECTION OF SYLVANIA AVENUE AND KILBURN ROAD. (CLE)
2308,UNK,2 NNW DEERFIELD,LENAWEE,MI,41.92,-83.79,BARN DESTROYED WITH DEBRIS SCATTERED UP TO 50 YARDS AWAY (DTX)
2310,UNK,4 NW MCCOMB,HANCOCK,OH,41.15,-83.84,HANCOCK COUNTY SHERIFF REPORTS A BARN COLLAPSED DUE TO WINDS ON TOWNSHIP ROAD 118 IN NW HANCOCK COUNTY. (CLE)
2311,UNK,MARENGO,CRAWFORD,IN,38.37,-86.34,TREE DOWN OVER POWER LINE. TIME ESTIMATED FROM RADAR. (LMK)
2315,63,3 E MADISONVILLE,HOPKINS,KY,37.34,-87.45,MEASURED AT THE MUNICIPAL AIRPORT NEAR MADISONVILLE (PAH)
2323,UNK,CROFTON,CHRISTIAN,KY,37.05,-87.48,POWER OUTAGES IN SOUTHERN PART OF THE CROFTON. ALSO...PEA SIZE HAIL (PAH)
2330,UNK,1 S GREENVILLE,MUHLENBERG,KY,37.19,-87.18,SEVERAL TREES DOWN (PAH)
2330,61,2 WSW CENTRAL CITY,MUHLENBERG,KY,37.28,-87.16,MEASURED AT A KENTUCKY MESONET SITE (PAH)
2330,61,2 WSW CENTRAL CITY,CLINTON,IL,38.54,-89.16,MEASURED AT A KENTUCKY MESONET SITE (PAH)
2338,UNK,2 E CENTERTOWN,OHIO,KY,37.42,-86.96,TREE DOWN ON CENTRAL GROVE ROAD. TIME ESTIMATED FROM RADAR. (LMK)
2338,UNK,LANESVILLE,HARRISON,IN,38.24,-85.99,3-4 LARGE TREES DOWN (LMK)
2342,UNK,5 SE CROFTON,CHRISTIAN,KY,37,-87.42,ONE LARGE TREE DOWN (PAH)
2344,65,HOPKINSVILLE,CHRISTIAN,KY,36.85,-87.49,POWER OUTAGES IN THE CITY AND NORTHERN PART OF THE COUNTY (PAH)
2344,UNK,3 NNE CANTON,WAYNE,MI,42.34,-83.46,MULTIPLE BUILDINGS AND VEHICLES DAMAGED IN INDUSTRIAL AREA ALONG LILLEY BETWEEN WARREN AND JOY. (DTX)
2347,UNK,3 SE EDWARDSVILLE,FLOYD,IN,38.26,-85.86,TREES DOWN ON ROAD...BUDD ROAD AND TOMAHAWK LANE. TIME ESTIMATED BASED ON RADAR. (LMK)
2351,UNK,ROSINE,OHIO,KY,37.45,-86.74,TREES DOWN IN ROSINE. TIME ESTIMATED FROM RADAR. (LMK)
2358,UNK,1 W GOSHEN,OLDHAM,KY,38.41,-85.62,HOUSE FELL OFF ITS STILTS DUE TO THE HIGH WINDS. TIME ESTIMATED FROM RADAR. (LMK)
2359,UNK,1 S JEFFERSONVILLE,CLARK,IN,38.28,-85.73,POWER POLES DOWN. (LMK)
0000,61,1 NNE MCQUADY,BRECKINRIDGE,KY,37.71,-86.51,(LMK)
0004,UNK,3 NNE SHIVELY,JEFFERSON,KY,38.23,-85.8,TREES DOWN. (LMK)
0006,UNK,1 SE SHORT CREEK,GRAYSON,KY,37.53,-86.47,TREES DOWN IN SHORT CREEK. TIME ESTIMATED FROM RADAR. (LMK)
0007,UNK,2 SE BUCKNER,OLDHAM,KY,38.36,-85.42,TREE DOWN AT 4512 CENTERFIELD DRIVE. TIME ESTIMATED FROM RADAR. (LMK)
0010,UNK,4 NNW LEWISBURG,LOGAN,KY,37.04,-86.98,LIMBS DOWN OVER THE ROAD SOUTH OF DUNMOR. TIME ESTIMATED FROM RADAR. (LMK)
0020,UNK,4 E LINDEN,PERRY,TN,35.61,-87.77,LIKELY TORNADO DAMAGE TO HOMES NEAR HWY 412 E AND HURRICANE CREEK RD (OHX)
0022,UNK,LEITCHFIELD,GRAYSON,KY,37.48,-86.29,TREES DOWN IN LEITCHFIELD. TIME ESTIMATED FROM RADAR. (LMK)
0022,UNK,2 NE LOUISVILLE,JEFFERSON,KY,38.24,-85.71,TREE DOWN ON A BUILDING. (LMK)
0025,UNK,8 ESE LINDEN,PERRY,TN,35.57,-87.71,*** 2 FATAL *** 2 DEATHS IN HOUSE BETWEEN LINDEN AND HOHENWALD (OHX)
0026,UNK,N MOUNT PLEASANT,MAURY,TN,35.55,-87.19,REPORTS OF POWER LINES DOWN AND TREES DOWN AND ROOF DAMAGE IN MT PLEASANT. (OHX)
0034,UNK,8 N HOHENWALD,HICKMAN,TN,35.67,-87.56,TREES DOWN. REPORT RECEIVED VIA TWITTER. (OHX)
0034,UNK,RINEYVILLE,HARDIN,KY,37.75,-85.97,TREES DOWN ACROSS HARDIN COUNTY. TIME ESTIMATED FROM RADAR (LMK)
0040,UNK,2 SSW MORGANTOWN,BUTLER,KY,37.19,-86.71,TREE DOWN OVER RUSSELLVILLE ROAD SOUTH OF MORGANTOWN. TIME ESTIMATED FROM RADAR. REPORT VIA SOCIAL MEDIA. (LMK)
0042,UNK,1 ESE HUNTINGTON,HUNTINGTON,IN,40.88,-85.49,TREE DOWN AT RIVERSIDE DR. AND WHITELOCK ST. (IWX)
0045,UNK,12 NW DICKSON,DICKSON,TN,36.2,-87.53,TWO REPORTS OF TREES DOWN ONE AT LEAST 2 FEET IN DIAMETER AND 60 CUSTOMERS WITHOUT POWER NEAR HWY 49 WEST AND HWY 46 NORTH. (OHX)
0049,UNK,4 SE OWENTON,OWEN,KY,38.5,-84.79,TREE BLOWN DOWN. (ILN)
0052,75,KYMESO OWENTON 5E,OWEN,KY,38.55,-84.74,KENTUCKY MESONET STATION MEASURED WIND GUST. (ILN)
0058,UNK,3 N HIGHGROVE,SPENCER,KY,38.01,-85.48,COUNTY EM REPORTED TREES DOWN ON MAX ROUSE RD IN SOUTHWEST SPENCER. TIME ESTIMATED BASED ON RADAR. (LMK)
0100,UNK,3 N WATERLOO,LAUDERDALE,AL,34.96,-88.06,SMALL TREES DOWN ALONG COUNTY ROAD 54 BETWEEN CR 14 AND 21. TIME ESTIMATED FROM RADAR. (HUN)
0100,60,CRITTENDEN,GRANT,KY,38.78,-84.61,(ILN)
0111,UNK,4 NNW FALMOUTH,PENDLETON,KY,38.72,-84.37,TWO TRAILERS BLOWN OVER (ILN)
0112,UNK,1 ENE WAKEFIELD,SPENCER,KY,37.97,-85.28,MORE TREES DOWN ON CECIL NOEL ROAD. TIME ESTIMATED BASED ON TDWR. (LMK)
0114,UNK,1 S SHELBYVILLE,SHELBY,KY,38.2,-85.23,TREE DOWN ON KENTUCKY STREET. TIME ESTIMATED FROM RADAR. (LMK)
0116,UNK,11 WSW COLLINWOOD,WAYNE,TN,35.12,-87.92,WAYNE COUNTY POST OFFICE DESTROYED IN LUTTS. MULTIPLE HOMES DAMAGED AND POWERLINES DOWN. MULTIPLE INJURIES REPORTED. REPORT WAS RELAYED BY LAWRENCE CO EMA. LIKELY TORNA (OHX)
0116,UNK,5 SSE NEW RICHMOND,CAMPBELL,KY,38.89,-84.24,BARN BLOWN OVER NEAR LANES END RD. WITH NUMEROUS TREES DOWN THROUGHOUT COUNTY. TIME ESTIMATED BY RADAR. (ILN)
0117,UNK,WAX,GRAYSON,KY,37.35,-86.13,TREES DOWN IN THE TOWN OF WAX. TIME ESTIMATED FROM RADAR. (LMK)
0119,UNK,5 SW FELICITY,BRACKEN,KY,38.78,-84.17,SEVERAL TREES DOWN ACROSS COUNTY... INCLUDING ALONG SNAG CREEK RD. TIME ESTIMATED BY RADAR. (ILN)
0126,UNK,2 WNW UPTON,HARDIN,KY,37.48,-85.92,TREES DOWN ACROSS HARDIN COUNTY. TIME ESTIMATED FROM RADAR. (LMK)
0130,UNK,12 NW LAWRENCEBURG,LAWRENCE,TN,35.37,-87.49,DAMAGE TO HOME ON NAPIER RD. FIRE AND RESCUE RESPONDING. POSSIBLE TORNADO. (OHX)
0130,UNK,4 NNW FALMOUTH,PENDLETON,KY,38.72,-84.37,TWO TRAILERS BLOWN OVER. (ILN)
0133,UNK,1 S HODGENVILLE,LARUE,KY,37.55,-85.73,A COUPLE TREES DOWN IN HODGENVILLE. TIME ESTIMATED FROM RADAR. (LMK)
0135,UNK,SADIEVILLE,SCOTT,KY,38.39,-84.54,SEVERAL SMALL TREES DOWN. (LMK)
0138,UNK,8 N ETHRIDGE,LAWRENCE,TN,35.44,-87.3,HOME RECEIVED DAMAGE ON HWY 20 FROM LIKELY TORNADO. (OHX)
0145,UNK,MILLVILLE,WOODFORD,KY,38.13,-84.82,TREES DOWN THROUGHOUT WOODFORD COUNTY. TIME ESTIMATED FROM RADAR. (LMK)
0150,63,3 ENE PROVIDENCE,SIMPSON,KY,36.69,-86.63,(LMK)
0150,63,4 NE ALTON,FRANKLIN,KY,38.12,-84.88,(LMK)
0205,UNK,4 E VERSAILLES,WOODFORD,KY,38.04,-84.66,TREES DOWN THROUGHOUT WOODFORD COUNTY. TIME ESTIMATED FROM RADAR. (LMK)
0206,UNK,KELAT,HARRISON,KY,38.52,-84.3,TREES DOWN ACROSS HIGHWAY 1032E. (LMK)
0213,UNK,5 NW LEXINGTON,FAYETTE,KY,38.1,-84.53,MANY REPORTS OF TREES DOWN IN THE CITY AND COUNTY CAUSING TRAFFIC PROBLEMS. (LMK)
0240,UNK,2 NW EWING,FLEMING,KY,38.45,-83.89,TREE BLOCKING CONNECTOR ROAD. (JKL)
0304,90,4 ESE BLACK GNAT,TAYLOR,KY,37.27,-85.38,AN NWS STORM SURVEY CONCLUDED 90-100 MPH WINDS CAUSED DAMAGE TO SIX BARNS AND AN RV IN WESTERN TAYLOR COUNTY. (LMK)
0307,UNK,4 ESE BLACK GNAT,TAYLOR,KY,37.28,-85.38,ROOF DAMAGE... CAMPER BLOWN OVER... TREES AND POWER LINES DOWN. BARNS DAMAGED. NEAR HWY 55 AND OLD COLUMBIA ROAD... AND MCLEAN ROAD NEAR GREEN COUNTY LINE. (LMK)
0324,UNK,NEWCOMERSTOWN,TUSCARAWAS,OH,40.27,-81.6,A FEW TREE LIMBS DOWN (PBZ)
0328,UNK,MURFREESBORO,RUTHERFORD,TN,35.85,-86.39,SIGN BLOWN DOWN AT ARBYS IN MURFREESBORO... AT OLD FORT PARKWAY AND I-24. (OHX)
0354,UNK,6 N LEBANON,WILSON,TN,36.3,-86.32,A TREE WAS BLOWN DOWN ON BELOTES FERRY RD NEAR FLIPPEN RD. (OHX)
0405,UNK,POMEROY,MEIGS,OH,39.03,-82.03,TREES DOWN ON POWER LINES. (RLX)
0412,UNK,ALEXANDRIA,DE KALB,TN,36.08,-86.03,TREES DOWN IN THE ALEXANDRIA AREA INCLUDING A TREE ON A HOUSE ON LOWER HELTON RD. (OHX)
0420,UNK,5 SE GORDONSVILLE,SMITH,TN,36.13,-85.87,GARAGE DESTROYED... PORCHES REMOVED... AND ROOF DAMAGE ON MAYNARD HOLLOW LN. POSSIBLE TORNADO. (OHX)
0425,UNK,8 ENE GAINESBORO,JACKSON,TN,36.4,-85.52,TREES BLOCKING THE ROAD... ALONG HIGHWAY 85... NEAR JACKSON/OVERTON COUNTY LINE. (OHX)
0430,UNK,PARKERSBURG,WOOD,WV,39.26,-81.54,DAMAGE IN THE VICINITY OF SOUTH 6TH STREET IN PARKERSBURG WEST VIRGINIA. DAMAGE TO SEVERAL TRAILERS INCLUDING ROOF DAMAGE AND DAMAGE TO UNDERPINNINGS. SEVERAL LARGE TRE (RLX)
0454,UNK,7 NNE LIVINGSTON,OVERTON,TN,36.48,-85.28,TREES DOWN ON POWERLINES ON WILLOW GROVE HIGHWAY. (OHX)
0507,UNK,5 SSE CUMBERLAND CITY,CLINTON,KY,36.74,-85.02,TREE REPORTED DOWN NEAR DAVIS ROAD ALONG THE WAYNE COUNTY LINE. TIME ESTIMATED FROM RADAR. (LMK)
0610,UNK,3 SSW ELBA,COFFEE,AL,31.37,-86.1,TREE DOWN ACROSS THE ROAD. TIME ESTIMATED FROM RADAR. (TAE)
0610,UNK,ELBA,COFFEE,AL,31.52,-85.86,TREE DOWN IN ELBA. TIME ESTIMATED FROM RADAR. (TAE)
0730,UNK,WHITE CLOUD,NEWAYGO,MI,43.57,-85.77,NUMEROUS TREES AND POWER LINES DOWN THROUGHOUT NEWAYGO COUNTY. AT LEAST 5000 WITHOUT POWER. (GRR)
1046,UNK,2 WSW HANLIN,PAULDING,GA,33.93,-84.95,HAM RADIO REPORTS MULTIPLE TREES DOWN IN THE AREA. (FFC)
1055,UNK,1 SSW RED TOP MOUNTAIN,BARTOW,GA,34.14,-84.71,MULTIPLE TREES DOWN ON RED TOP MOUNTAIN ALONG IRON HILL TRAIL. (FFC)
Time,Size,Location,County,State,Lat,Lon,Comments
1200,100,GARVIN,MCCURTAIN,OK,33.95,-94.93,(SHV)
1300,200,6 SSW DOWNTOWN MOBILE,MOBILE,AL,30.63,-88.1,2 INCH HAIL REPORTED VIA BROADCAST MEDIA. SIZE ESTIMATED FROM VIEWER PHOTO. (MOB)
1900,100,11 SW PARAGOULD,CRAIGHEAD,AR,35.94,-90.65,QUARTER SIZED HAIL REPORTED 11 MILES SW OF PARAGOULD (MEG)
1910,175,DES ARC,PRAIRIE,AR,34.98,-91.51,REPORT OF GOLF BALL SIZED HAIL IN DES ARC. (LZK)
1920,150,2 N ENGLAND,LONOKE,AR,34.57,-91.97,(LZK)
1921,175,NEEDHAM,CRAIGHEAD,AR,35.82,-90.54,(MEG)
1927,275,VALLEY VIEW,CRAIGHEAD,AR,35.78,-90.74,(MEG)
1937,125,1 S CARLISLE,LONOKE,AR,34.77,-91.75,(LZK)
1958,100,KENNETT,DUNKLIN,MO,36.24,-90.05,(MEG)
2002,175,FAIR OAKS,CROSS,AR,35.23,-91.03,(MEG)
2004,100,SIKESTON,SCOTT,MO,36.88,-89.58,QUARTER SIZE HAIL REPORTED VIA MULTI MEDIA. (PAH)
2005,200,COTTON PLANT,WOODRUFF,AR,35.01,-91.25,(LZK)
2033,100,VILLA RIDGE,PULASKI,IL,37.16,-89.19,(PAH)
2043,175,LAKE CITY,CRAIGHEAD,AR,35.82,-90.45,(MEG)
2049,100,2 N MONROE CITY,MARION,MO,39.68,-91.73,(LSX)
2100,100,7 W SPAULDING,RALLS,MO,39.62,-91.66,(LSX)
2103,175,PROVIDENCE,WEBSTER,KY,37.4,-87.75,GOLF BALL SIZE HAIL REPORTED. (PAH)
2107,100,PALMYRA,MARION,MO,39.8,-91.52,MARION COUNTY 911 REPORTS QUARTER SIZE HAIL NEAR PALMYRA (LSX)
2122,150,QUINCY,ADAMS,IL,39.93,-91.39,REPORT RELAYED THROUGH AMATEUR RADIO (LSX)
2131,175,WINGO,GRAVES,KY,36.64,-88.74,BRIEF PERIOD OF VERY LARGE HAIL REPORTED. (PAH)
2138,100,ELVA,MARSHALL,KY,36.93,-88.48,QUARTER SIZE HAIL REPORTED. (PAH)
2152,100,GOLDEN,ADAMS,IL,40.11,-91.02,HAIL RANGING FROM PEAS TO QUARTERS REPORTED IN GOLDEN. VISIBILITY LESS THAN 100 FT IN HEAVY RAIN. (LSX)
2200,100,2 E DYERSBURG,DYER,TN,36.04,-89.34,QUARTER SIZED HAIL AND GUSTY WINDS ON EAST SIDE OF DYERSBURG. (MEG)
2218,150,MASON,TIPTON,TN,35.41,-89.54,PING PONG SIZE HAIL IN MASON TN (MEG)
2218,100,SLAUGHTERS,WEBSTER,KY,37.49,-87.5,QUARTER SIZE HAIL REPORTED. (PAH)
2308,100,2 ENE DUKES,HANCOCK,KY,37.83,-86.67,(LMK)
2320,175,1 ESE RHODELIA,MEADE,KY,38,-86.4,(LMK)
2336,100,CORYDON,HARRISON,IN,38.21,-86.13,(LMK)
2350,100,1 SE NEW ALBANY,FLOYD,IN,38.29,-85.81,REPORT VIA SOCIAL MEDIA. TIME ESTIMATED FROM RADAR (LMK)
0000,100,2 S CLARKSVILLE,CLARK,IN,38.29,-85.76,DELAYED REPORT. (LMK)
0135,100,3 NNE FRANKFORT,FRANKLIN,KY,38.23,-84.85,MEASURED NORTH OF FRANKFORT. TIME ESTIMATED FROM RADAR. REPORT VIA SOCIAL MEDIA. (LMK)
