Time,F_Scale,Location,County,State,Lat,Lon,Comments
1424,UNK,1 NE DUCKTOWN,FORSYTH,GA,34.25,-84.22,AN NWS SURVEY TEAM DETERMINED THAT A BRIEF EF0 TORNADO DEVELOPED ALONG A LINE OF MAINLY SHOWERS MONDAY MORNING IN WESTERN PORTIONS OF FORSYTH COUNTY. THE TORNADO FIRST (FFC)
1831,UNK,1 NW PROSPECT,BUTLER,PA,40.91,-80.07,EF0 DAMAGE AT MAIN ST AND DOUGLAS ST (PBZ)
1856,UNK,1 ENE ELDORADO,BUTLER,PA,41.09,-79.73,A FOCUSED... NARROW SWATH OF TORNADIC DAMAGE WAS DISCOVERED IN THE WOODS ALONG ELDORADO ROAD. THE DAMAGE IN THIS AREA CONSISTED OF A NARROW PATH OF SNAPPED AND UPROOTED (PBZ)
1909,UNK,WENTLINGS CORNERS,CLARION,PA,41.19,-79.55,A COHERENT... ONE MILE-LONG DAMAGE PATH WAS IDENTIFIED ALONG ROUTE 338 THROUGH THE WENTLINGS CORNERS AREA. THE TORNADO WAS RATED EF0. (PBZ)
1926,UNK,1 N TURKEY RIDGE,CLARION,PA,41.33,-79.25,A BRIEF BUT FOCUSED TORNADIC CIRCULATION CAUSED DAMAGE TO TREES OVER A NARROW PATH FROM WITHIN THE WOODED AREA NORTHEAST OF GRAVEL LICK ROAD AND CONTINUING ACROSS ROUTE (PBZ)
1927,UNK,1 NE FRILLS CORNERS,CLARION,PA,41.41,-79.36,A FOCUSED SWATH OF CONVERGENT DAMAGE...COMPRISED OF SNAPPED HARDWOOD AND SOFTWOOD TREES...WAS SURVEYED ALONG RED PINE CIRCLE. A DISTINCT TRACK SEEMINGLY ASSOCIATED WITH (PBZ)
2008,UNK,DAHOGA,ELK,PA,41.6,-78.72,AN EF1 TORNADO WITH MAXIMUM WINDS OF APPROXIMATELY 110 MPH WAS CONFIRMED BY A NWS SURVEY. (CTP)
2244,UNK,REBERSBURG,CENTRE,PA,40.94,-77.49,AN EF1 TORNADO WITH PEAK WINDS OF APPROXIMATELY 110 MPH WAS CONFIRMED BY A NWS SURVEY. (CTP)
Time,Speed,Location,County,State,Lat,Lon,Comments
1233,UNK,5 SSW HILLSBORO,HIGHLAND,OH,39.14,-83.66,SOME MINOR ROOF AND SIDING DAMAGE TO SEVERAL HOUSES ALONG MILLER LANE. SMALL PORCH PILLAR BLOWN OUT AND SEVERAL TREES DOWNED IN AREA. TIME ESTIMATED BY RADAR. (ILN)
1238,UNK,MARYSVILLE,UNION,OH,40.24,-83.37,A FEW TREES DOWN. TIME ESTIMATED FROM RADAR. (ILN)
1505,UNK,3 E FRANKLIN FURNACE,SCIOTO,OH,38.61,-82.79,A LARGE TREE WAS DOWNED ALONG BIG PETE ROAD. TIME ESTIMATED BY RADAR. (ILN)
1535,UNK,5 N RIO GRANDE,GALLIA,OH,38.95,-82.38,MULTIPLE TREES DOWN BETWEEN VINTON AND RIO GRANDE. (RLX)
1540,UNK,SALEM CENTER,MEIGS,OH,39.05,-82.28,MULTIPLE TREES AND POWERLINES DOWN SOUTHWESTERN MEIGS COUNTY. (RLX)
1615,UNK,COSHOCTON,COSHOCTON,OH,40.26,-81.85,TREES DOWN (PBZ)
1645,UNK,4 SW FLEMING,WASHINGTON,OH,39.35,-81.67,SINGLE TREE DOWN IN VINCENT... OH -- VIA SOCIAL MEDIA. (RLX)
1645,UNK,SARAHSVILLE,NOBLE,OH,39.81,-81.47,TREES DOWN ALONG STATE ROUTES 215... 285... AND 147 (PBZ)
1656,UNK,6 NW ANTRIM,GUERNSEY,OH,40.18,-81.44,NUMEROUS TREES DOWN (PBZ)
1700,UNK,BATESVILLE,NOBLE,OH,39.91,-81.28,SEVERAL TREES DOWN (PBZ)
1700,UNK,LORE CITY,GUERNSEY,OH,39.98,-81.46,SHINGLE/ROOF DAMAGE TO BUCKEYE TRAIL HIGH SCHOOL. (PBZ)
1705,UNK,UHRICHSVILLE,TUSCARAWAS,OH,40.4,-81.35,POWER LINES AND TREES DOWN IN UHRICHVILLE (PBZ)
1709,UNK,MARIETTA,WASHINGTON,OH,39.42,-81.45,SOCIAL MEDIA REPORT OF TREES AND POWER LINES DOWN ALONG ARRENDS RIDGE ROAD FROM OHIO-60 TO OHIO-821 (RLX)
1713,UNK,4 W DELLROY,TUSCARAWAS,OH,40.55,-81.27,SEVERAL TREES DOWN (PBZ)
1715,UNK,TAPPAN,HARRISON,OH,40.36,-81.21,ROOF BLOWN OFF RESTAURANT AT TAPPAN LAKE MARINA (PBZ)
1715,UNK,1 NE LEESVILLE,CARROLL,OH,40.47,-81.19,SEVERAL TREES DOWN (PBZ)
1720,UNK,DOVER,TUSCARAWAS,OH,40.53,-81.48,MANY TREES DOWN ON BOULEVARD ST. RT. 800 IN DOVER. (PBZ)
1739,UNK,SMITHFIELD,JEFFERSON,OH,40.27,-80.78,TREES DOWN (PBZ)
1740,UNK,SALEM,COLUMBIANA,OH,40.9,-80.85,TREES DOWN (PBZ)
1742,UNK,10 NNE GIRARD,TRUMBULL,OH,41.29,-80.62,SEVERAL 3 TO 4 INCH DIAMETER BRANCHES DOWN BY THUNDERSTORM WINDS. TIME IS ESTIMATED. (CLE)
1749,70,CANFIELD,MAHONING,OH,41.03,-80.77,(CLE)
1752,UNK,2 WNW BOARDMAN,MAHONING,OH,41.04,-80.7,SEVERAL TREES DOWN ON CHERRYWOOD DRIVE IN BOARDMAN TOWNSHIP. ONE TREE SEVERELY DAMAGED THE SECOND FLOOR OF A RESIDENCE. (CLE)
1752,67,11 N YOUNGSTOWN,TRUMBULL,OH,41.26,-80.65,YNG AIRPORT (CLE)
1755,UNK,NEW GARDEN,COLUMBIANA,OH,40.8,-80.93,MULTIPLE LARGE TREES DOWN IN NEW GARDEN (PBZ)
1800,UNK,MOUNDSVILLE,MARSHALL,WV,39.92,-80.74,TREES DOWN (PBZ)
1805,UNK,1 W HERMITAGE,MERCER,PA,41.23,-80.46,LARGE TREE DOWN ON A APARTMENT BUILDING (PBZ)
1805,UNK,1 W CONNEAUTVILLE,CRAWFORD,PA,41.76,-80.39,TREES DOWN IN SPRINGFIELD AND CONNEAUT TOWNSHIPS. (CLE)
1811,UNK,YOUNGSTOWN,MAHONING,OH,41.1,-80.65,TREE DOWN ONTO CAR. (CLE)
1813,UNK,FLORENCE,WASHINGTON,PA,40.44,-80.44,MANY LARGE TREES DOWN (PBZ)
1816,UNK,GREENVILLE,MERCER,PA,41.41,-80.38,TREE LIMBS DOWN. (PBZ)
1822,UNK,1 NNE MEADVILLE,CRAWFORD,PA,41.66,-80.14,LARGE TREE DOWN AT THE INTERSECTION OF CARROLL AVENUE AND MAIN STREET. (CLE)
1824,UNK,1 E PYLES MILLS,BUTLER,PA,40.87,-80.16,LIMBS SNAPPED OFF POPLAR TREE AND UPROOTED SOFTWOOD TREE ENCOUNTERED ALONG JENNIE LANE. (PBZ)
1825,UNK,1 SSW BUDAVILLE,WASHINGTON,PA,40.14,-80.47,MULTIPLE TREES DOWN (PBZ)
1830,UNK,7 W EDINBORO,ERIE,PA,41.87,-80.26,TREES DOWN BY THUNDERSTORM WINDS. (CLE)
1830,UNK,MILL VILLAGE,ERIE,PA,41.88,-79.97,TREE DOWN BY THUNDERSTORM WIND ONTO A HOUSE. (CLE)
1836,62,3 N GROVE CITY,MERCER,PA,41.2,-80.09,MEASURED ON DAVIS ANEMOMETER (PBZ)
1840,UNK,2 SE BUTLER,BUTLER,PA,40.84,-79.87,LARGE BRANCHES GREATER THAN 2 INCHES DOWN (PBZ)
1847,UNK,1 S CASTLE SHANNON,ALLEGHENY,PA,40.35,-80.02,LARGE LIMB REPORTED DOWN ALONG ROBERTS DRIVE (PBZ)
1850,UNK,5 S CLINTONVILLE,BUTLER,PA,41.13,-79.88,TREE UPROOTED (PBZ)
1855,UNK,SHINNSTON,HARRISON,WV,39.39,-80.3,MULTIPLE TREES AND POWERLINES DOWN FROM SHINSTON TO GRAFTON. (RLX)
1900,UNK,RENO,VENANGO,PA,41.41,-79.75,TREES SNAPPED AND UPROOTED IN RENO TWP (PBZ)
1903,UNK,4 SW CHAUTAUQUA,CHAUTAUQUA,NY,42.16,-79.53,TREE DOWN ON STEDMAN-SHERMAN RD. (BUF)
1907,UNK,BRACKENRIDGE,ALLEGHENY,PA,40.61,-79.74,TREE UPROOTED (PBZ)
1908,UNK,FAIRMONT,MARION,WV,39.48,-80.15,LARGE TREE AND LARGE LIMBS GREATER THAN 2 INCHES DOWN. (PBZ)
1915,UNK,SE WARE SHOALS,GREENWOOD,SC,34.39,-82.24,A TREE FELL ON TERESA DRIVE. (GSP)
1915,UNK,KNOX,CLARION,PA,41.23,-79.54,TREES DOWN (PBZ)
1916,UNK,WORTHINGTON,ARMSTRONG,PA,40.84,-79.63,SEVERAL TREES DOWN (PBZ)
1918,78,3 SSW SINCLAIRVILLE,CHAUTAUQUA,NY,42.23,-79.28,(BUF)
1920,UNK,MASONTOWN,FAYETTE,PA,39.85,-79.91,SEVERAL LARGE TREES DOWN (PBZ)
1920,UNK,VERSAILLES,CATTARAUGUS,NY,42.52,-79,TREES AND LINES DOWN (BUF)
1923,UNK,1 E SNYDERSBURG,CLARION,PA,41.33,-79.34,LIMBS SNAPPED ALONG ROUTE 66 (PBZ)
1925,UNK,2 ENE TIDIOUTE,WARREN,PA,41.69,-79.37,NUMEROUS TREES DOWN ALONG DAVEY HILL ROAD (CTP)
1929,UNK,COLLINS,ERIE,NY,42.5,-78.92,TREES DOWN. (BUF)
1930,UNK,FAIRMONT,FAYETTE,PA,39.94,-79.44,LARGE TREE AND LARGE LIMBS GREATER THAN 2 INCHES DOWN. (PBZ)
1930,UNK,TIONESTA,FOREST,PA,41.5,-79.45,MULTIPLE TREES DOWN IN TIONESTA AND ENDEVOUR (PBZ)
1932,UNK,2 NNW GREENWOOD,GREENWOOD,SC,34.22,-82.17,A TREE WAS BLOCKING COKESBURY ROAD NEAR GREENWOOD HIGH SCHOOL. (GSP)
1936,UNK,2 SW PERRYSBURG,CATTARAUGUS,NY,42.44,-79.03,TREES AND LINES DOWN (BUF)
1936,UNK,BLASDELL,ERIE,NY,42.8,-78.83,LARGE TREE DOWN ON GILBERT. (BUF)
1936,UNK,NORTH TONAWANDA,NIAGARA,NY,43.04,-78.87,TREE DOWN ON HOUSE. (BUF)
1938,UNK,1 WSW MAYBURG,FOREST,PA,41.58,-79.22,TREES DOWN ACROSS ROUTE 666 (PBZ)
1938,UNK,1 SE WARREN,WARREN,PA,41.83,-79.13,TREES AND WIRES DOWN ON CANTON STREET (CTP)
1938,63,2 SW BLASDELL,ERIE,NY,42.78,-78.86,(BUF)
1940,UNK,5 SSE VALE,LINCOLN,NC,35.47,-81.37,ONE TREE REPORTED DOWN IN THE HOWARDS CREEK AREA BLOCKING A ROAD. ANOTHER TREE REPORTED DOWN ON HIGHWAY 182. BOTH FELL ROUGHLY THE SAME TIME AS THE STORM PASSED. (GSP)
1941,UNK,4 SE NINETY SIX,GREENWOOD,SC,34.13,-81.97,POLICE SAID TREES WERE DOWN OUT FROM NINETY SIX CLOSER TO THE COUNTY BORDER. (GSP)
1943,66,1 W LAWSON HEIGHTS,WESTMORELAND,PA,40.29,-79.41,MEASRED AT LBE AIRPORT (PBZ)
1945,UNK,2 W CHARLEROI,WASHINGTON,PA,40.14,-79.94,TREES SNAPPED AND LARGE LIMBS DOWN (PBZ)
1945,UNK,FRANKLIN,VENANGO,PA,41.39,-79.84,TREES SNAPPED AND UPROOTED IN RENO TWP (PBZ)
1954,UNK,BLAIRSVILLE,INDIANA,PA,40.43,-79.26,LARGE PINE TREE UPROOTED. SEVERAL LARGE BRACHES ALSO DOWN (PBZ)
1955,UNK,2 N MAIDEN,CATAWBA,NC,35.61,-81.2,EMERGENCY MNGR REPORTED TREES DOWN ON JACK WHITENER RD AND PRISON CAMP RD IN MAIDEN. (GSP)
1955,UNK,3 S SHEFFIELD,WARREN,PA,41.65,-79.03,TREES DOWN ALOING ROUTE 666 SOUTH OF SHEFFIELD (CTP)
1957,UNK,MEDINA,ORLEANS,NY,43.22,-78.39,TREES AND WIRES DOWN. (BUF)
2000,UNK,PUNXSUTAWNEY,JEFFERSON,PA,40.94,-78.98,MULTIPLE TREES DOWN IN BROOKVILLE... PUNXSUTAWNEY... YOUNG TWP... BARNETT. (PBZ)
2000,UNK,2 SSW JAMES CITY,ELK,PA,41.59,-78.84,WIDESPREAD TREES DOWN ALONG ROUTE 66 (CTP)
2004,61,10 E BROOKVILLE,JEFFERSON,PA,41.18,-78.9,RECORDED AT DUJ AIRPORT (PBZ)
2004,78,3 SSW SINCLAIRVILLE,CHAUTAUQUA,NY,42.23,-79.28,(BUF)
2005,UNK,ALEXANDER,GENESEE,NY,42.9,-78.26,TREES DOWN BEAVER ROAD. (BUF)
2005,UNK,1 NW ALABAMA,GENESEE,NY,43.1,-78.39,POWERLINES DOWN ON LEVITA ROAD. (BUF)
2012,UNK,ALBION,ORLEANS,NY,43.25,-78.19,TREES AND WIRES DOWN. (BUF)
2015,UNK,3 SW CATAWBA,CATAWBA,NC,35.67,-81.11,EMERGENCY MNGR REPORTED TREES DOWN AT DOVER ST. AND BALLS CREEK RD (GSP)
2017,60,6 NE CLYMER,INDIANA,PA,40.73,-78.92,(PBZ)
2019,UNK,1 E CUSTER CITY,MCKEAN,PA,41.91,-78.63,A MICROBURST AND GUSTNADO WITH MAXIMUM WINDS ESTIMATED NEAR 90 MPH WAS CONFIRMED BY A NWS SURVEY. (CTP)
2020,UNK,2 NNE IRON STATION,LINCOLN,NC,35.47,-81.14,A REPORT OF A TREE BLOCKING HIGHWAY 73. (GSP)
2023,UNK,3 W STATESVILLE,IREDELL,NC,35.78,-80.94,TRAINED SPOTTER REPORTED TREES AND POWER LINES DOWN ON KENTWOOD RD IN STATESVILLE (GSP)
2023,UNK,5 ESE LOVE VALLEY,IREDELL,NC,35.95,-80.9,TRAINED SPOTTER REPORTED TREES AND POWER LINES DOWN ON FRIENDSHIP RD (GSP)
2023,UNK,ARCADE,WYOMING,NY,42.53,-78.43,TREE DOWN (BUF)
2024,UNK,OLEAN,CATTARAUGUS,NY,42.08,-78.43,TREE DOWN. (BUF)
2025,UNK,2 NW OAKFIELD,GENESEE,NY,43.08,-78.3,STRAIGHT LINE WIND DAMAGE...NUMEROUS TREES DOWN NEAR EAST SHELBY ROAD. (BUF)
2026,UNK,PAVILION,GENESEE,NY,42.89,-78.04,TREE DOWN ON LINWOOD ROAD. (BUF)
2028,UNK,2 SE BRANDY CAMP,ELK,PA,41.32,-78.67,WIDESPREAD TREES DOWN (CTP)
2030,UNK,PIKE,WYOMING,NY,42.56,-78.15,TREE DOWN (BUF)
2034,UNK,CUBA,ALLEGANY,NY,42.22,-78.28,NUMEROUS TREES AND LINES DOWN (BUF)
2040,UNK,CURWENSVILLE,CLEARFIELD,PA,40.97,-78.52,TREES AND WIRES DOWN (CTP)
2040,UNK,5 SW BOLIVAR,ALLEGANY,NY,42.02,-78.24,NUMEROUS TREES AND LINES DOWN (BUF)
2042,UNK,6 SSW YADKINVILLE,YADKIN,NC,36.06,-80.7,TWO TREES DOWN ON LONE HICKORY ROAD (RNK)
2042,UNK,5 E SPENCERPORT,MONROE,NY,43.19,-77.71,LARGE TREE DOWN... BEECHCRAFT DRIVE GATES NY. (BUF)
2045,UNK,2 N SHINGLEHOUSE,POTTER,PA,41.99,-78.19,ROOF AND BUILDING DAMAGE (CTP)
2045,UNK,PORTAGEVILLE,WYOMING,NY,42.57,-78.05,TREE DOWN (BUF)
2052,UNK,4 WSW WELLSVILLE,ALLEGANY,NY,42.09,-78.02,SEVERAL TREES SNAPPED OR UPROOTED. (BUF)
2055,60,6 S NUNDA,ALLEGANY,NY,42.49,-77.95,(BUF)
2100,UNK,GROVELAND,LIVINGSTON,NY,42.64,-77.79,SEVERAL TREES DOWN (BUF)
2101,UNK,EAST BEND,YADKIN,NC,36.22,-80.51,ONE TREE FELL ON A HOUSE ALONG HIGHWAY 67 IN TOWN (RNK)
2105,UNK,5 WSW UPTOWN CHARLOTTE,MECKLENBURG,NC,35.21,-80.92,SOCIAL MEDIA REPORTED A TREE DOWN ON BILLY GRAHAM PARKWAY AND MORRIS FIELD DR. (GSP)
2105,UNK,JOHNSTOWN,CAMBRIA,PA,40.33,-78.92,TREE ON HOUSE ON VENANGO STREET (CTP)
2114,60,OAKLAND,GARRETT,MD,39.41,-79.41,(PBZ)
2115,59,HARTSVILLE,STEUBEN,NY,42.25,-77.7,(BGM)
2117,UNK,LAWSONVILLE,STOKES,NC,36.48,-80.25,THUNDERSTORM WIND RESULTED IN A TREE DOWN ALONG HWY 704 NEAR LAWSONVILLE... NC. (RNK)
2117,UNK,SPRINGWATER,LIVINGSTON,NY,42.63,-77.59,SEVERAL TREES DOWN (BUF)
2118,UNK,ENOCHVILLE,ROWAN,NC,35.52,-80.67,SOCIAL MEDIA REPORTED A TREE FELL ON A CAR ON WRIGHT RD IN ENOCHVILLE. (GSP)
2120,UNK,MEYERSDALE,SOMERSET,PA,39.82,-79.03,TREES DOWN ACROSS SOMERSET TOWNSHIP. (CTP)
2120,UNK,CANISTEO,STEUBEN,NY,42.27,-77.61,TREES AND POWER LINES DOWN (BGM)
2122,UNK,CHESHIRE,ONTARIO,NY,42.82,-77.33,TREE AND LINES DOWN (BUF)
2132,UNK,3 S SANDY RIDGE,STOKES,NC,36.46,-80.12,THUNDERSTORM WIND DROPPED A TREE ALONG TOM SHELTON ROAD NEAR SANDY RIDGE... NC. (RNK)
2138,UNK,1 W WARRENS MILL,SOMERSET,PA,39.78,-78.98,TREE DOWN. (CTP)
2140,UNK,3 NW BUCKINGHAM,BUCKINGHAM,VA,37.58,-78.6,TREE DOWN ON HOWARDSVILLE RD (RNK)
2142,UNK,4 SE GREENSBORO,GUILFORD,NC,36.05,-79.77,TREE DOWN AT INTERSECTION OF I-40 AND US-29. (RAH)
2142,UNK,URBANA,STEUBEN,NY,42.45,-77.18,POWER LINES DOWN... RADAR ESTIMATED TIME (BGM)
2143,UNK,2 WSW ARCADIA,DAVIDSON,NC,35.95,-80.33,POWER LINES DOWN AT JOE HEGE RD AND MUDDY CREEK RD. TIME ESTIMATED FROM RADAR. (RAH)
2143,UNK,3 N MADISON,ROCKINGHAM,NC,36.42,-79.98,ONE TREE DOWN ON AYERSVILLE ROAD NEAR THE INTERSECTION WITH SQUIRE LOOP (RNK)
2146,UNK,1 W OSWEGO,OSWEGO,NY,43.46,-76.52,LIGHT POST DOWNED ON SUNY OSWEGO CAMPUS (BUF)
2148,60,1 W OSWEGO,OSWEGO,NY,43.46,-76.52,MEASURED ON SUNY OSWEGO CAMPUS. (BUF)
2148,60,1 NW OSWEGO,LOZ044,NY,43.47,-76.52,MEASURED ON SUNY OSWEGO CAMPUS NEAR SHORELINE. (BUF)
2150,UNK,SCHELLSBURG,BEDFORD,PA,40.05,-78.64,NUMEROUS TREES AND WIRES DOWN (CTP)
2152,UNK,3 SW WALNUT COVE,STOKES,NC,36.27,-80.18,THUNDERSTORM WINDS RESULTED IN NUMEROUS TREES DOWN ALONG HWY 65 AND BAUX MOUNTAIN ROAD. (RNK)
2155,UNK,6 S SEDGE GARDEN,DAVIDSON,NC,36.01,-80.14,POWER LINES DOWN NEAR WALLBURG ELEMENTARY SCHOOL. TIME ESTIMATED FROM RADAR. (RAH)
2155,UNK,3 N SEDGE GARDEN,FORSYTH,NC,36.13,-80.14,TREES DOWN NEAR THE INTERSECTION OF WEST MOUNTAIN ST AND DOE RUN DR. (RAH)
2200,UNK,SNOW SHOE,CENTRE,PA,41.03,-77.95,SHED DAMAGED AND TREES DOWN. (CTP)
2205,UNK,6 S EDEN,ROCKINGHAM,NC,36.42,-79.76,ONE TREE DOWN ON ROACH ROAD (RNK)
2206,UNK,1 NNW PAMPLIN CITY,APPOMATTOX,VA,37.28,-78.69,3 TO 4 TREES DOWN ALONG RICHMOND HWY NEAR PAMPLIN. TIME RADAR ESTIMATED. (RNK)
2209,UNK,2 N SPRUCE CREEK,HUNTINGDON,PA,40.65,-78.14,MULTIPLE TREES SNAPPED/SHEARED OFF ON COLERAIN RD NEAR X WITH RT45 (CTP)
2210,UNK,3 S KERNERSVILLE,FORSYTH,NC,36.08,-80.08,TREES DOWN ACROSS ROAD AND POWER LINES. CHEVIOT DR. (RAH)
2210,UNK,STORMSTOWN,CENTRE,PA,40.79,-78.02,POWER LINES DOWN ON ROUTE 550 (CTP)
2212,UNK,CHAUMONT,JEFFERSON,NY,44.07,-76.13,TREE DOWN (BUF)
2214,UNK,ALPINE,SCHUYLER,NY,42.32,-76.72,TREE DOWN... TRAILER DAMAGED AND POWER OUTAGE (BGM)
2215,UNK,MARTINSBURG,BLAIR,PA,40.31,-78.32,EXTENSIVE TREE DAMAGE AT THE MORRISONS COVE PARK IN MARTINSBURG... NUMBEROUS TREES SNAPPED AND UPROOTED. (CTP)
2216,UNK,ALTMAR,OSWEGO,NY,43.51,-76,TREE DOWN ON WIRES (BUF)
2217,UNK,RUSSELLVILLE,HUNTINGDON,PA,40.31,-78.23,60-80 TREES WERE KNOCKED DOWN OR UPROOTED IN A WOODED AREA NEAR RUSSELLVILLE. (CTP)
2222,UNK,WATERTOWN,JEFFERSON,NY,43.97,-75.93,TREES AND LINES DOWN (BUF)
2223,UNK,PLEASANT GAP,CENTRE,PA,40.86,-77.74,TREE DOWN. (CTP)
2223,UNK,TIOGA,TIOGA,PA,41.9,-77.14,STRUCTURAL DAMAGE TO HOME (CTP)
2227,UNK,ALEXANDRIA BAY,JEFFERSON,NY,44.34,-75.92,TREE DOWN (BUF)
2231,UNK,1 NNE LEBO VISTA,LYCOMING,PA,41.4,-77.46,TREES AND WIRES DOWN. (CTP)
2235,UNK,3 SW CARTHAGE,JEFFERSON,NY,43.95,-75.65,TREES AND WIRES DOWN (BUF)
2236,UNK,8 NNE MARTHA,RANDOLPH,NC,35.73,-79.97,TREE DOWN AT INTERSECTION OF HIGHWAY 64 AND SPRING FOREST ROAD. (RAH)
2237,UNK,5 S MAYFIELD,ROCKINGHAM,NC,36.44,-79.58,ONE TREE DOWN ON ESTES ROAD WHERE IT CROSSES WOLF ISLAND CREEK (RNK)
2237,UNK,1 ENE BLAIRS,PITTSYLVANIA,VA,36.69,-79.37,THUNDERSTORM WINDS BROUGHT TREES DOWN ALONG HIGHWAY 29 NEAR LAWLESS CREEK ROAD. (RNK)
2240,UNK,2 NNE HUBLERSBURG,CENTRE,PA,40.99,-77.6,A SWATH OF DOWNED TREES WAS OBSERVED BEHIND HOMES ALONG SAND RIDGE ROAD AND PONDEROSA ROAD. (CTP)
2240,UNK,MORAVIA,CAYUGA,NY,42.71,-76.42,TREES AND POWER LINES DOWN (BGM)
2245,UNK,3 S DANVILLE CITY,CASWELL,NC,36.54,-79.42,THUNDERSTORMS WINDS DOWNED 8 TREES ALL AT ONCE ALONG PRIVATE PROPERTY NORTHEAST OF THE COMMUNITY OF PELHAM... NC. (RNK)
2245,UNK,1 NNE DANVILLE CITY,CITY OF DANVILLE,VA,36.6,-79.41,THUNDERSTORM WINDS DOWNED LARGE TREE LIMBS 8 INCHES IN DIAMETER AT THE INTERSECTION OF RIVERSIDE DRIVE AND CAMELOT COURT. THE ROAD WAS CLOSED TEMPORARILY. (RNK)
2245,UNK,LOCK HAVEN,CLINTON,PA,41.14,-77.45,NUMEROUS TREES DOWN (CTP)
2251,UNK,1 SE SEAGROVE,RANDOLPH,NC,35.53,-79.76,TREE DOWN NEAR THE INTERSECTION OF OLD HIGHWAY 220 AND HIGHWAY 705. (RAH)
2251,UNK,3 ESE ASHEBORO,RANDOLPH,NC,35.71,-79.77,TREE DOWN ON LUCK ROAD NEAR FALCON HILLS DRIVE. (RAH)
2251,UNK,1 NNE LEBO VISTA,LYCOMING,PA,41.4,-77.46,TREES AND WIRES DOWN. (CTP)
2253,UNK,5 W ELMO,PITTSYLVANIA,VA,36.66,-79.23,THUNDERSTORM WINDS DOWNED A TREE ALONG SLAYTON ROAD NEAR SUTHERLIN... VA. (RNK)
2253,UNK,3 N HURT,CAMPBELL,VA,37.13,-79.28,ONE TREE DOWN ON LYNCH MILL ROAD (RNK)
2253,UNK,1 NE COBURN,CENTRE,PA,40.87,-77.45,APPROXIMATELY 3 DOZEN TREES WERE DOWNED OR SNAPPED AND A POLE BARN WAS DAMAGED. (CTP)
2255,60,MANLIUS,ONONDAGA,NY,43,-75.98,TREES ON WIRES IN MANLIUS. ALSO A FEW TREES DOWN IN NORTH SYRACUSE. (BGM)
2256,UNK,2 N ANSONVILLE,ANSON,NC,35.13,-80.11,REPORT OF TREES DOWN IN POWER LINES. (RAH)
2256,UNK,BURNHAM,MIFFLIN,PA,40.64,-77.56,NUMEROUS TREES DOWN. (CTP)
2256,66,LOCK HAVEN,CLINTON,PA,41.14,-77.45,66 MPH GUST RECORDED AT LOCK HAVEN PIPER AIRPORT (CTP)
2257,UNK,JERSEY SHORE,LYCOMING,PA,41.2,-77.26,TREES DOWN. (CTP)
2257,UNK,ELMIRA,CHEMUNG,NY,42.09,-76.81,MULTIPLE TREES DOWN... TREES BLOCKING ROADWAY... POWER LINES DOWN (BGM)
2258,UNK,HARRISVILLE,LEWIS,NY,44.15,-75.32,NUMEROUS TREES AND LINES DOWN (BUF)
2300,UNK,2 NW LOGANTON,CLINTON,PA,41.05,-77.33,A LARGE SWATH OF DOWNED TREES APPROXIMATELY A MILE LONG WAS OBSERVED NORTH OF I-80. (CTP)
2300,UNK,7 SSE FULLERVILLE,ST. LAWRENCE,NY,44.18,-75.28,NUMEROUS TREES DOWN WITH ROOF DAMAGE TO SEVERAL BUILDINGS IN TOWN OF PITCAIRN. REPORT RELAYED VIA NWS BUFFALO (BTV)
2309,UNK,5 NNW HALIFAX,HALIFAX,VA,36.84,-78.97,THUNDERSTORM WINDS DOWNED AN EXCEPTIONALLY LARGE TREE ALONG CEDAR FORK ROAD. HOW LARGE WAS IT? SO LARGE THAT A BACKHOE IS ENROUTE TO CLEAR IT. (RNK)
2309,UNK,6 SSW CONCORD,CAMPBELL,VA,37.28,-79.03,ONE TREE DOWN ON BETHANY ROAD (RNK)
2312,UNK,RUSSELL,ST. LAWRENCE,NY,44.43,-75.15,VARIOUS LOCATIONS IN SOUTHERN HALF OF COUNTY INCLUDING RUSSELL (BTV)
2313,UNK,3 SSW ELIMSPORT,LYCOMING,PA,41.09,-77.04,TREES DOWN AND SEVERAL SHEETS BARN ROOF TORN OFF. (CTP)
2315,85,WILLIAMSPORT,LYCOMING,PA,41.24,-77.02,(CTP)
2325,UNK,4 E GOVAN,BAMBERG,SC,33.22,-81.1,BAMBERG DISPATCH RELAYED REPORT FROM THE PUBLIC OF A TREE DOWN ON POWER LINES... CAUSING POWER OUTAGE... NEAR US HWY 301 AND THE LITTLE SALKEHATCHEE BRIDGE. (CAE)
2325,UNK,MIFFLINBURG,UNION,PA,40.92,-77.05,NUMEROUS TREES DOWN. TREE ON CAR ON MARKET ST. (CTP)
2325,UNK,2 SE SHUNK,SULLIVAN,PA,41.54,-76.73,A MICROSBURST WITH WINDS ESTIMATED NEAR 80 MPH KNOCKED DOWN A SWATH OF 60-80 TREES IN FOX TOWNSHIP. (CTP)
2329,UNK,1 W HUNTERSVILLE,LYCOMING,PA,41.31,-76.79,NUMEROUS TREES DOWN. (CTP)
2335,UNK,DUSHORE,SULLIVAN,PA,41.52,-76.4,MULTIPLE LARGE TREES SNAPPED/UPROOTED ON COVERED BRIDGE ROAD HILLSGROVE TWP (CTP)
2335,UNK,2 S NEW ALBANY,BRADFORD,PA,41.57,-76.44,MULTIPLE TREES DOWN. RADAR ESTIMATED TIME. (BGM)
2336,UNK,OLD FORGE,HERKIMER,NY,43.71,-74.97,DOWNED TREE (ALY)
2340,UNK,ROME,ONEIDA,NY,43.23,-75.49,TREES DOWN (BGM)
2344,UNK,4 SSW CUMMINGS,JASPER,SC,32.74,-81.02,SC STATE HIGHWAY PATROL REPORTED A TREE DOWN NEAR THE INTERSECTION OF CAT BRANCH ROAD AND PINE BRANCH DRIVE. TIME OF EVENT WAS ESTIMATED FROM RADAR DATA. (CHS)
2345,UNK,OWEGO,TIOGA,NY,42.1,-76.26,SEVERAL TREES UPROOTED (BGM)
2346,UNK,RUSSIA,HERKIMER,NY,43.26,-75.08,TREE DOWN ON WIRES (ALY)
2347,UNK,ENDICOTT,BROOME,NY,42.1,-76.06,TREES AND WIRES DOWN. TRANSFORMER HIT BY LIGHTNING. (BGM)
2350,60,VESTAL CENTER,BROOME,NY,42.03,-76.02,HIGH WINDS... MULTIPLE TREES DOWN IN VESTAL CENTER (BGM)
2350,60,BINGHAMTON REG ARPT,BROOME,NY,42.2,-75.98,(BGM)
0000,UNK,BOMBAY,FRANKLIN,NY,44.94,-74.57,TREES AND POWERLINES DOWN (BTV)
0002,UNK,BANGOR,FRANKLIN,NY,44.81,-74.4,TREES AND POWERLINES DOWN (BTV)
0005,UNK,NEW MILFORD,SUSQUEHANNA,PA,41.88,-75.73,POWER POLE DOWN. TREE CATCHING FIRE. RADAR ESTIMATED TIME. (BGM)
0005,UNK,APALACHIN,TIOGA,NY,42.07,-76.17,TREES DOWN... HOUSE STRUCTURAL DAMAGE (BGM)
0010,UNK,2 ENE OXFORD,CHENANGO,NY,42.45,-75.56,LARGE NUMBER OF TREES SNAPPED OR UPROOTED. RADAR ESTIMATED TIME. (BGM)
0016,UNK,BURKE,FRANKLIN,NY,44.9,-74.17,TREES AND POWERLINES DOWN (BTV)
0017,UNK,SHERBURNE,CHENANGO,NY,42.68,-75.5,POLES AND WIRES DOWN. INTERSECTION OF ROUTE 12/80 FLOODED. (BGM)
0020,UNK,SUSQUEHANNA,SUSQUEHANNA,PA,41.93,-75.6,2 SEPARATE REPORTS OF TREES ON HOUSES. RADAR ESTIMATED TIME. (BGM)
0025,UNK,1 N OXFORD,CHENANGO,NY,42.46,-75.6,TREES DOWN... UPROOTED... SHEARED OFF JUST NORTH OF VILLAGE OF OXFORD (BGM)
0025,UNK,GILBERTSVILLE,OTSEGO,NY,42.47,-75.32,POSSIBLE TORNADO. TREES DOWN AND OTHER DAMAGE. RADAR ESTIMATED TIME. (BGM)
0025,UNK,SPECULATOR,HAMILTON,NY,43.58,-74.38,TREE DOWN IN THE VILLAGE (ALY)
0025,UNK,NEWCOMB,ESSEX,NY,43.97,-74.17,TREES AND POWERLINES DOWN (BTV)
0025,UNK,LYON MOUNTAIN,CLINTON,NY,44.72,-73.91,TREES AND POWERLINES DOWN (BTV)
0030,UNK,LAKE PLACID,ESSEX,NY,44.28,-73.98,A FEW TREES DOWN (BTV)
0035,UNK,COALMONT,HUNTINGDON,PA,40.21,-78.2,TREES DOWN ON WIRES (CTP)
0046,UNK,3 NW ROCKHILL,HUNTINGDON,PA,40.26,-77.94,LARGE TREE DOWN. (CTP)
0056,UNK,DELHI,DELAWARE,NY,42.28,-74.91,NUMEROUS TREES DOWN...POWER LINES DOWN (BGM)
0059,UNK,1 WNW ARABIA,SCHOHARIE,NY,42.54,-74.65,SILO BLOWN OVER AT STONE RIDGE DR AND MEADE RD (ALY)
0100,UNK,1 ESE CARLISLE,SCHOHARIE,NY,42.75,-74.43,NUMEROUS TREES AND WIRES DOWN ACROSS NORTHERN PORTIONS OF SCHOHARIE COUNTY (ALY)
0104,UNK,GLOVERSVILLE,FULTON,NY,43.05,-74.35,TWO REPORTS OF TREES ON WIRES (ALY)
0105,UNK,DOYLESBURG,FRANKLIN,PA,40.22,-77.7,TREES DOWN ON WIRES (CTP)
0110,UNK,KILMARTIN CORNERS,MONTGOMERY,NY,42.78,-74.44,WIRES DOWN ON KILMARTIN RD IN TOWN OF ROOT (ALY)
0110,UNK,FONDA,MONTGOMERY,NY,42.95,-74.38,WIRES AND TREES DOWN (ALY)
0116,80,MIDDLEBURGH,SCHOHARIE,NY,42.6,-74.33,HAM RADIO OBSERVER REPORTED 80MPH WIND GUST. (ALY)
0116,UNK,MIDDLEBURGH,SCHOHARIE,NY,42.6,-74.33,TREES AND WIRES DOWN (ALY)
0120,UNK,HONEYWELL CORNERS,FULTON,NY,43.04,-74.14,TREE DOWN ON WIRES ON RIDGE RD (ALY)
0127,UNK,CHARLTON,SARATOGA,NY,42.93,-73.97,MULTIPLE TREES DOWN (ALY)
0130,UNK,1 E BERNE,ALBANY,NY,42.63,-74.12,POWER LINES DOWN. (ALY)
0139,59,1 SW EAST GLENVILLE,SCHENECTADY,NY,42.85,-73.93,KSCH VERIFIED WIND GUST OF 59 MPH. (ALY)
0140,UNK,1 WSW MCKOWNVILLE,ALBANY,NY,42.68,-73.86,12 INCH DIAMETER TREE SNAPPED ON CHURCH RD. (ALY)
0149,UNK,1 N FORT EDWARD,WASHINGTON,NY,43.28,-73.58,POWER LINES DOWN ON MCINTYRE STREET. (ALY)
0154,UNK,WEST CAMBRIDGE,WASHINGTON,NY,42.99,-73.48,MULTIPLE TREES ON CENTER CAMBRIDGE ROAD. (ALY)
0155,59,1 SW EAST GLENVILLE,SCHENECTADY,NY,42.85,-73.93,KSCH VERIFIED WIND GUST OF 59 MPH. (ALY)
0200,UNK,1 NNE VALLEY FALLS,RENSSELAER,NY,42.91,-73.56,TREE DOWN (ALY)
0201,UNK,1 ENE MOUNT PLEASANT MI,SNYDER,PA,40.73,-76.99,NUMEROUS TREES DOWN. (CTP)
0204,UNK,3 E REXLEIGH,WASHINGTON,NY,43.13,-73.29,TREE DOWN ON CAMDEN VALLEY ROAD. (ALY)
0206,UNK,HARTFORD,WASHINGTON,NY,43.36,-73.39,TREE DOWN ON ROUTE 40. (ALY)
0207,UNK,1 NNE GRAFTON,RENSSELAER,NY,42.78,-73.43,TREE DOWN. (ALY)
0310,UNK,2 WSW MOUNT PLEASANT TO,CHARLESTON,SC,32.82,-79.86,SOCIAL MEDIA PHOTOS SHOW A TREE DOWN ON TWO VEHICLES AT A RESIDENCE IN THE 700 BLOCK OF CHATTER ROAD IN THE WAKENDAW LAKES SUBDIVISION IN MOUNT PLEASANT. (CHS)
0310,60,WILKES-BARRE,LUZERNE,PA,41.25,-75.88,TREES UPROOTED IN WILKES-BARRE TOWNSHIP. (BGM)
0335,UNK,2 N MOSCOW,LACKAWANNA,PA,41.37,-75.53,SEVERAL TREES DOWN AND TREES ON HOUSES. (BGM)
Time,Size,Location,County,State,Lat,Lon,Comments
1850,150,MARIENVILLE,FOREST,PA,41.45,-79.08,(PBZ)
1942,150,MARIENVILLE,FOREST,PA,41.45,-79.08,(PBZ)
2003,100,KANE,MCKEAN,PA,41.66,-78.81,QUARTER SIZE HAIL IN KANE (CTP)
