Time,F_Scale,Location,County,State,Lat,Lon,Comments
Time,Speed,Location,County,State,Lat,Lon,Comments
1300,UNK,MATTOON,COLES,IL,39.48,-88.37,TREE FELL ACROSS ROAD BLOCK AND POWER WENT OUT FROM THUNDERSTORMS LAST NIGHT. CREWS TOOK 3 HOURS TO CLEAN UP THE TREE. (ILX)
1825,UNK,1 E NINEPOINTS,LANCASTER,PA,39.91,-76.03,LARGE TREE DOWN ALONG NOBLE ROAD IN SADSBURY TWP. (CTP)
1830,UNK,BETHANY,WOLFE,KY,37.65,-83.47,ONE TREE DOWN ON CAVE BRANCH ROAD. (JKL)
1834,UNK,5 NW JACKSON,BREATHITT,KY,37.6,-83.46,TREES DOWN NEAR MOUNT CARMEL SCHOOL. (JKL)
1900,UNK,DOVER PLAINS,DUTCHESS,NY,41.75,-73.58,TREES DOWN AND GRILL PUSHED ACROSS DECK BY WIND (ALY)
1925,UNK,RICHMOND,CHESHIRE,NH,42.75,-72.28,TREES AND WIRES DOWN ON BULLOCK ROAD (BOX)
1929,UNK,LITCHFIELD,LITCHFIELD,CT,41.74,-73.19,TREES DOWN. TIME ESTIMATED BY RADAR. (ALY)
1930,UNK,ALTON,BELKNAP,NH,43.45,-71.22,LAKES REGION DISPATCH REPORTS A TREE DOWN AND THROUGH A COTTAGE ON MCKOME LANE IN ALTON NH. (GYX)
1943,UNK,UPPER FREDERICK TWP,MONTGOMERY,PA,40.31,-75.51,TREES AND WIRES REPORTED DOWN IN UPPER FREDERICK TOWNSHIP. (PHI)
1948,UNK,FAIRFIELD,FAIRFIELD,CT,41.13,-73.28,NUMEROUS TREES REPORTED DOWN BY POLICE DISPATCH. (OKX)
1951,UNK,5 NW JACKSON,BREATHITT,KY,37.6,-83.46,TREES DOWN NEAR MOUNT CARMEL SCHOOL. (JKL)
2000,UNK,FLUSHING,QUEENS,NY,40.77,-73.84,NUMEROUS TREES AND WIRES DOWN IN THE 109 PRECINCT. ONE TREE FELL ON CAR AND ONE TREE FELL ON HOME. (OKX)
2008,UNK,BERNARDSTON,FRANKLIN,MA,42.67,-72.55,WIRES DOWN ON MERRIFIELD ROAD AND RTE 10 (BOX)
2010,UNK,PLEASANT VALLEY,MONMOUTH,NJ,40.37,-74.21,SCHANCK ROAD AND PLEASANT VALLEY ROAD WERE CLOSED DUE TO DOWNED TREES. DELAYED REPORT. (PHI)
2017,UNK,MANALAPAN,MONMOUTH,NJ,40.26,-74.4,TREES DOWN ON POWERLINES (PHI)
2028,UNK,LEYDEN,FRANKLIN,MA,42.7,-72.62,TREES DOWN WITH TRANSFORMER STRUCK BY LIGHTING ON SOUTH COUNTY ROAD. (BOX)
2030,UNK,ORANGE,FRANKLIN,MA,42.59,-72.3,MULTIPLE TREES DOWN ACROSS TOWN (BOX)
2037,UNK,BROOKLINE,HILLSBOROUGH,NH,42.73,-71.67,LARGE LIMB DOWN AT SILVER BEACH (BOX)
2040,UNK,PELHAM,HILLSBOROUGH,NH,42.73,-71.32,TREE DOWN ON OLD BRIDGE AND BRIDGE ROADS... ALSO ON MARSH AND ALBERT STREET. (BOX)
2045,UNK,NORWALK,FAIRFIELD,CT,41.09,-73.42,TREE DOWN AT FILBERT AND BARBARA ROAD. (OKX)
2057,UNK,HEDGESVILLE,BERKELEY,WV,39.55,-77.99,TREE DOWN. (LWX)
2057,UNK,LOWELL,MIDDLESEX,MA,42.64,-71.32,TREES DOWN ON VFW PARKWAY WITH PERSON TRAPPED (BOX)
2100,UNK,PEPPERELL,MIDDLESEX,MA,42.67,-71.59,6 IN DIAMETER LIMBS DOWN AND WIRES DOWN ON NASHUA RD AND DOW ST. (BOX)
2100,UNK,METHUEN,ESSEX,MA,42.72,-71.18,LARGE TREE LIMBS DOWN ON OAK STREET (BOX)
2105,UNK,FITCHBURG,WORCESTER,MA,42.59,-71.82,TREE DOWN THROUGH A HOUSE ON MYRTLE AVE. TREE DOWN BLOKING ROSS STREET. ALSO TREE AND WIRES DOWN ON ARCADIA AND TOWNSEND STREET. (BOX)
2105,UNK,BALDWINVILLE,WORCESTER,MA,42.61,-72.08,TREE AND WIRES DOWN ON RIVER ROAD (BOX)
2105,UNK,LEYDEN,FRANKLIN,MA,42.7,-72.62,HOUSE FIRE DUE TO LIGHTING STRIKE ON ALEXANDER STREET (BOX)
2108,UNK,MILLSTONE TWP,MONMOUTH,NJ,40.2,-74.43,TREES DOWN ON WIRES (PHI)
2115,UNK,2 NNW CHEWSVILLE,WASHINGTON,MD,39.67,-77.65,TREE DOWN ACROSS CLOPPER ROAD AT OLD FORGE (LWX)
2115,UNK,NORTH ANDOVER,ESSEX,MA,42.7,-71.12,TREES AND LARGE BRANCHES DOWN ON OSGOOD ST...HARKAWAY ST AND ACADEMY LANE. (BOX)
2120,UNK,EVESHAM TWP,BURLINGTON,NJ,39.86,-74.89,TREES DOWN ON WIRES ALONG OLD MARLTON PIKE (PHI)
2120,UNK,FITCHBURG,WORCESTER,MA,42.59,-71.82,POWER LINE DOWN ON SOUTH STREET. (BOX)
2120,UNK,HOLLIS,HILLSBOROUGH,NH,42.73,-71.58,TREES AND WIRES DOWN ON DOW ROAD (BOX)
2130,UNK,IPSWICH,ESSEX,MA,42.68,-70.83,MULTIPLE TREES DOWN ON MILE LANE AND LINEBROOK ROAD... TURKEY SHORE... SOUTH MAIN... MILE LANE... AND TOPSFIELD ROAD. ALSO TREES DOWN BLOCKING COMMUTER RAIL TRACKS. (BOX)
2130,UNK,BROWNFIELD,OXFORD,ME,43.94,-70.91,OXFORD COUNTY SHERIFF REPORTED TREES DOWN ON MAIN STREET. (GYX)
2132,UNK,2 SSW SHEPHERDSTOWN,JEFFERSON,WV,39.41,-77.82,A FEW TREES DOWNED. SEVERAL 6 TO 8 INCH BRACHES SNAPPED. (LWX)
2140,UNK,WESTFORD,MIDDLESEX,MA,42.58,-71.43,TREE DOWN ON NORTH STREET AT DEMPSEY STREET. (BOX)
2141,UNK,HARRISON,CUMBERLAND,ME,44.11,-70.68,TREES DOWN IN HARRISON REPORTED BY THE COUNTY SHERIFF (GYX)
2201,UNK,READING,MIDDLESEX,MA,42.54,-71.11,LARGE LIMB DOWN BLOCKING MAIN STREET AND FOREST GLEN (BOX)
2201,UNK,NORTH ANDOVER,ESSEX,MA,42.7,-71.12,TREES AND WIRES DOWN ON STEVEN AND GREENE STREET (BOX)
2208,UNK,2 SSW GRAY,CUMBERLAND,ME,43.86,-70.34,6 INCH DIAMETER TREE DOWN ON TOTTON ROAD. TIME ESTIMATED (GYX)
2220,UNK,ARLINGTON,MIDDLESEX,MA,42.42,-71.16,TREE DOWN ON WHEATEN ROAD. (BOX)
2223,UNK,FREEPORT,CUMBERLAND,ME,43.86,-70.1,TREES AND WIRES DOWN IN FREEPORT (GYX)
2230,UNK,PEABODY,ESSEX,MA,42.53,-70.97,TREE DOWN ON EMERSON STREET (BOX)
2232,UNK,HICKORY,CATAWBA,NC,35.74,-81.33,POWER LINES DOWN ON 3RD STREET IN HICKORY... NC. (GSP)
2237,UNK,1 S SELINSGROVE,SNYDER,PA,40.79,-76.87,PORTION OF ROOF BLOWN OFF A TRAILER. (CTP)
2240,UNK,HARPSWELL,CUMBERLAND,ME,43.8,-69.98,LARGE BRACHES DOWN CAUSING POWER OUTAGES (GYX)
2243,UNK,CAMBRIDGE,MIDDLESEX,MA,42.38,-71.12,TREE AND WIRES DOWN ON FOREST STREET. TREE DOWN ON HIGHLAND AVENUE...RICHDALE AVENUE AND ALEWIFE PARKWAY (BOX)
2245,UNK,PILLOW,DAUPHIN,PA,40.64,-76.8,TREES DOWN. (CTP)
2255,UNK,2 WSW BRADLEY FARMS,MONTGOMERY,MD,39,-77.23,TREE DOWN ON BRICKYARD ROAD. NUMEROUS WIRES DOWN IN AREA. POWER OUTAGES. (LWX)
2310,UNK,VALLEY VIEW,SCHUYLKILL,PA,40.66,-76.53,TREES DOWN IN HEGINS TWP. (CTP)
2315,UNK,WEST HAZLETON,LUZERNE,PA,40.97,-76.01,TREES AND WIRES DOWN (BGM)
2320,UNK,GOSHEN,ORANGE,NY,41.4,-74.33,SEVERAL TREES REPORTED DOWN IN AND AROUND THE TOWN OF GOSHEN. (OKX)
2327,UNK,NEWTOWN,SCHUYLKILL,PA,40.65,-76.35,TREES DOWN IN REILLY TWP. (CTP)
2330,UNK,NEWBURGH,ORANGE,NY,41.5,-74.02,TREES AND WIRES DOWN. (OKX)
2334,58,1 N BALT-WASH INTL ARPT,ANNE ARUNDEL,MD,39.18,-76.67,(LWX)
2345,UNK,1 SSE FISHKILL,DUTCHESS,NY,41.52,-73.89,WIRES DOWN ON ROUTE 9 (ALY)
0010,UNK,WINDSOR TWP,BERKS,PA,40.57,-75.94,TREE DOWN (PHI)
0012,UNK,BREWSTER HILL,PUTNAM,NY,41.42,-73.6,SEVERAL TREE LIMBS DOWN ON POWER LINES ALONG DREWVILLE ROAD...NORTH BREWSTER ROAD...TONETTA LAKE ROAD...AND MILLTOWN ROAD. (OKX)
0015,UNK,EXPERIMENT,SPALDING,GA,33.27,-84.28,911 CENTER REPORTS A TREE DOWN AT THE SOUTH 18TH STREET AND WALL STREET INTERSECTION AND AT MLK PARKWAY AND ODELL ROAD. THERE IS ALSO A POWER OUTAGE AND A RESIDENT WAS (FFC)
0025,UNK,MONROE,OUACHITA,LA,32.51,-92.08,A METAL ROOF WAS BLOWN OFF THE RUSSELL MOORE LUMBER WAREHOUSE ON DESIARD STREET IN MONROE...LANDING ON SEVERAL CARS IN THE PARKING LOT. (SHV)
0028,UNK,WEISENBERG,LEHIGH,PA,40.59,-75.73,TREE DOWN BLOCKING ROADWAY (PHI)
0030,60,2 ESE SAN TAN MOUNTAIN,PINAL,AZ,33.14,-111.62,MEADURED 60 MPH WIND GUST ON DAVIS WEATHER STATION. TIME APPROXIMATE. SOME MINOR ROFF DAMAGE. (PSR)
0030,UNK,2 NW SEVILLE,MARICOPA,AZ,33.25,-111.73,ROOF SEVTION BLOWN OFF TRAILER IN RV PARK. TIME OF EVENT APPROXIMATE. (PSR)
0035,UNK,1 S SAN TAN VALLEY,PINAL,AZ,33.16,-111.57,MULTIPLE TREES DOWN. FLAGPOLES DOWN. ROOF DAMAGE. (PSR)
Time,Size,Location,County,State,Lat,Lon,Comments
2350,175,KENT CLIFFS,PUTNAM,NY,41.46,-73.75,GOLF BALL SIZED HAIL REPORTED MIXED IN WITH QUARTER SIZED HAIL IN KENT CLIFFS. (OKX)
