Time,F_Scale,Location,County,State,Lat,Lon,Comments
Time,Speed,Location,County,State,Lat,Lon,Comments
1725,UNK,1 SW LITTLETON,AROOSTOOK,ME,46.22,-67.86,MULTIPLE TREES DOWN ON WIRES IN SEVERAL LOCATIONS ACROSS LITTLETON. (CAR)
1755,UNK,WNW LINCOLN,PENOBSCOT,ME,45.36,-68.51,MULTIPLE TREES DOWN REPORTED BY PENOBSCOT COUNTY DISPATCH (CAR)
1805,UNK,1 SSW BRIGHTON MILLS,MONROE,GA,33.04,-83.96,A LARGE OAK TREE AND SEVERAL TREE LIMBS WERE BLOWN DOWN IN THE 100 BLOCK OF MEADOW DRIVE. (FFC)
1815,UNK,1 SW LEE,PENOBSCOT,ME,45.35,-68.3,TREES REPORTED DOWN ON ARAB ROAD SOUTH OF LEE (CAR)
1816,UNK,2 NW TURNBULL,FAUQUIER,VA,38.69,-77.88,LARGE TREE DOWN BLOCKING BOTH LANES OF SPRING ROAD AT ELWAY LANE. (LWX)
1925,UNK,ARKANSAS CITY,DESHA,AR,33.61,-91.21,A FEW LARGE TREES DOWN WITH DAMAGE TO A HOME AND CAR. (LZK)
1930,UNK,LELAND,WASHINGTON,MS,33.4,-90.9,LELAND HAD POWER OUTAGES FROM BLOWN DOWN POWER LINES. (JAN)
1930,UNK,4 SE PRINCETON,WASHINGTON,ME,45.18,-67.51,LARGE PINE TREE DOWN THAT CRASHED INTO HOUSE CAUSING DAMAGE TO THE HOME AT JIMMY LIBBY COVE ON BIG LAKE. (CAR)
1945,UNK,5 NNE STALLO,WINSTON,MS,32.99,-89.08,TREES DOWNED NEAR NOXAPATER (JAN)
1947,UNK,1 SSE WINSTON,CULPEPER,VA,38.4,-78.01,TREE DOWN IN THE 13000 BLOCK OF COMMONWEALTH PARKWAY. (LWX)
1950,UNK,6 SSW BANGOR,PENOBSCOT,ME,44.73,-68.84,COUPLE TREES DOWN ON KENNEBEC ROAD IN HAMPDEN. TIME ESTIMATED FROM RADAR. (CAR)
1954,UNK,1 SSE CALAIS,WASHINGTON,ME,45.17,-67.27,ONE TREE REPORTED DOWN IN CALAIS CEMETERY. TIME ESTIMATED FROM RADAR. (CAR)
2000,UNK,5 ESE NORTH FORK,LEMHI,ID,45.37,-113.91,WINDS BLEW THE ROOF OFF OF A CHICKEN HOUSE. A 15 FOOT TREE FELL OVER FOURTH OF JULY CREEK ROAD. PEA SIZE HAIL WAS ALSO REPORTED. (MSO)
2016,UNK,1 S IVY,ALBEMARLE,VA,38.04,-78.6,TREE DOWN BLOCKING THE ROADWAY NEAR THE INTERSECTION OF LANGFORD DRIVE AND DICK WOODS ROAD. (LWX)
2029,UNK,1 NNW MONTICELLO,CITY OF CHARLOTTE,VA,38.02,-78.46,WIRES DOWN NEAR THE INTERSECTION OF 18TH STREET NORTHEAST AND EAST MARKET STREET. (LWX)
2040,UNK,2 SW OVERTON,ALBEMARLE,VA,37.94,-78.5,TREE DOWN ON CARTERS MOUNTAIN ROAD NEAR DEER RIDGE FARM. (LWX)
2051,78,6 SE NORTH FORK,LEMHI,ID,45.35,-113.89,KRILEY CREEK RAWS REPORTED THIS PEAK WIND FROM THE SOUTHWEST OR 234 DEGREES. THIS PEAK WIND GUST COULD HAVE OCCURRED BETWEEN 1:51 AND 2:51 PM. . (MSO)
2100,UNK,1 SE ESMONT,ALBEMARLE,VA,37.82,-78.59,TREE DOWN BLOCKING THE 2500 BLOCK OF IRISH ROAD. (LWX)
2106,61,6 E DARBY,RAVALLI,MT,46.02,-114.06,DEER MOUNTAIN RAWS AT 7282 FT. PEAK WIND DIRECTION WAS SOUTHWEST OR 217 DEGREES AND OCCURRED BETWEEN 2:06 AND 3:06 PM MDT. A GUST TO 50 MPH OCCURRED SOMETIME DURING THE (MSO)
2109,65,13 ENE SULA,RAVALLI,MT,45.93,-113.74,TEPEE POINT RAWS AT 6629 FT. PEAK WIND DIRECTION WAS FROM THE SOUTH-SOUTHWEST OR 227 DEGREES. TIME OF PEAK OCCURRED BETWEEN 2:09 AND 3:09 PM MDT. (MSO)
2115,UNK,5 SSW LITTLE YAZOO,YAZOO,MS,32.64,-90.42,TREES DOWNED ALONG MS HWY 433 NEAR BENTONIA (JAN)
2115,UNK,BENTON,YAZOO,MS,32.83,-90.26,TREE DOWNED ONTO UTILITY EQUIPMENT OFF BENTON BLVD (JAN)
2120,UNK,4 S TEXARKANA,MILLER,AR,33.39,-94,DISPATCH IS REPORTING SEVERAL TREES AND POWERLINES DOWN IN THE TEXARKANA AREA. . (SHV)
2125,UNK,2 SW NASH,BOWIE,TX,33.42,-94.15,TREES AND POWER LINES DOWN ON KELLY ROAD NEAR THE INTERSECTION OF GOLDFINCH ROAD. (SHV)
2126,59,11 N ELLIS,LEMHI,ID,44.85,-114.03,EZRA CREEK RAWS. PEAK WIND DIRECTION WAS FROM THE SOUTHWEST... 215 DEGREES. A GUST TO 41 OCCURRED BETWEEN 1:26 AND 2:26 PM FROM THE WEST... 275 DEGREES. (MSO)
2130,UNK,PEMBROKE PINES,BROWARD,FL,26.01,-80.34,STRONG WINDS FROM A THUNDERSTORM CAUSED SOME TREE DAMAGE IN WESTERN PEMBROKE PINES BETWEEN I-75 AND 184TH ST. (MFL)
2130,UNK,5 NNE BROWNSVILLE,MADISON,MS,32.52,-90.4,A UTILITY POLE WAS DAMAGED (JAN)
2135,64,4 S SALMON,LEMHI,ID,45.12,-113.89,KSMN AT THE LEMHI COUNTY AIRPORT. SOUTHERLY WINDS RAMPED UP TO OVER 40 MPH BY 3:20 PM. GUSTY WINDS TO 49 MPH FROM THE NORTHERLY DIRECTION OCCURRED AT 4 PM. (MSO)
2139,UNK,AUBURN,WORCESTER,MA,42.2,-71.83,WIRES DOWN BLOCKING THE ON RAMP TO ROUTE 90 AT BRYN MAWR AVE (BOX)
2140,UNK,SALMON,LEMHI,ID,45.18,-113.9,AN AMERICAN ELM TREE NEARLY 100 YEAR OLD IS KNOCKED DOWN. TREE WAS ABOUT 2 TO 3 FEET IN DIAMETER. . (MSO)
2145,UNK,1 ENE CLINTON,HINDS,MS,32.35,-90.32,TREE DOWNED ONTO POWERLINES ALONG NORTHSIDE DR IN CLINTON NEAR THE LIBRARY (JAN)
2211,60,5 NNE FLORENCE,MISSOULA,MT,46.69,-114.03,PEAK WIND DIRECTION WAS FROM THE SOUTH OF 174 DEGREES. STATION KMTFLORE3. (MSO)
2225,UNK,MILLVILLE,WORCESTER,MA,42.03,-71.58,TREE DOWN BLOCKING MOST OF CHESTNUT HILL ROAD. LIMB DOWN ON HILL ROAD. (BOX)
2230,UNK,CUMBERLAND,PROVIDENCE,RI,41.97,-71.46,TREE DOWN ON A CAR ON MENDON ROAD. (BOX)
2230,64,3 WNW TOWNSEND,BROADWATER,MT,46.33,-111.59,64 MPH WIND GUST AT THE GINGER RAWS. TIME OF EVENT IS ESTIMATED. (TFX)
2231,UNK,MISSOULA,MISSOULA,MT,46.87,-113.99,REPORTS OF NUMEROUS POWER LINES AND TREE BRANCHES DOWN AROUND TOWN. (MSO)
2232,58,5 NE DILLON,BEAVERHEAD,MT,45.26,-112.55,58 MPH WIND GUST AT THE DILLON AIRPORT. (TFX)
2240,UNK,ATTLEBORO,BRISTOL,MA,41.94,-71.29,BRANCH DOWN ON WIRES ON GAYWOOD AVE (BOX)
2255,UNK,3 NW ROCKPORT,COPIAH,MS,31.83,-90.2,TREES DOWNED AROUND GEORGETOWN (JAN)
2335,UNK,2 SSE WANILLA,LAWRENCE,MS,31.61,-90.11,TREES DOWNED NEAR NA SANDIFER HIGHWAY AND OLD HIGHWAY 27 (JAN)
2335,UNK,3 NW EVINGTON,BEDFORD,VA,37.26,-79.33,THREE TREES WERE BLOWN DOWN ALONG BETHEL CHURCH ROAD. (RNK)
2335,UNK,6 N EVINGTON,CAMPBELL,VA,37.31,-79.28,A TREE WAS BLOWN DOWN ALONG TURKEY FOOT ROAD. (RNK)
2337,UNK,5 SE BESSEMER,JEFFERSON,AL,33.33,-86.89,PEA SIZED HAIL AND SMALL TREE LIMBS DOWN WITH WINDS ESTIMATED 40 TO 50 MPH. TIME ESTIMATED BY RADAR. (BMX)
2338,62,ENNIS,MADISON,MT,45.35,-111.73,62 MPH WIND GUST IN ENNIS. (TFX)
2340,UNK,2 E EAST LINCOLN,LINCOLN,MS,31.49,-90.26,SMALL TREES DOWNED ALONG EAST LINCOLN RD (JAN)
2357,UNK,4 NW JAYESS,LINCOLN,MS,31.4,-90.25,SMALL TREES DOWNED ALONG MALLALIEU DR (JAN)
0003,UNK,4 S DE FUNIAK SPRINGS,WALTON,FL,30.67,-86.13,TREE BRANCH SNAPPED OFF AND FELL ON A POWER LINE ALONG COY BURGESS LOOP DURING THE STORM ON SATURDAY EVENING (TAE)
0016,UNK,12 NNW TYLERTOWN,WALTHALL,MS,31.28,-90.22,TREE DOWN NEAR HIGHWAY 583 AND NEW BETHEL ROAD. (LIX)
0035,UNK,3 ENE HUDDLESTON,BEDFORD,VA,37.19,-79.43,MULTIPLE TREES WERE BLOWN DOWN ALONG BISHOP CREEK ROAD. (RNK)
0130,UNK,IOTA,ACADIA,LA,30.33,-92.49,PUBLIC REPORTED SOME TREES DOWN AND A LARGE BRANCH THAT IMPALED A VEHICLE IN IOTA (LCH)
0130,60,6 NW PEARCE-SUNSITES,COCHISE,AZ,32,-109.87,SPOTTER ESTIMATE OF 60 MPH WINDS (TWC)
0133,58,6 NE LAS VEGAS,SAN MIGUEL,NM,35.66,-105.14,KLVS ASOS. (ABQ)
0345,70,11 SE HUNTLEY,YELLOWSTONE,MT,45.78,-108.16,(BYZ)
0640,59,3 ENE COLLINSTON,CACHE,UT,41.78,-112.02,SR-30 - 4990 FT (SLC)
0900,67,HUTCHINSON,RENO,KS,38.07,-97.91,(ICT)
Time,Size,Location,County,State,Lat,Lon,Comments
1726,150,1 SSW LITTLETON,AROOSTOOK,ME,46.22,-67.85,REPORT FROM SOCIAL MEDIA. TIME ESTIMATED FROM RADAR (CAR)
1850,100,3 E DONEY PARK,COCONINO,AZ,35.27,-111.47,. (FGZ)
1907,100,3 E DONEY PARK,COCONINO,AZ,35.27,-111.47,UPDATED TO CORRECT TIME. (FGZ)
2011,100,1 WSW DRAPER,SALT LAKE,UT,40.49,-111.89,REPORTED VIA SOCIAL MEDIA... PICTURE WITH RULER CONFIRMS 1 INCH DIAMETER. (SLC)
2015,100,SAINT GEORGE,KNOX,ME,44.02,-69.2,NICKEL TO QUARTER SIZE HAIL NEAR ROUTE 131 (GYX)
