Time,F_Scale,Location,County,State,Lat,Lon,Comments
1828,UNK,12 NE GOODLAND,SHERMAN,KS,39.47,-101.55,LANDSPOUT SEEN FROM WEATHER OFFICE TO THE NORTHEAST. DISSIPATED AFTER ABOUT 2 MINUTES. (GLD)
1835,UNK,9 NE GOODLAND,SHERMAN,KS,39.44,-101.59,LANDSPOUT SEEN FROM WEATHER OFFICE TO THE NORTHEAST. DISSIPATED THEN ONE MORE FORMED A FEW MINUTES LATER. (GLD)
1840,UNK,9 NE GOODLAND,SHERMAN,KS,39.44,-101.59,WEAK LANDSPOUT TORNADO NE OF THE OFFICE. (GLD)
Time,Speed,Location,County,State,Lat,Lon,Comments
1300,UNK,1 WNW INDEPENDENCE,BUCHANAN,IA,42.47,-91.9,SMALL TWIGS AND BRANCHES OFF OF TREES. ESTIMATED 45 MPH WINDS WITH OCCASIONAL HIGHER GUSTS. HEAVY DOWNPOURS REDUCING VISIBILITY TO A FEW BLOCKS IN DISTANCE. (DVN)
1835,UNK,4 NNE AZALEA PARK,ORANGE,FL,28.6,-81.27,A LARGE TREE WAS UPROOTED IN THE COVE SUBDIVISION NEAR GOLDENROD. BROADCAST MEDIA ALSO RELAYED IMAGES OF SEVERAL LARGE BROKEN TREE LIMBS AND DAMAGED POOL ENCLOSURES. RE (MLB)
1945,UNK,4 NNW HERRIMAN,SALT LAKE,UT,40.57,-112.06,NEAR THE INTERSECTION OF UTAH STATE ROUTE 111 AND NEW BINGHAM HIGHWAY...ROCKY MOUNTAIN POWER REPORTS AN ESTIMATED 37 TRANSMISSION POLES AND 23 DISTRIBUTION POLES WERE K (SLC)
2130,UNK,2 N BILOXI,HARRISON,MS,30.44,-88.93,POWER LINES REPORTED DOWN IN THE DIBERVILLE AREA. (LIX)
2135,60,5 E SCOTT STATE LAKE,SCOTT,KS,38.69,-100.83,(DDC)
2145,UNK,WINCHESTER,WAYNE,MS,31.62,-88.59,LARGE TREES DOWN OM POWER LINES. ROOF DAMGE TO SHED. (MOB)
2148,UNK,2 W LAVA HOT SPRINGS,BANNOCK,ID,42.62,-112.05,WEAKENED TREES DOWNED AND A POWER LINE DOWNED. TIME APPROXIAMTE AND COINCIDENT WITH WEAK RADAR RETURNS NEAR LAVA HOT SPRINGS. (PIH)
2157,60,3 N HEALY,LANE,KS,38.65,-100.62,(DDC)
2157,65,NNW EDGAR,CARBON,MT,45.47,-108.85,POSSIBLE MICROBURST FROM A COLLAPSING STORM. (BYZ)
2200,60,9 NW ILIAD,CHOUTEAU,MT,47.89,-109.92,WINDS ESTIMATED TO AT LEAST 60 MPH. SEVERAL TREE BRANCHES DOWN. PEAS SIZE HAIL AND .75 RAINFALL. (TFX)
2210,UNK,HEALY,LANE,KS,38.6,-100.62,SEVERAL 4 INCH TREE BRANCHES BROKEN...SOME 6 TO 8 INCH TREE BRANCHES BROKE. ALSO SEMI BLOWN OFF OF ROAD (DDC)
2218,65,5 N DIGHTON,LANE,KS,38.55,-100.47,ALSO PEA SIZED HAIL...VERY HEAVY RAIN...AND VISIBILITIES LESS THAN A QUARTER OF A MILE. (DDC)
2219,UNK,DOWNEY,BANNOCK,ID,42.43,-112.12,SEMI-TRUCK BLOWN OFF ROAD NEAR DOWNEY. REPORT TIME APPROXIMATE AND COINCIDENT WITH WEAK CELL PASSING THROUGH AREA ON RADAR. NEABY MESONET WIND GUST TO 32 MPH AT MALAD S (PIH)
2220,60,22 SSW PALISADES,BONNEVILLE,ID,43.06,-111.39,DALE BITNER RAWS. TIME OF EVENT ESTIMATED COINCIDENT WITH WEAK RADAR ECHOES MOVING THROUGH THE AREA. WIND GUST OCCURRED SOMETIME BETWEEN 1546 AND 1645 MDT. (PIH)
2230,68,5 NNE GALATA,TOOLE,MT,48.54,-111.29,68 MPH THUNDERSTORM WIND GUST A FEW MILES NORTH OF GALATA. TIME OF EVENT IS ESTIMATED. (TFX)
2259,60,6 E ACRES,CLARK,KS,37.11,-99.78,ALSO HAD 4-5 INCH BRANCHES BROKEN ON HIS TREES. (DDC)
2303,61,3 WNW MILES CITY,CUSTER,MT,46.43,-105.89,SUSTAINED WIND AT 44 MPH (BYZ)
2315,UNK,MILES CITY,CUSTER,MT,46.41,-105.84,SOME 5 INCH LIMBS DOWN ON CHAIN LINK FENCE. MINOR TREE DAMAGE AROUND TOWN. (BYZ)
2323,60,SW NESS CITY,NESS,KS,38.45,-99.91,(DDC)
2330,UNK,13 NNW LAMBERT,RICHLAND,MT,47.86,-104.73,POWER POLES NORTH OF THEIR PROPERTY WERE KNOCKED DOWN. POWER WAS OUT FOR SEVERAL HOURS. (GGW)
2335,UNK,4 N POPLAR,ROOSEVELT,MT,48.17,-105.2,PART OF A ROOF ON A HOME TORN OFF. (GGW)
2345,60,1 N ACRES,CLARK,KS,37.11,-99.88,(DDC)
0000,UNK,WHITE ROCK,LOS ALAMOS,NM,35.82,-106.21,LARGE PINE TREE BLOWN OVER ON GARVER LANE. (ABQ)
0007,60,MEDICINE LODGE,BARBER,KS,37.29,-98.58,(DDC)
0010,60,4 ESE JETMORE,HODGEMAN,KS,38.06,-99.83,(DDC)
0011,UNK,1 NE BRUNER,CHRISTIAN,MO,37.02,-92.97,MULTIPLE TREES DOWN AND MINOR ROOF DAMAGE REPORTED. (SGF)
0014,UNK,1 NE POPLAR,ROOSEVELT,MT,48.12,-105.19,TREE BRANCHES DOWN,ANTENNA BROKEN OFF OF HOUSE. ALSO HAD PEA TO NICKLE SIZE HAIL. (GGW)
0015,60,2 SSW PLEVNA,FALLON,MT,46.39,-104.53,(BYZ)
0039,60,14 SSE CULBERTSON,RICHLAND,MT,47.94,-104.45,POWER FLICKERING ON AND OFF. (GGW)
0040,66,12 NE BAKER,FALLON,MT,46.49,-104.1,MEASURED AT CANNONBALL CREEK RAWS (BYZ)
0046,60,2 SSE WILLOWDALE,KINGMAN,KS,37.49,-98.29,(ICT)
0055,UNK,THEODOSIA,OZARK,MO,36.58,-92.68,TREES DOWN BETWEEN THEODOSIA AND ISABELLA ON HIGHWAY 160. (SGF)
0055,75,11 WSW CAPITOL,CARTER,MT,45.38,-104.29,(BYZ)
0055,60,14 WNW LADNER,HARDING,SD,45.9,-104,(UNR)
0058,UNK,3 E ZENDA,KINGMAN,KS,37.45,-98.23,SPOTTER REPORTED THAT THEIR POWER WAS OUT AND ESTIMATED WINDS OF 50 MPH ALONG WITH VERY HEAVY RAINFALL. (ICT)
0100,65,7 S RIDGEWAY,CARTER,MT,45.38,-104.52,(BYZ)
0105,60,2 NNE CENTERVIEW,EDWARDS,KS,37.83,-99.25,(DDC)
0107,UNK,4 NNE FORSYTH,TANEY,MO,36.74,-93.09,SEVERAL LARGE TREES AND POWERLINES DOWN BETWEEN FORSYTH AND TANEYVILLE. (SGF)
0108,75,10 SW LADNER,HARDING,SD,45.74,-103.88,(UNR)
0130,60,7 WSW HARDING,HARDING,SD,45.36,-103.97,DIME-SIZED HAIL ALSO (UNR)
0130,60,9 NE SCRANTON,BOWMAN,ND,46.24,-103.01,7 N AND 3 E OF SCRANTON. 60 MPH WINDS. (BIS)
0131,UNK,7 NW MOUNTAIN HOME,BAXTER,AR,36.41,-92.47,TREE FELL AN A CAR AND TREES DOWN IN THE AREA. (LZK)
0134,UNK,1 W RUETER,TANEY,MO,36.61,-92.89,NUMEROUS TREES DOWN AT 160 IN RUETER. (SGF)
0135,100,7 W PRATT,PRATT,KS,37.65,-98.86,THIS WAS AN ESTIMATED WIND SPEED FROM A SPOTTER THAT WAS REPORTING TO THE EMERGENCY MANAGER. DAMAGE FROM THIS HIGH OF WIND SPEED WAS NOT YET REPORTED IN. (DDC)
0138,UNK,1 E NORTH PLATTE,LINCOLN,NE,41.13,-100.75,LARGE BRANCHES WERE REPORTED DOWN ACROSS HIGHWAY 30 JUST WEST OF THE AIRPORT. (LBF)
0139,UNK,TANEYVILLE,TANEY,MO,36.74,-93.03,TREES REPORTED DOWN. (SGF)
0142,62,3 E NORTH PLATTE,LINCOLN,NE,41.13,-100.71,(LBF)
0145,60,10 SE BUFFALO,HARDING,SD,45.48,-103.4,(UNR)
0150,UNK,PROTEM,TANEY,MO,36.53,-92.86,TREES AND POWER LINES REPORTED DOWN IN AND AROUND PROTEM. (SGF)
0150,UNK,PRATT,PRATT,KS,37.65,-98.74,NUMEROUS POWERLINES DOWN IN AND AROUND PRATT. THE ENTIRE CITY OF PRATT WAS WITHOUT POWER AS WELL AS CULLISON AND IUKA. NUMEROUS TREES WERE ALSO REPORTED DOWN FROM CULLI (DDC)
0157,70,15 ENE REDIG,HARDING,SD,45.35,-103.26,(UNR)
0200,83,3 E PRATT,PRATT,KS,37.65,-98.68,(DDC)
0208,UNK,7 N PRATT,PRATT,KS,37.75,-98.74,12 INCH DIAMETER TREES REPORTED DOWN AT NW 10TH STREET AND 70TH AVE. (DDC)
0210,70,CUNNINGHAM,KINGMAN,KS,37.64,-98.43,(ICT)
0215,65,8 NW ZEONA,HARDING,SD,45.27,-103.05,(UNR)
0225,60,HOOVER,BUTTE,SD,45.11,-103.27,(UNR)
0235,60,11 ESE ZEONA,PERKINS,SD,45.13,-102.71,(UNR)
0241,60,WNW PENALOSA,KINGMAN,KS,37.72,-98.32,SPOTTER ESTIMATED 50 TO 60 MPH WINDS (ICT)
0250,71,1 NE MUD BUTTE,MEADE,SD,45.02,-102.86,(UNR)
0253,UNK,3 N MOUNTAIN VIEW,STONE,AR,35.91,-92.11,TREES DOWN ALONG HWY 5 NORTH. (LZK)
0311,80,SW NEWTON,HARVEY,KS,38.04,-97.34,ESTIMATED 70 TO 80 MPH ON THE SOUTHWEST SIDE OF NEWTON (ICT)
0313,65,ELBING,BUTLER,KS,38.05,-97.13,(ICT)
0320,70,UNION CENTER,MEADE,SD,44.56,-102.67,(UNR)
0320,60,2 ENE WHITE OWL,MEADE,SD,44.6,-102.38,(UNR)
0326,67,1 WSW WHITEWATER,HARVEY,KS,37.96,-97.17,(ICT)
0326,65,11 WNW RED SCAFFOLD,MEADE,SD,44.84,-102.03,(UNR)
0330,UNK,EL DORADO LAKE,BUTLER,KS,37.86,-96.79,REPORTS OF DOCKS TOSSED AROUND AND FLIPPED OVER AT THE SHADY CREEK MARINA. TIME ESTIMATED FROM RADAR. (ICT)
0330,70,RED SCAFFOLD,ZIEBACH,SD,44.77,-101.85,(UNR)
0335,70,7 N BENTON,BUTLER,KS,37.89,-97.11,(ICT)
0346,UNK,N EL DORADO,BUTLER,KS,37.82,-96.86,10 INCH DIAMETER TREE DOWN (ICT)
0350,60,5 NE MILESVILLE,HAAKON,SD,44.52,-101.62,(UNR)
0352,75,1 N AUGUSTA,BUTLER,KS,37.71,-96.98,(ICT)
0413,UNK,EUREKA,GREENWOOD,KS,37.82,-96.29,ONE 8 TO 10 INCH TREE DOWN WITH SEVERAL SMALLER TREES BLOCKING ROADWAYS. TIME BASED ON RADAR (ICT)
0429,UNK,EUREKA,GREENWOOD,KS,37.82,-96.29,TREES DOWN ON A HOUSE AND A CAR. (ICT)
0430,70,7 WSW HAYES,STANLEY,SD,44.33,-101.15,ALSO REPORTED PEA SIZE HAIL WITH THE WINDS (ABR)
0430,60,15 NNW SANSARC,STANLEY,SD,44.72,-101.1,COCORAHS REPORT OF 60 MPH WINDS AT RESIDENCE. (ABR)
0438,75,4 N EUREKA,GREENWOOD,KS,37.88,-96.29,LAW ENFORCEMENT ESTIMATED 70-75MPH WIND GUSTS AT EUREKA LAKE. (ICT)
0458,UNK,HOWARD,ELK,KS,37.47,-96.26,NUMEROUS TREES DOWNED ACROSS THE ROADS IN THE COUNTY. (ICT)
0509,60,FREDONIA,WILSON,KS,37.53,-95.82,(ICT)
0510,80,9 SSE MOLINE,CHAUTAUQUA,KS,37.24,-96.24,(ICT)
0517,60,3 NNW DOWNTOWN RAPID CI,PENNINGTON,SD,44.12,-103.25,FLAG RIPPED FROM FLAGPOLE AND POLE SLIGHTLY BENT (UNR)
0630,UNK,DEVON,BOURBON,KS,37.92,-94.82,LARGE LIMBS BLOWN DOWN IN DEVON ALONG WITH 1.96 INCHES OF RAINFALL IN ABOUT AN HOUR (SGF)
0700,UNK,NEVADA,VERNON,MO,37.84,-94.35,LARGE TREE BRANCH OVER THE ROAD NEAR THE INTERSECTION OF MAIN STREET AND EWING STREET. (SGF)
0720,64,4 E CACTUS FLAT,JACKSON,SD,43.84,-101.82,(UNR)
0800,65,11 ENE WANBLEE,JACKSON,SD,43.64,-101.45,(UNR)
0815,UNK,1 W RAYMORE,CASS,MO,38.81,-94.48,LARGE TREE LIMBS DOWN. DELAYED REPORT. (EAX)
0855,70,1 ESE MISSION,TODD,SD,43.3,-100.65,(UNR)
Time,Size,Location,County,State,Lat,Lon,Comments
1940,100,5 SSW ETHRIDGE,TOOLE,MT,48.49,-112.16,QUARTER SIZED HAIL REPORTED NEAR THE GLACIER WIND FARM. (TFX)
2011,100,15 SW EDSON,SHERMAN,KS,39.18,-101.74,(GLD)
2020,100,13 NNE WALLACE,WALLACE,KS,39.09,-101.5,HEAVY RAINFALL OBSERVED. (GLD)
2025,100,5 SSE NUNEZ,EMANUEL,GA,32.43,-82.31,THE PUBLIC REPORTED QUARTER SIZED HAIL BETWEEN NUNEZ AND OAK PARK. (FFC)
2040,100,11 S DEVON,TOOLE,MT,48.3,-111.52,(TFX)
2054,100,5 W RUSSELL SPRINGS,LOGAN,KS,38.91,-101.27,HEAVY RAINFALL AND GUSTY WINDS WERE OBSERVED. SOME SMALL BRANCHES WERE BLOWN TO THE GROUND. (GLD)
2102,100,HAVRE,HILL,MT,48.55,-109.68,HAIL RANGING FROM PEA TO QUARTER SIZED. (TFX)
2105,125,25 NE DODSON,PHILLIPS,MT,48.65,-107.86,(GGW)
2125,100,5 NNE CUT BANK,GLACIER,MT,48.7,-112.29,QUARTER SIZED HAIL COVERING THE GROUND. (TFX)
2128,100,5 NNE LOMA,CHOUTEAU,MT,48,-110.47,NICKEL TO QUARTER SIZE HAIL. 50 MPH WINDS. (TFX)
2135,175,6 N ETHRIDGE,TOOLE,MT,48.64,-112.12,GOLF BALL SIZED HAIL. CROP DAMAGE. (TFX)
2200,100,11 ENE THE KNEES,CHOUTEAU,MT,48.07,-111.07,RECEIVED DELAYED REPORT FROM TRAINED SPOTTER OF QUARTER-SIZE HAIL FROM STORM ON AUG 5 AT 400 PM APPROX. 25 MILES NW OF FT BENTON (TFX)
2200,100,9 NNW SHELBY,TOOLE,MT,48.63,-111.93,QUARTER-SIZED HAIL AROUND 4 PM MDT. CROP DAMAGE REPORTED. (TFX)
2216,100,5 WSW UPTON,WESTON,WY,44.07,-104.72,(UNR)
2230,175,5 S VIDA,MCCONE,MT,47.76,-105.49,HAIL LASTED FOR 2 MINUTES. ENDED AT 430 PM. (GGW)
2231,100,5 NE DOWNTOWN GILLETTE,CAMPBELL,WY,44.34,-105.43,(UNR)
2250,100,4 N WELLFLEET,LINCOLN,NE,40.81,-100.73,(LBF)
2250,100,7 SE BAYLOR,VALLEY,MT,48.59,-106.37,(GGW)
2305,100,3 SW UPTON,WESTON,WY,44.07,-104.67,(UNR)
2310,100,3 SSE MOORCROFT,CROOK,WY,44.22,-104.93,(UNR)
2320,175,3 NW HAYES CENTER,HAYES,NE,40.54,-101.06,CORN FIELD IS DAMAGED AND THE GROUND IS WHITE FROM THE HAIL. (LBF)
2340,100,9 SW HAYES CENTER,HAYES,NE,40.42,-101.14,(LBF)
2340,100,17 NE VOLBORG,CUSTER,MT,45.98,-105.39,(BYZ)
2345,100,7 NNE AETNA,BARBER,KS,37.18,-98.93,(DDC)
2350,175,5 NNE DOWNTOWN CUSTER,CUSTER,SD,43.83,-103.56,(UNR)
2350,100,4 S HILL CITY,PENNINGTON,SD,43.87,-103.58,(UNR)
2355,175,4 NW AVA,DOUGLAS,MO,36.99,-92.71,(SGF)
2355,100,8 N WAUNETA,CHASE,NE,40.53,-101.37,(LBF)
2356,100,2 SE SPRINGFIELD,GREENE,MO,37.18,-93.26,MOSTLY DIME SIZED HAIL WITH AN OCCASIONAL QUARTER SIZE. (SGF)
0004,175,6 ENE NIXA,CHRISTIAN,MO,37.07,-93.2,DELAYED REPORT FROM MONDAY EVENING. (SGF)
0010,100,9 ENE DOWNTOWN CUSTER,CUSTER,SD,43.82,-103.43,(UNR)
0025,100,4 W HAMLET,HAYES,NE,40.38,-101.31,(LBF)
0027,175,13 NNW LAMBERT,RICHLAND,MT,47.86,-104.73,HAIL AND WIND DESTROYED OVER 600 ACRES OF CROP AND 1200-1500 ACRES OF GRASS FOR THEIR CATTLE. A WINDOW WAS BROKEN ON THE HOUSE. (GGW)
0030,100,5 ENE PLYMELL,FINNEY,KS,37.83,-100.78,(DDC)
0037,100,12 N STRATTON NE,HITCHCOCK,NE,40.33,-101.23,(GLD)
0055,175,11 WSW CAPITOL,CARTER,MT,45.38,-104.29,(BYZ)
0100,200,7 S RIDGEWAY,CARTER,MT,45.38,-104.52,HEN EGG HAIL STRIPPED SIDING AND SCREENS FROM HOUSE. (BYZ)
0105,150,7 NNW STRATTON NE,HITCHCOCK,NE,40.25,-101.28,(GLD)
0108,275,7 S CHARLESTON,GRAY,KS,37.77,-100.57,(DDC)
0115,250,4 NNE ALBION,CARTER,MT,45.23,-104.23,BROKEN WINDOWS IN HOUSE. (BYZ)
0116,125,2 NE KISSEE MILLS,TANEY,MO,36.7,-93.02,(SGF)
0130,100,STRATTON NE,HITCHCOCK,NE,40.15,-101.23,(GLD)
0130,175,11 N YUMA,YUMA,CO,40.28,-102.72,(GLD)
0145,100,MOUNTAIN HOME,BAXTER,AR,36.34,-92.38,(LZK)
0209,175,21 WSW CASTLE ROCK,BUTTE,SD,44.85,-103.82,(UNR)
