Time,F_Scale,Location,County,State,Lat,Lon,Comments
1619,UNK,7 WSW CLARK,ROUTT,CO,40.67,-107.05,CONFIRMED TORNADO WITH ROTATION ON THE GROUND AT ABOUT 8500 FEET FOR ABOUT ONE MINUTE. FUNNEL CLOUD LASTED FOR AT LEAST TEN MINUTES. (GJT)
1715,UNK,4 WSW COALMONT,JACKSON,CO,40.54,-106.5,TIME AND LOCATION OF TORNADO ESTIMATED. (BOU)
2051,UNK,2 NE ARCO,LINCOLN,MN,44.41,-96.15,REPORT VIA SOCIAL MEDIA WITH PHOTO. (FSD)
2210,UNK,6 SSE CLAIRE CITY,ROBERTS,SD,45.78,-97.05,BRIEF TOUCHDOWN ON THE GROUND FOR JUST A FEW SECONDS. (ABR)
0025,UNK,3 E FAIRMONT,FILLMORE,NE,40.64,-97.53,BRIEF TORNADO EAST OF FAIRMONT. (GID)
Time,Speed,Location,County,State,Lat,Lon,Comments
1200,UNK,BLACK ROCK,LAWRENCE,AR,36.11,-91.11,LARGE TREE BLOWN DOWN (MEG)
1205,65,ALMA,CRAWFORD,AR,35.48,-94.22,WEATHER BUG SITE. (TSA)
1220,UNK,5 SSW SMITHVILLE,MCCURTAIN,OK,34.41,-94.68,SEVERAL TREES DOWN NEAR SMITHVILLE AND BETHEL CAUSING WIDESPREAD POWER OUTAGES IN THE AREA. (SHV)
1226,UNK,CAULKSVILLE,LOGAN,AR,35.3,-93.87,NUMEROUS LARGE TREE LIMBS WERE BLOWN DOWN. POWER OUTAGES WERE ALSO REPORTED. (LZK)
1243,UNK,CLARKSVILLE,JOHNSON,AR,35.46,-93.47,CLARKSVILLE PD REPORTED A TREE WAS BLOWN DOWN. (LZK)
1248,UNK,Y CITY,SCOTT,AR,34.73,-94.08,TREES DOWN ON HWY 270 AT Y CITY. TIME ESTIMATED FROM RADAR. (LZK)
1253,UNK,WICKES,POLK,AR,34.3,-94.34,TREES WERE BLOWN DOWN ACROSS THE SOUTHERN PORTION OF POLK COUNTY. (LZK)
1254,UNK,SE HAVANA,YELL,AR,35.11,-93.53,TREES DOWN ON MT. MAGAZINE SCENIC HIGHWAY NEAR HAVANA. TIME ESTIMATED FROM RADAR. (LZK)
1306,UNK,RUSSELLVILLE,POPE,AR,35.27,-93.14,TREES DOWN IN THE 500 BLOCK OF DAY LANE IN RUSSELLVILLE. TIME ESTIMATED FROM RADAR. (LZK)
1312,UNK,5 NE HECTOR,POPE,AR,35.52,-92.91,TREES DOWN NEAR THE INTERSECTION OF AR-27 AND LINDSEY MOTORWAY. TIME ESTIMATED FROM RADAR. (LZK)
1324,62,4 NW PIERCEVILLE,FINNEY,KS,37.93,-100.72,REPORTED AT GARDEN CITY REGIONAL AIRPORT. (DDC)
1350,UNK,GREERS FERRY,CLEBURNE,AR,35.57,-92.17,DAMAGE WAS REPORTED TO A SHED FROM A FALLEN TREE. (LZK)
1402,UNK,5 NW AIKEN,AIKEN,SC,33.6,-81.78,TREES DOWN AT VAUCLUSE ROAD AND HANCOCK ROAD. (CAE)
1725,UNK,1 S NICHOLS HILLS,OKLAHOMA,OK,35.53,-97.55,PICTURE OF LARGE TREE DOWN ON SOCIAL MEDIA. TIME ESTIMATED FROM RADAR/OBS. (OUN)
1756,UNK,3 SSW CHURCHVILLE,AUGUSTA,VA,38.19,-79.18,TREE DOWN ON THE 4500 BLOCK OF MORRIS MILL ROAD. (LWX)
1810,UNK,2 NNW BENSON,JOHNSTON,NC,35.4,-78.56,TREE DOWN ON DOGEYE RD NEAR NORTH LINCOLN ST IN BENSON. (RAH)
1813,UNK,5 ESE LEMOYNE,KEITH,NE,41.26,-101.71,*** 1 FATAL... 1 INJ *** ESTIMATED 88MPH WINDS UPROOTED TREES... SNAPPED TREE TRUNKS... AND BROUGHT DOWN LARGE BRANCHES. ONE BRANCH STRUCK A CAMPER CAUSING FATAL INJURI (LBF)
1830,UNK,1 WNW BETHEL,CLARKE,VA,39.03,-78.05,HORSE TRAILER BLOWN DOWN A HILL ABOUT 30-40 FEET... MANY TREES DAMAGED OR DESTROYED... TWO BUILDINGS WITH WALLS DISLODGED BY 1 TO 2 FEET FROM NORMAL POSITION (LWX)
1836,UNK,5 WNW FINGERVILLE,SPARTANBURG,SC,35.16,-82.08,A TREE DOWN ACROSS NORTH PACOLET ROAD NEAR MELVIN HILL ROAD. (GSP)
1843,UNK,2 S LYDIA,GREENE,VA,38.3,-78.48,TREE DOWN AT THE INTERSECTION OF PEA BRIDGE ROAD AND DYKE ROAD. (LWX)
1848,UNK,2 S SHADY GROVE,ALBEMARLE,VA,38.23,-78.6,TREE DOWN ON THE 7000 BLOCK OF FREE UNION ROAD (LWX)
1850,UNK,2 SE BLUEMONT,LOUDOUN,VA,39.1,-77.81,TREE DOWN NEAR THE INTERSECTION OF SNICKERSVILLE TURNPIKE AND YELLOW SCHOOLHOUSE ROAD. (LWX)
1853,60,FORT SILL,COMANCHE,OK,34.66,-98.41,(OUN)
1855,72,4 SW EL RENO,CANADIAN,OK,35.49,-98.01,(OUN)
1859,60,8 NW BIG SPRINGS,DEUEL,NE,41.15,-102.18,(LBF)
1900,UNK,2 NNW NEWTOWN,GREENE,VA,38.26,-78.36,TREE DOWN AT THE INTERSECTION OF DAIRY ROAD AND SEMINOLE TRAIL. (LWX)
1901,UNK,2 NNW DAWSONVILLE,MADISON,VA,38.29,-78.33,TREE DOWN NEAR THE INTERSECTION OF SEVILLE ROAD AND SEMINOLE TRAIL. (LWX)
1908,UNK,2 SSE NEWTON GROVE,SAMPSON,NC,35.23,-78.35,TREE DOWN ON HOBBTON HIGHWAY NEAR ALEX BENTON RD. (RAH)
1909,UNK,3 N SHADWELL,ALBEMARLE,VA,38.06,-78.4,TREE DOWN AT THE 800 BLOCK OF HAMMOCKS GAP ROAD. (LWX)
1910,74,4 WNW RUSH SPRINGS,GRADY,OK,34.8,-98.04,(OUN)
1913,UNK,5 ESE LEMOYNE,KEITH,NE,41.26,-101.71,*** 1 FATAL... 1 INJ *** UPDATED PREVIOUS REPORT WITH MORE INFORMATION ON FATALITY. ESTIMATED 88MPH WINDS UPROOTED TREES... SNAPPED TREE TRUNKS... AND BROUGHT DOWN LARG (LBF)
1914,UNK,CHARLOTTESVILLE,CITY OF CHARLOTTE,VA,38.04,-78.49,TREE DOWN AT THE 1000 BLOCK OF PRESTON AVE. (LWX)
1915,UNK,5 SE ROCKBRIDGE BATHS,ROCKBRIDGE,VA,37.84,-79.36,TWO TREES AND MULTIPLE TREE LIMBS AND A CHURCH STEEPLE BLOWN DOWN NEAR THE INTERSECTION OF TIMBER RIDGE ROAD AND SAM HOUSTON WAY (RNK)
1918,63,8 W MARLOW,STEPHENS,OK,34.65,-98.12,(OUN)
1930,UNK,4 NW KINGSLEY DAM,KEITH,NE,41.26,-101.71,*** 1 INJ *** ONE FOOT DIAMETER BRANCH DOWNED FROM HEALTHY TREE. WOODEN FENCE FLATTENED. CAMPERS ROLLED...THROWN INTO LAKE AT NEARBY CAMPSITE. LOCATION APPROXIMATE FOR (LBF)
1938,UNK,3 WSW YOUNG HARRIS,UNION,GA,34.91,-83.9,SEVERAL TREES REPORTED DOWN ON HWY 515 EAST OF BLAIRSVILLE. (FFC)
1940,UNK,1 NNW YOUNG HARRIS,TOWNS,GA,34.95,-83.86,A COUPLE OF TREES WERE REPORTED DOWN ON HWY 66 NORTHWEST OF YOUNG HARRIS. (FFC)
1944,UNK,1 NNE LINDEN,HARNETT,NC,35.27,-78.74,TREE DOWN ON NC 217 AND HORSESHOE BEND RD. (RAH)
1945,UNK,4 N LILLINGTON,HARNETT,NC,35.46,-78.82,TREE DOWN ON SHOULDER OF BALLARD ROAD. (RAH)
1945,83,KINGSLEY DAM 3NNE,KEITH,NE,41.25,-101.63,MESONET STATION UP362... KINGSLEY DAM 3NNE. (LBF)
1945,UNK,EARLHAM,MADISON,IA,41.49,-94.12,REPORT OF TREES DOWN AND POWER OUTAGES. TIME ESTIMATED FROM RADAR. (DMX)
1948,UNK,6 W FRANKLIN,MACON,NC,35.17,-83.49,TWO TREES BLOWN DOWN. (GSP)
1948,UNK,2 SSW BELMONT,SPOTSYLVANIA,VA,38.12,-77.89,TREE DOWN ON THE 15000 BLOCK OF MONROVIA ROAD. (LWX)
2000,UNK,VANCEBORO,CRAVEN,NC,35.3,-77.15,MULTIPLE TREES DOWN IN THE VANCEBORO AREA. (MHX)
2000,62,5 NW KINGSLEY DAM,KEITH,NE,41.27,-101.73,DAVIS WEATHER STATION REPORT (LBF)
2000,UNK,5 NW KINGSLEY DAM,KEITH,NE,41.27,-101.73,3 METAL LAWN CHAIRS BLOWN 150 YARDS. A 2-FOOT DIAMETER TREE SNAPPED AT THE TRUNK. TIME APPROXIMATE AND BASED ON THE TIME OF A MEASURED PEAK WIND GUST OF 62 MPH. (LBF)
2012,UNK,CLAYTON,RABUN,GA,34.88,-83.4,MULTIPLE TREES BLOWN DOWN FROM CLAYTON NORTH TOWARD THE NC BORDER. (GSP)
2014,UNK,2 SE OTTO,MACON,NC,35.04,-83.36,A FEW TREES AND POWER LINES BLOWN DOWN. (GSP)
2014,UNK,3 WNW THORNBURG,SPOTSYLVANIA,VA,38.14,-77.57,TREE DOWN ON THE 7000 BLOCK OF MORRIS ROAD. (LWX)
2015,60,1 W ADA,PONTOTOC,OK,34.78,-96.68,(OUN)
2015,UNK,BYNG,PONTOTOC,OK,34.87,-96.67,CARPORT WAS FLIPPED AND A FENCE WAS BLOWN DOWN. (OUN)
2017,UNK,CLAY,WEBSTER,KY,37.48,-87.82,UTILITY POLE SNAPPED AND POWER OUTAGE AFFECTING 40 CUSTOMERS. (PAH)
2020,UNK,7 SSE SPIVEY'S CORNER,SAMPSON,NC,35.15,-78.49,TREE DOWN ON MT ELAM CHURCH ROAD. TIME ESTIMATED BY RADAR. (RAH)
2025,UNK,1 SW LAURINBURG,SCOTLAND,NC,34.75,-79.48,NUMEROUS TREES AND POWER LINES DOWN ACROSS THE CITY... ESPECIALLY SOUTH OF HWY 74. (RAH)
2025,60,CAYTON,CRAVEN,NC,35.26,-76.99,PUBLIC REPORTED A WIND GUST OF 60 MPH VIA SOCIAL MEDIA. (MHX)
2026,UNK,2 SSE WINGINA,BUCKINGHAM,VA,37.61,-78.7,ONE TREE BLOWN DOWN ALONG MEADOW CREEK ROAD (RNK)
2028,UNK,2 WSW JEFFERSON CITY,JEFFERSON,TN,36.11,-83.52,A FEW TREES DOWN NEAR DISPATCH CENTER. (MRX)
2030,UNK,4 SSE ADA,PONTOTOC,OK,34.72,-96.64,POWER LINES DOWN AND BLOCKING ROADWAY AT STATE HWY 3/COUNTY RD 1580. (OUN)
2030,UNK,6 SE ANDERSON CREEK,CUMBERLAND,NC,35.21,-78.86,8 TREES BLOWN DOWN AT THE INTERSECTION OF ELLIOT FARM RD AND ELLIOT BRIDGE RD. (RAH)
2034,UNK,4 N SALEM,OCONEE,SC,34.95,-82.98,MULIPLE TREES DOWN ACROSS THE NORTHERN PART OF THE COUNTY. (GSP)
2036,UNK,1 NW MAYO,SPARTANBURG,SC,35.1,-81.87,SEVERAL TREES BLOWN DOWN AROUND MAYO. (GSP)
2040,UNK,3 ESE BOWLING GREEN,CAROLINE,VA,38.03,-77.31,NUMEROUS TREES REPORTED DOWN COUNTY WIDE. (AKQ)
2041,UNK,N TOGA,BUCKINGHAM,VA,37.5,-78.62,ONE TREE DOWN NEAR THE INTERSECTION OF PERKINS MILL ROAD AND ROUTE 24 (RNK)
2045,UNK,1 S AURORA,BEAUFORT,NC,35.29,-76.79,POWER POLE SNAPPED ON IDALIA ROAD... JUST SOUTH OF AURORA. TIME BASED ON RADAR. (MHX)
2045,UNK,2 WNW ATHENS,MCMINN,TN,35.46,-84.63,MULTIPLE TREES DOWN IN THE COUNTY. (MRX)
2047,UNK,SIX MILE,PICKENS,SC,34.81,-82.82,AN ANTENNA AND TREES BLOWN DOWN. (GSP)
2050,58,CENTRAHOMA,COAL,OK,34.61,-96.35,(OUN)
2054,UNK,FAIR PLAY,OCONEE,SC,34.51,-82.99,A FEW TREES BLOWN DOWN. (GSP)
2054,UNK,6 E HOBBTON,SAMPSON,NC,35.19,-78.21,POWER LINES BLOWN DOWN AND INTO TREES. (RAH)
2058,UNK,2 SSE PEMBROKE,ROBESON,NC,34.66,-79.18,TREE DOWN. WINDS GUST M45 MPH. (ILM)
2100,UNK,MILL CREEK,JOHNSTON,OK,34.4,-96.83,DAMAGE TO METAL ROOFING. (OUN)
2100,60,2 S MERRITT,PAMLICO,NC,35.07,-76.71,PUBLIC REPORTED TREES DOWN AND QUARTER INCH HAIL NORTH OF ORIENTAL. (MHX)
2100,UNK,MOUNT OLIVE,WAYNE,NC,35.19,-78.07,MULTIPLE TREES DOWN IN SOUTHERN WAYNE COUNTY NEAR THE DUPLIN COUNTY LINE. TIME ESTIMATED BY RADAR. (RAH)
2105,UNK,CONNERVILLE,JOHNSTON,OK,34.45,-96.64,TREE LIMBS DOWN. (OUN)
2105,UNK,1 N CALYPSO,DUPLIN,NC,35.17,-78.1,TREES DOWN HIGHWAY 117 SOUTH OF MT OLIVE. (MHX)
2105,UNK,PARROTTSVILLE,COCKE,TN,36.01,-83.09,SEVERAL TREES DOWN. (MRX)
2110,UNK,7 S FALCON,SAMPSON,NC,35.1,-78.63,TREE DOWN ON MAXWELL ROAD. (RAH)
2110,UNK,5 SSW LIVINGSTON,OVERTON,TN,36.32,-85.36,TREES DOWN OVER A CARPORT AND TWO VEHICLES ON RICKMAN RD. (OHX)
2110,UNK,2 ENE LAKESIDE VILLAGE,CUMBERLAND,VA,37.68,-78.14,TREES DOWN ALONG BOSTON HILL ROAD. (AKQ)
2112,UNK,FINGERVILLE,SPARTANBURG,SC,35.13,-82.01,MULTIPLE REPORTS OF TREES AND POWER LINES BLOWN DOWN. (GSP)
2112,UNK,2 ESE CARLISLE,CUMBERLAND,PA,40.19,-77.17,TREE DOWN ALONG YORK ROAD (ROUTE 74). (CTP)
2115,UNK,3 WNW STONEWALL,PONTOTOC,OK,34.67,-96.56,ROOF BLOWN OFF OF RESIDENCE. (OUN)
2115,UNK,GREENVILLE,GREENVILLE,SC,34.84,-82.37,MULTIPLE REPORTS OF TREES AND POWER LINES DOWN ON WADE HAMPTON RD. (GSP)
2115,UNK,2 SE ELK HILL,GOOCHLAND,VA,37.7,-78.06,TREES DOWN NEAR CARTERSVILLE ROAD. (AKQ)
2116,UNK,5 NE CARNESVILLE,FRANKLIN,GA,34.42,-83.17,TREES BLOWN DOWN BETWEEN CARNESVILLE AND LAVONIA. (GSP)
2116,UNK,HOT SPRINGS,MADISON,NC,35.89,-82.83,MULTIPLE POWER LINES BLOWN DOWN. (GSP)
2120,UNK,3 NW ARDMORE,CARTER,OK,34.2,-97.17,CORRECTS PREVIOUS TSTM WND DMG REPORT FROM 3 NW ARDMORE. TWO SEMI-TRAILERS BLOWN OVER AND ROOF PARTIALLY TORN OFF BUILDING. TIME ESTIMATED BY RADAR. (OUN)
2120,UNK,1 WNW KORNEGAY,DUPLIN,NC,35.06,-77.83,TREES DOWN ON HIGHWAY 903 NEAR HIGHWAY 11. (MHX)
2120,UNK,3 E JASPER,MARION,TN,35.06,-85.58,SEVERAL TREES DOWN. (MRX)
2126,UNK,CARROLL VALLEY,ADAMS,PA,39.75,-77.38,TREE AND WIRES DOWN ON MEADOW LARK TRAIL. (CTP)
2130,58,1 WNW LANE,ATOKA,OK,34.31,-96.01,(OUN)
2130,UNK,CLEVELAND,BRADLEY,TN,35.18,-84.87,SEVERAL TREES DOWN IN THE CLEVELAND AREA. (MRX)
2140,UNK,PINK HILL,LENOIR,NC,35.06,-77.75,DUPLIN DOT REPORTED TREES DOWN IN PINK HILL. TIME BASED ON RADAR. (MHX)
2140,UNK,6 S ROCKWOOD,ROANE,TN,35.79,-84.68,MULTIPLE TREES DOWN. (MRX)
2142,UNK,WOODFIN,BUNCOMBE,NC,35.64,-82.59,ONE LARGE TREE BLOWN DOWN NEAR WOODFIN. (GSP)
2145,UNK,1 ENE SCOTTS FORK,AMELIA,VA,37.32,-77.87,LARGE OAK TREE DOWNED IN SCOTTS FORK ALONG VA-153. (AKQ)
2145,65,3 NNW ALBEE,GRANT,SD,45.09,-96.57,STRONG WIND AND DIME TO QUARTER SIZE HAIL. (ABR)
2147,UNK,3 SE LEHMAN,LUZERNE,PA,41.29,-75.99,MULTIPLE REPORTS OF TREES/WIRES DOWN IN JACKSON TOWNSHIP. (BGM)
2150,64,1 ESE GREGORY,GREGORY,SD,43.22,-99.4,FROM K9D1 SUPERAWOS. 20 MINUTE MAX GUST ENDING AT 455PM. EXACT TIME ESTIMATED FROM RADAR. (FSD)
2155,UNK,BIG FROG MOUNTAIN,POLK,TN,35,-84.53,SEVERAL TREES DOWN NEAR BIG FROG MOUNTAIN. (MRX)
2155,UNK,3 WSW RICHMOND,CHESTERFIELD,VA,37.47,-77.52,TREES DOWN NEAR CHALKLEY ELEMENTARY SCHOOL. (AKQ)
2155,UNK,LIVELY,LANCASTER,VA,37.78,-76.52,TREES DOWN AND BLOCKING VA-3 (KINGS HWY) AND BALL RD. (AKQ)
2158,UNK,1 NNW BENSLEY,CITY OF RICHMOND,VA,37.46,-77.45,TREES AND POWER LINES DOWNED ON CRONIN RD IN RICHMOND. (AKQ)
2200,UNK,FLINT SPRINGS,BRADLEY,TN,35.03,-84.91,TREES DOWN NEAR FLINT SPRINGS. (MRX)
2200,UNK,3 E ASHEVILLE,BUNCOMBE,NC,35.59,-82.5,NWS VOLUNTEER STUDENT RELAYED REPORT OF MULTIPLE TREES BLOWN DOWN ALONG THE SWANNANOA RIVER IN EAST ASHEVILLE. (GSP)
2200,UNK,6 ESE TAZEWELL,CLAIBORNE,TN,36.42,-83.48,MULTIPLE TREES DOWN. (MRX)
2215,UNK,6 ESE TAZEWELL,CLAIBORNE,TN,36.42,-83.48,MULTIPLE TREES DOWN. (MRX)
2220,UNK,1 NW REAMS,DINWIDDIE,VA,37.11,-77.42,TREE DOWN ALONG HALIFAX ROAD. POWER OUTAGE REPORTED IN THE AREA. (AKQ)
2220,UNK,3 SW DALLASTOWN,YORK,PA,39.87,-76.68,LARGE TREE DOWN ACROSS ROAD AT INTERSECTION OF SWAMP AND RIDGEVIEW ROADS. (CTP)
2225,UNK,CLINTON,SAMPSON,NC,35,-78.33,NUMEROUS TREES AND POWER LINES DOWN IN THE CLINTON AREA. (RAH)
2225,UNK,2 WSW NEW MARKET,FREDERICK,MD,39.37,-77.32,TREE DOWN ON THE 5000 BLOCK OF MUSSETTER RD. (LWX)
2227,UNK,BLUE RIDGE,FANNIN,GA,34.87,-84.32,POWER LINES REPORTED DOWN ON E MAIN ST NEAR THE INTERSECTION OF MESSER ST. (FFC)
2229,UNK,2 NNW STONY FORK JUNCTI,BELL,KY,36.86,-83.55,A TREE WAS REPORTED TO HAVE BEEN BLOWN DOWN ALONG KY 221. (JKL)
2229,66,BURLINGTON CO AIRPORT,KIT CARSON,CO,39.25,-102.27,CORRECTS PREVIOUS TSTM WND GST REPORT FROM ASOS STATION ITR... BURLINGTON CO AIRPORT. (GLD)
2230,UNK,2 NE RIVER BEND,CRAVEN,NC,35.08,-77.09,CORRECTS PREVIOUS TSTM WND DMG REPORT FROM 1 ENE TRENT WOODS. PUBLIC REPORTED SEVERAL TREES DOWN JUST WEST OF THE TRENT WOODS NEIGHBORHOOD... INCLUDING ONE ON TOP OF A (MHX)
2233,UNK,6 WSW HARRELLS,SAMPSON,NC,34.69,-78.29,TREE DOWN ON SCRONCE ROAD... SOUTH OF TOMAHAWK HIGHWAY. TIME ESTIMATED BY RADAR. (RAH)
2237,UNK,1 E MURPHY,CHEROKEE,NC,35.09,-84.01,MULTIPLE TREES DOWN ALONG HIGHWAY 64. (MRX)
2238,UNK,ANDREWS,CHEROKEE,NC,35.2,-83.82,TREES DOWN. (MRX)
2238,UNK,1 SW ARNOLDS PARK,DICKINSON,IA,43.35,-95.15,LAW ENFORCEMENT REPORT RELAYED BY EMERGENCY MANAGEMENT. TREE BLOCKING ROAD IN FRONT OF TACO HOUSE RESTAURANT. TIME ESTIMATED FROM RADAR. (FSD)
2240,UNK,MURRAY STORE,MCMINN,TN,35.61,-84.63,SEVERAL TREES DOWN REPORTED ACROSS NORTHERN MCMINN COUNTY. (MRX)
2240,UNK,2 SE MCKENNEY,DINWIDDIE,VA,36.97,-77.7,NUMEROUS TREES REPORTED DOWN ALONG OLD HICKORY RD... NEAR HIGHWAY 40...JUST NORTH OF THE DINWIDDIE/BRUNSWICK COUNTY LINE. (AKQ)
2245,UNK,BRANCH,FRANKLIN,AR,35.31,-93.95,DAMAGED MOBILE HOME WITH MISSING ROOF AND INSULATION SCATTERED ABOUT. (TSA)
2248,UNK,FOSTORIA,CLAY,IA,43.24,-95.15,LARGE TREE AND POWER LINES DOWN. (FSD)
2250,UNK,PUMPKIN CENTER,ONSLOW,NC,34.77,-77.37,TREES SNAPPED AND TOOK OUT POWER LINES NEAR THE INTERSECTION OF PINEY GREEN RD AND COUNTRY CLUB RD. TIME ESTIMATED FROM RADAR. (MHX)
2256,59,16 S RULETON,WALLACE,KS,39.11,-101.88,WEATHER LINK NETWORK STATION DELTA. (GLD)
2257,60,CAULKSVILLE,LOGAN,AR,35.3,-93.87,(LZK)
2300,UNK,2 ESE CHALCO,SARPY,NE,41.18,-96.1,UPROOTED TREES AND BROKEN TREE LIMBS. (OAX)
2302,UNK,3 ESE PARK MILLS,FREDERICK,MD,39.28,-77.36,TREE DOWN ON COVELL RD. IN URBANA... MD (LWX)
2305,UNK,1 SSW MATHEWS,MATHEWS,VA,37.42,-76.33,POWER LINES DOWN ALONG HWY 14... JUST OUTSIDE OF TOWN OF MATHEWS. (AKQ)
2305,58,2 SE WESKAN,WALLACE,KS,38.83,-101.93,WEATHER LINK NETWORK STATION SLOAN. (GLD)
2306,UNK,7 S GOODLAND,SHERMAN,KS,39.25,-101.72,REPORT OF BRANCHES BROKEN OFF OF TREE AND IRRIGATION PIVOT BLOWN OVER. (GLD)
2312,UNK,4 E SILVERSTREET,NEWBERRY,SC,34.22,-81.64,TREE IN ROADWAY AT INTERSECTION OF DENNIS DAIRY RD AND WHITMAN RD. (CAE)
2312,UNK,3 SW CHESTER,CHESTER,SC,34.68,-81.25,A TREE AND POWER LINE DOWN ON MEADOWBROOK ROAD. (GSP)
2315,UNK,FOREST CITY,WINNEBAGO,IA,43.26,-93.64,BRANCHES DOWN AROUND TOWN... RANGING UP TO 6 INCHES IN DIAMETER - DELAYED REPORT... ESTIMATED VIA RADAR. (DMX)
2320,UNK,WINNSBORO,FAIRFIELD,SC,34.38,-81.09,HUGE LIMB REPORTED DOWN IN WINNSBORO VIA FACEBOOK. PHOTO WAS INCLUDED. (CAE)
2320,UNK,FORGE SPRING VILLAGE,MONTGOMERY,PA,40.1,-75.36,TREES DOWN IN THE BELMONT HILLS NEIGHBORHOOD OF KING OF PRUSSIA. TIME ESTIMATED FROM RADAR. (PHI)
2335,UNK,WINONA,LOGAN,KS,39.06,-101.25,PUBLIC REPORTED POWER LINES ON MAIN STREET WERE KNOCKED DOWN BY THUNDERSTORM WINDS ON FACEBOOK. (GLD)
2336,65,COLBY,THOMAS,KS,39.39,-101.05,RELAYED VIA SOCIAL MEDIA. (GLD)
2340,UNK,SMITHFIELD,ISLE OF WIGHT,VA,36.98,-76.61,SEVERAL TREES AND POWERLINES DOWNED AT INTERSECTION OF SOUTH CHURCH ST AND BENNS CHURCH BLVD. (AKQ)
2343,UNK,1 SSE OTWAY,CARTERET,NC,34.76,-76.55,LARGE LIMBS DOWN. TIME ESTIMATED FROM RADAR. (MHX)
2343,UNK,COLBY,THOMAS,KS,39.39,-101.05,TREE TRUNK A FOOT IN DIAMETER WAS SNAPPED. ESTIMATED WIND GUST OF 90 MPH. (GLD)
2345,UNK,1 SSW DILLON,DILLON,SC,34.41,-79.37,PORCH PARTIALLY DOWN. (ILM)
2345,63,1 W MONUMENT,LOGAN,KS,39.1,-101.02,(GLD)
2345,UNK,CHELTENHAM,MONTGOMERY,PA,40.06,-75.09,TREES DOWN IN THE JOHNS ROAD AREA. TIME ESTIMATED FROM RADAR. (PHI)
2349,UNK,WEST NYACK,ROCKLAND,NY,41.09,-73.97,TREE BRANCH WITH BASE ABOUT THE SIZE OF HAND DOWN IN PALISADES MALL PARKING LOT (OKX)
2350,64,1 NW CROTON-ON-HUDSON,WESTCHESTER,NY,41.21,-73.9,LARGE TREE BRANCH DOWN (11-12" DIAMETER) (OKX)
2352,UNK,FOX CHASE,PHILADELPHIA,PA,40.08,-75.08,TREES DOWN IN SEVERAL AREAS OF NORTHEAST PHILADELPHIA. TIME ESTIMATED FROM RADAR. (PHI)
2357,60,1 N COLBY,THOMAS,KS,39.4,-101.05,ESTIMATED WIND GUSTS 55-60 MPH. (GLD)
0002,UNK,PLEASANTVILLE,WESTCHESTER,NY,41.14,-73.78,TREE DOWN ON WIRES ON OLD SLEEPY HOLLOW ROAD (OKX)
0008,100,OAKLEY,LOGAN,KS,39.13,-100.85,NUMEROUS BRANCHES DOWN RANGING IN SIZE FROM SMALL TO OVER 9" IN DIAMETER. TWO TREES UPROOTED... DUMPSTERS ROLLED. CORRECTS PREVIOUS TSTM WND GST REPORT FROM OAKLEY. EM (GLD)
0008,UNK,OAKLEY,LOGAN,KS,39.13,-100.85,EM SENT PICTURES OF TWO TREES THAT WERE BLOWN OVER AND A 6 INCH BRANCH THAT WAS BROKEN OFF ANOTHER. (GLD)
0018,105,GRINNELL,GOVE,KS,39.13,-100.63,REPORT RELAYED VIA KAKE METEOROLOGIST. (GLD)
0022,UNK,2 S FOREST ACRES,RICHLAND,SC,34,-80.98,RICHLAND COUNTY EMERGENCY MANAGEMENT REPORTED DOWNED POWERLINES ON ARBUTUS DRIVE AND DATURA ROAD. (CAE)
0025,UNK,GORMAN,DURHAM,NC,36.04,-78.82,SEVERAL TREES DOWN ON ROADS INCLUDING RUTH STREET... REDWOOD ROAD... AND GEER STREET. (RAH)
0027,UNK,LEOTI,WICHITA,KS,38.48,-101.36,TREES REPORTED DOWN IN TOWN. 727PM CDT. (GLD)
0030,UNK,CAMDEN,KERSHAW,SC,34.25,-80.61,NUMEROUS TREES DOWN AND POWER OUTAGES IN AND AROUND CAMDEN. TIME ESTIMATED FROM RADAR. (CAE)
0030,65,5 S TASCO,SHERIDAN,KS,39.28,-100.3,730 PM CDT. (GLD)
0033,UNK,GRAINFIELD,GOVE,KS,39.11,-100.47,HALF INCH DIAMETER TREE BRANCHES DOWN. ALSO PEA SIZE HAIL. (GLD)
0034,58,10 S GOVE,GOVE,KS,38.82,-100.46,(GLD)
0037,60,8 NNE SYRACUSE,HAMILTON,KS,38.09,-101.71,(DDC)
0038,UNK,HILLSBOROUGH,SOMERSET,NJ,40.48,-74.63,NUMEROUS TREES DOWN OVER ONE SQUARE MILE. LARGEST TREE DOWN WAS NEARLY 18 INCHES IN DIAMETER... WHICH WAS SNAPPED IN HALF. SOME LARGE LIMBS DOWN THROUGHOUT THE AREA. A (PHI)
0042,UNK,10 E GASTON,CALHOUN,SC,33.79,-80.92,TREE LIMBS DOWN AND MAJOR DAMAGE TO AN ALUMINUM PUMP HOUSE AT 1273 OLD SWAMP ROAD IN SANDY RUN. TIME ESTIMATED FROM RADAR. (CAE)
0045,UNK,2 W WARRENTON,WARREN,GA,33.41,-82.7,TREE REPORTED DOWN ON ELAM CHURCH RD WEST OF WARRENTON. (FFC)
0050,UNK,OMAHA,GALLATIN,IL,37.89,-88.3,TREES AND POWER LINES DOWN. (PAH)
0053,UNK,3 NNW CENTERVILLE,OGLETHORPE,GA,33.84,-82.95,TREE REPORTED DOWN ON CENTERVILLE RD AT THE BORDER OF OGLETHORPE AND WILKES COUNTY. (FFC)
0054,65,LEOTI,WICHITA,KS,38.48,-101.36,(GLD)
0055,UNK,2 NE CENTERVILLE,WILKES,GA,33.82,-82.9,MULTIPLE TREES DOWN NORTH OF RAYLE; NOT IMPACTING ANY ROADWAYS. (FFC)
0100,UNK,2 ENE FLAT ROCK,PUTNAM,GA,33.26,-83.28,TREE REPORTED DOWN AT THE INTERSECTION OF CROOKED CREEK RD AND SCUFFLEBORO RD. (FFC)
0105,UNK,BENTON,SALINE,AR,34.57,-92.58,SHERIFF'S OFFICE REPORTED TREES DOWN ON HIGHWAY 5 SOUTH. ONE TREE KNOCKED DOWN A TRANSFORMER. (LZK)
0105,UNK,5 WSW CARPENTER,CHATHAM,NC,35.79,-78.96,TREES DOWN ON POWER LINES. (RAH)
0108,72,LAKIN,KEARNY,KS,37.94,-101.26,70-75MPH RANGE REPORTED BY STORM SPOTTER. (DDC)
0108,UNK,MACY,THURSTON,NE,42.11,-96.36,APPROXIMATELY 6 INCH DIAMETER TREE LIMBS DOWN. (OAX)
0110,UNK,4 E KELLY,BLADEN,NC,34.47,-78.24,PUBLIC REPORTED TREES MUCH GREATER THAN 3" IN DIAMETER DOWN IN THE KELLY COMMUNITY. ALSO REPORTED TWISTED LIMBS AND BARK OFF OF TREES. A TRAMPOLINE WAS ALSO REPORTED TO (ILM)
0110,UNK,2 SW NEW HAVEN,GALLATIN,IL,37.88,-88.15,SEVERAL TREES AND POWER LINES DOWN. (PAH)
0115,61,2 NE JOHNSON CITY,STANTON,KS,37.59,-101.73,JOHNSON AWOS. (DDC)
0117,UNK,5 ESE CLARENDON,COLUMBUS,NC,34.19,-78.77,TREE DOWN ACROSS ROADWAY. (ILM)
0118,UNK,AHOSKIE,HERTFORD,NC,36.29,-76.99,NUMEROUS TREES DOWN. HOUSES WITH NUMEROUS SHINGLES REMOVED. BASEBALL FIELD DUGOUT DESTROYED. CARPORT DAMAGED. TIME APPROXIMATED BY RADAR. (AKQ)
0120,UNK,1 N SUNBURY,GATES,NC,36.46,-76.61,TREES DOWN ALONG SAVAGE ROAD... JUST OFF HWY 32 BETWEEN CORAPEAKE AND SUNBURY. NUMEROUS POWER OUTAGES REPORTED IN THE AREA. (AKQ)
0124,60,2 NNW ULYSSES,GRANT,KS,37.6,-101.37,ULYSSES AWOS. (DDC)
0124,59,3 ENE GARDEN CITY,FINNEY,KS,38,-100.81,GARDEN CITY MESONET. (DDC)
0130,UNK,2 E FLAT ROCK,PUTNAM,GA,33.24,-83.28,MULTIPLE TREES DOWN NEAR THE INTERSECTION OF TWISTING HILL RD AND TWISTING HILL DR (FFC)
0130,UNK,1 N GALLOWAY,PULASKI,AR,34.79,-92.13,ARKANSAS STATE POLICE REPORTED HIGHWAY 70 JUST NORTH OF GALLOWAY HAS BEEN SHUT DOWN DUE TO TREES AND POWER LINES DOWN. (LZK)
0130,60,TREGO CENTER,TREGO,KS,38.89,-99.89,CORRECTS PREVIOUS TSTM WND GST REPORT FROM TREGO CENTER. 50-60 MPH AVERAGE REPORTS BY TREGO COUNTY SHERIFF OFFICE. (DDC)
0132,UNK,3 WSW TURBEVILLE,CLARENDON,SC,33.87,-80.07,CLARENDON COUNTY DISPATCH REPORTED TREES DOWN NEAR THE INTERSECTION OF FARMINGTON ROAD AND SALEM ROAD. (CAE)
0135,UNK,3 NE CONWAY,FAULKNER,AR,35.12,-92.42,LAW ENFORCEMENT REPORTED A LARGE TREE DOWN BLOCKING A RESIDENTIAL ROAD. (LZK)
0139,UNK,7 E SUMMERTON,CLARENDON,SC,33.59,-80.23,REPORTED NUMEROUS LARGE TO SMALL LIMBS ALONG WITH LOTS OF DEBRIS DOWN ON THE GOLF COURSE. (CAE)
0145,UNK,2 WNW BEALL SPRINGS,WARREN,GA,33.33,-82.74,TWO TREES DOWN ALONG LONG CREEK RD. (FFC)
0145,UNK,WALKERS CORNER,LONOKE,AR,34.71,-92.09,TREES WERE REPORTED DOWN AND MULTIPLE POWER OUTAGES REPORTED. (LZK)
0145,66,4 NNW PIERCEVILLE,FINNEY,KS,37.92,-100.71,GARDEN CITY ASOS. (DDC)
0148,UNK,9 E MANNING,CLARENDON,SC,33.69,-80.06,CLARENDON COUNTY DISPATCH REPORTED TREES DOWN NEAR THE INTERSECTION OF KINGSTREE HIGHWAY AND SOUTH BREWINGTON ROAD. (CAE)
0148,UNK,4 SW HEBRON,WILLIAMSBURG,SC,33.78,-79.94,TREES BLOCKING BURGESS CROSSING ROAD (ILM)
0150,60,3 W GRESHAM,YORK,NE,41.03,-97.46,ALSO HAD PEA SIZE HAIL. (GID)
0151,60,11 WNW KALVESTA,FINNEY,KS,38.1,-100.47,ESTIMATED 55-60 MPH WIND. (DDC)
0152,UNK,1 NW NORTH AUGUSTA,AIKEN,SC,33.52,-81.97,MEDIA REPORTS TREES FELL ON 2 CARS AT A HOME ON CADADA COURT IN NORTH AUGUSTA. NO INJURIES. (CAE)
0202,UNK,4 WNW SAINT STEPHEN,BERKELEY,SC,33.43,-79.99,TREE REPORTED DOWN ALONG HIGHWAY 45 NEAR PINEVILLE. (CHS)
0207,UNK,1 WSW ELIZABETHTOWN,BLADEN,NC,34.62,-78.62,LARGE TREE REPORTED DOWN IN ELIZABETHTOWN. A LARGE HOLE WAS MADE IN THE ROOF OF A SINGLE-WIDE TRAILER. (ILM)
0209,UNK,3 SSW BURNETTOWN,AIKEN,SC,33.47,-81.88,SPOTTER REPORTED LARGE TREES BLOCKING THE ROADWAY ON THE 1500 BLOCK OF STORM BRANCH ROAD NEAR BEECH ISLAND... SC. (CAE)
0212,UNK,1 WNW EDISTO,ORANGEBURG,SC,33.49,-80.92,TREES IN ROADWAY AT 891 NEESES HWY (NEAR SC4 AND SC400 INTERSECTION). (CAE)
0213,UNK,3 E AUGUSTA,RICHMOND,GA,33.46,-81.95,REPORTED TREES DOWN IN THE AREA OF EAST BOUNDARY ROAD AND EAST WATKINS STREET. (CAE)
0215,UNK,3 NNE LIBERAL,SEWARD,KS,37.09,-100.91,GRAIN BIN DESTROYED AND BLOWN 100 YARDS. (DDC)
0215,58,1 NE SUBLETTE,HASKELL,KS,37.49,-100.84,SUBLETTE AWOS. (DDC)
0216,UNK,5 NNW TRIO,WILLIAMSBURG,SC,33.55,-79.76,TREE ON HIGHWAY... US 521 AT TAFT RD (ILM)
0219,UNK,MONCKS CORNER,BERKELEY,SC,33.2,-80.01,TREE DOWN ON HIGHWAY 17A AT CHURCH STREET. (CHS)
0219,UNK,3 ENE SATANTA,HASKELL,KS,37.45,-100.94,THREE POWER POLES WERE BLOWN NEAR MM 65 ON HIGHWAY 56. (DDC)
0220,UNK,LEOTI,WICHITA,KS,38.48,-101.36,CARPORT BLOWN DOWN/AROUND. 920 PM CDT. (GLD)
0222,68,CIMARRON,GRAY,KS,37.81,-100.35,(DDC)
0225,68,1 W HOOKER,TEXAS,OK,36.86,-101.23,(AMA)
0225,UNK,CIMARRON,GRAY,KS,37.81,-100.35,8-10" TREE BRANCHES DOWN AROUND CIMARRON... KS. (DDC)
0228,68,1 W LIBERAL,SEWARD,KS,37.04,-100.95,LIBERAL ASOS. (DDC)
0230,UNK,ATKINSON,PENDER,NC,34.53,-78.16,TREES DOWN EAST CHURCH ST. (ILM)
0230,70,2 WNW KISMET,SEWARD,KS,37.21,-100.73,REPORT MATCHED WITH RADAR. (DDC)
0233,UNK,6 WSW HARRELLS,SAMPSON,NC,34.69,-78.29,CORRECTS TIME FROM THE PREVIOUS TSTM WND DMG REPORT FROM 6 WSW HARRELLS. TREE DOWN ON SCRONCE ROAD... SOUTH OF TOMAHAWK HIGHWAY. TIME ESTIMATED BY RADAR. (RAH)
0234,UNK,3 WNW SPRINGFIELD,ORANGEBURG,SC,33.51,-81.32,SC HIGHWAY PATROL REPORTED TREES DOWN ON SC HIGHWAY 4 IN ORANGEBURG COUNTY NEAR SALLEY... SC. (CAE)
0235,60,3 NW VICTORIA,ELLIS,KS,38.88,-99.18,WIND WAS MEASURED AT KDOT SITE. (DDC)
0236,65,HARDESTY,TEXAS,OK,36.61,-101.19,LOTS OF RAIN. SPOTTER ESTIMATED BETWEEN 60-70 MPH WIND GUSTS. (AMA)
0240,UNK,3 ESE KELLY,BLADEN,NC,34.46,-78.27,NUMEROUS TREES DOWN HWY 53 AND 210. (ILM)
0240,UNK,MONTEZUMA,GRAY,KS,37.6,-100.45,POWER IS OUT IN MONTEZUMA AND COPELAND KS DUE TO STRONG THUNDERSTORM WIND GUSTS. TIME ESTIMATED VIA RADAR. (DDC)
0252,58,3 NW FT. DODGE,FORD,KS,37.76,-99.97,CORRECTS PREVIOUS TSTM WND GST REPORT FROM 3 NW FT. DODGE. 50 KNOT FROM DODGE CITY ASOS. (DDC)
0258,UNK,7 NNE WINDSOR,AIKEN,SC,33.57,-81.47,TREES IN ROADWAY AT SC4 AND SC394 (SALLEY ROAD AND SURREY RACE ROAD). (CAE)
0300,UNK,1 W NORWAY,ORANGEBURG,SC,33.45,-81.15,PECAN TREES DOWN AND METAL SIDING RIPPED FROM HOME. (CAE)
0302,UNK,1 W BURNETTOWN,AIKEN,SC,33.51,-81.87,TREES IN ROADWAY ON ANTHONY DRIVE NEAR JEFFERSON DAVIS HWY (HWY 78). (CAE)
0315,75,3 ENE PERRYTON,OCHILTREE,TX,36.41,-100.75,(AMA)
0315,61,1 SSW BEAVER,BEAVER,OK,36.8,-100.53,(AMA)
0331,69,10 N SPEARMAN,HANSFORD,TX,36.34,-101.19,LAKE PALO DURO SCHOOL NET SITE (AMA)
0333,62,3 ENE PERRYTON,OCHILTREE,TX,36.41,-100.75,(AMA)
0334,UNK,6 E SYCAMORE,ALLENDALE,SC,33.04,-81.11,WARNING POINT REPORTED TREE DOWN ON CONFEDERATE HIGHWAY AT JENNYS ROAD. TIME ESTIMATED FROM RADAR. (CHS)
0343,UNK,5 SW EHRHARDT,BAMBERG,SC,33.04,-81.07,SC HIGHWAY PATROL REPORTED TREES DOWN ON HIGHWAY 641 NEAR EHRHARDT IN BAMBERG COUNTY. (CAE)
0345,58,8 W SLAPOUT,BEAVER,OK,36.6,-100.26,(AMA)
0345,58,1 SSW BEAVER,BEAVER,OK,36.8,-100.53,(AMA)
0349,UNK,5 NE SMOAKS,COLLETON,SC,33.13,-80.74,SOUTH CAROLINA HIGHWAY PATROL REPORTED A TREE DOWN IN THE 5200 BLOCK OF AUGUSTA HIGHWAY. (CHS)
0350,UNK,1 SE HAMPTON,HAMPTON,SC,32.87,-81.11,MULTIPLE TREES DOWN ACROSS THE COUNTY. (CHS)
0350,60,BOOKER,LIPSCOMB,TX,36.46,-100.54,SHERIFFS OFFICE REPORTED FROM DEPUTYS IN THE FIELD THAT WINDS ESTIMATED AT LEAST 60 MPH WITH THE STORM. (AMA)
0400,UNK,4 SSW RUFFIN,COLLETON,SC,32.95,-80.85,HIGHWAY PATROL REPORTED TREE DOWN ON 2000 BLOCK OF DELIVERANCE ROAD. (CHS)
0400,60,4 SSE LAKE COLDWATER,COMANCHE,KS,37.19,-99.33,60MPH 5 MILES SOUTH OF COLDWATER BY LAW ENFORCEMENT. (DDC)
0400,65,2 NW DODGE CITY,FORD,KS,37.78,-100.05,NORTH WINDS ESTIMATED TO BE GUSTING TO 60-65 MPH. (DDC)
0409,UNK,5 NNE YEMASSEE,COLLETON,SC,32.75,-80.83,TREE REPORTED DOWN ON I95 SOUTHBOUND NEAR MM42. (CHS)
0410,62,1 SW BUFFALO,HARPER,OK,36.82,-99.64,(OUN)
0411,UNK,2 E GRAYS,JASPER,SC,32.67,-80.98,TREE DOWN ON HIGHWAY 3 EAST OF GRAYS. (CHS)
0412,62,1 WNW FRITCH,MOORE,TX,35.65,-101.62,(AMA)
0418,UNK,PINELAND,JASPER,SC,32.6,-81.16,HIGHWAY PATROL REPORTED TREE DOWN ON HIGHWAY 601 NEAR PINELAND. (CHS)
0426,75,1 SW GAGE,ELLIS,OK,36.31,-99.77,(OUN)
0429,62,14 N AMARILLO,POTTER,TX,35.41,-101.82,ABC7 TRANSMITTER (AMA)
0429,80,6 SSW LAVERNE,HARPER,OK,36.62,-99.92,ESTIMATED 80 MPH WIND GUST AND QUARTER SIZE HAIL. (OUN)
0442,58,1 SSW PANHANDLE,CARSON,TX,35.33,-101.39,(AMA)
0445,72,16 NNE FREEDOM,WOODS,OK,36.98,-99,(OUN)
0448,58,5 SW AMARILLO,RANDALL,TX,35.15,-101.89,SCHOOLNET KJRT RADIO STUDIOS (AMA)
0450,UNK,7 NW TIMBERCREEK CANYON,RANDALL,TX,35.12,-101.91,WAFFLE HOUSE REPORTED THEY LOST POWER WITH THE STRONG WINDS THAT WERE AHEAD OF THE LINE OF STORMS TO THE NORTH. (AMA)
0450,61,2 WSW WOODWARD,WOODWARD,OK,36.41,-99.44,(OUN)
0450,UNK,FORT SUPPLY,WOODWARD,OK,36.57,-99.57,TREE DAMAGE ALONG WITH OTHER DEBRIS ON HWY 412 IN FORT SUPPLY (OUN)
0457,59,AMARILLO,POTTER,TX,35.2,-101.82,AMARILLO ASOS. (AMA)
0501,60,6 E CANADIAN,HEMPHILL,TX,35.92,-100.28,CANADIAN WEST TEXAS MESONET WIND GUST. (AMA)
0502,66,3 NNE UMBARGER,RANDALL,TX,34.99,-102.08,(AMA)
0510,83,3 W CAMARGO,DEWEY,OK,36.03,-99.35,GUSTS OVER 70 MPH CONTINUED THROUGH 12:20AM. (OUN)
0525,59,59 SSW ALVA,DEWEY,OK,36.01,-99.07,(OUN)
0525,71,7 WNW SEILING,WOODWARD,OK,36.19,-99.04,(OUN)
0530,68,7 SSW ALVA,WOODS,OK,36.71,-98.72,(OUN)
0540,73,3 N PUTNAM,DEWEY,OK,35.9,-98.97,(OUN)
0552,UNK,MEDFORD,MIDDLESEX,MA,42.42,-71.11,LARGE TREE DOWN ON GEORGE STREET (BOX)
0605,62,7 W WATONGA,BLAINE,OK,35.85,-98.54,(OUN)
0615,66,2 S LESLEY,HALL,TX,34.65,-100.81,MEASURED BY THE TTU WEST TEXAS MESONET. GUSTED FROM 0115-0117 AND AGAIN 0124-0125. (LUB)
0615,61,2 E WEATHERFORD,CUSTER,OK,35.54,-98.65,(OUN)
0620,58,1 NE MEMPHIS,HALL,TX,34.73,-100.53,MEASURED BY THE TTU WEST TEXAS MESONET (LUB)
0631,70,2 SSE ELK CITY,BECKHAM,OK,35.38,-99.4,(OUN)
0645,64,3 W GOULD,HARMON,OK,34.67,-99.83,(OUN)
0649,64,2 SE HOBART,KIOWA,OK,35.01,-99.07,(OUN)
0650,73,5 WNW EL RENO,CANADIAN,OK,35.57,-98.05,(OUN)
0652,61,OKARCHE,KINGFISHER,OK,35.73,-97.97,(OUN)
0653,UNK,1 E WELLINGTON,COLLINGSWORTH,TX,34.85,-100.2,SEVERAL LARGE TREE LIMBS WERE BLOWN DOWN IN THAT AREA. (AMA)
0705,62,3 W GOULD,HARMON,OK,34.67,-99.83,(OUN)
0705,69,3 SE HOBART,KIOWA,OK,35,-99.05,(OUN)
0716,58,STROTHER FIELD AIRPORT,COWLEY,KS,37.17,-97.04,MEASURED AT STROTHER FIELD AIRPORT. (ICT)
0719,70,ALTUS AIR FORCE BASE,JACKSON,OK,34.66,-99.29,(OUN)
0735,65,4 ENE ODELL,WILBARGER,TX,34.37,-99.36,(OUN)
0738,60,EDMOND,OKLAHOMA,OK,35.65,-97.48,(OUN)
0740,65,4 S TIPTON,TILLMAN,OK,34.44,-99.14,(OUN)
0745,60,3 W MEDICINE PARK,COMANCHE,OK,34.73,-98.52,(OUN)
0745,59,4 ENE APACHE,CADDO,OK,34.92,-98.29,(OUN)
0747,70,BURBANK,OSAGE,OK,36.69,-96.73,(TSA)
0757,58,2 SW LAWTON,COMANCHE,OK,34.58,-98.45,(OUN)
0800,UNK,GRANDFIELD,TILLMAN,OK,34.23,-98.69,REPORT OF LARGE TREE LIMBS DOWN ALONG WITH ROOF DAMAGE TO A FEW HOMES. (OUN)
0813,59,3 S FREDERICK,TILLMAN,OK,34.35,-99.01,(OUN)
0815,64,4 NW WALTERS,COTTON,OK,34.4,-98.36,(OUN)
0825,64,6 SSW WASHINGTON,MCCLAIN,OK,34.98,-97.52,(OUN)
0837,59,SHEPPARD AFB,WICHITA,TX,33.98,-98.5,(OUN)
0854,UNK,12 N WINNSBORO,FAIRFIELD,SC,34.55,-81.12,REPORTED SEVERAL LARGE LIMBS DOWN ALONG DAWKINSVILLE ROAD NEAR THE BLACKSTOCK COMMUNITY. (CAE)
0855,59,3 S WICHITA FALLS,WICHITA,TX,33.87,-98.49,(OUN)
0900,UNK,1 WNW MAZAMA,OKANOGAN,WA,48.58,-120.4,TREES AND POWER LINES DOWN IN THE MAZAMA AREA. A LEAST 3 FIRES REPORTED DUE TO POWER LINES DOWN IN THE METHOW VALLEY. (OTX)
0930,UNK,3 NW ARDMORE,CARTER,OK,34.2,-97.17,TWO SEMI-TRAILERS BLOWN OVER AND ROOF PARTIALLY TORN OFF BUILDING. TIME ESTIMATED BY RADAR. (OUN)
0930,69,4 NNW ENTIAT,CHELAN,WA,47.73,-120.24,WIND GUST REPORTED BY ENTIAT RAWS. (OTX)
0930,UNK,3 SW PATEROS,OKANOGAN,WA,48.03,-119.94,*** 4 INJ *** ...DELAYED REPORT FROM JUNE 25....NUMEROUS TREES WERE DOWN AT ALTA LAKE STATE PARK FROM STRONG THUNDERSTORM WINDS DURING THE MORNING OF JUNE 25. REPORT VI (OTX)
0930,UNK,TWISP,OKANOGAN,WA,48.36,-120.12,TREE TOPPLED OVER ON HOUSE. (OTX)
0950,58,5 W METHOW,OKANOGAN,WA,48.12,-120.1,WIND GUST REPORTED BY THE DOUGLAS INGRAM RIDGE RAWS. (OTX)
1015,UNK,2 W OMAK,OKANOGAN,WA,48.41,-119.57,TREE ON HOME. (OTX)
1020,61,3 WNW OROVILLE,OKANOGAN,WA,48.96,-119.49,WIND GUST REPORTED AT OROVILLE RAWS. (OTX)
1050,UNK,6 NNW WAUCONDA,OKANOGAN,WA,48.8,-119.06,...DELAYED REPORT FROM JUNE 25....NUMEROUS TREES DOWN AT BONAPARTE LAKE RESORT. NO INJURIES REPORTED. REPORT VIA SOCIAL MEDIA. (OTX)
1055,UNK,4 W REPUBLIC,FERRY,WA,48.66,-118.82,TIME CORRECTION... ESTIMATED BASED ON RADAR. SRTMC TWEET: TREES DOWN AND SINGLE LANE TRAFFIC ON SR 20 AT MP 298 ABOUT 4 MILES WEST OF REPUBLIC POWER LINES THAT MAY BE D (OTX)
Time,Size,Location,County,State,Lat,Lon,Comments
1226,100,CAULKSVILLE,LOGAN,AR,35.3,-93.87,QUARTER SIZED HAIL WAS REPORTED IN CAULKSVILLE. (LZK)
1835,100,4 SW MILTON RESERVOIR,WELD,CO,40.2,-104.69,(BOU)
1858,150,3 NW BLACK FOREST,EL PASO,CO,39.05,-104.74,(PUB)
1914,100,6 ENE BLACK FOREST,EL PASO,CO,39.05,-104.6,(PUB)
2020,100,CLAY,WEBSTER,KY,37.48,-87.82,(PAH)
2025,100,5 SSW BAYARD,GUTHRIE,IA,41.79,-94.61,(DMX)
2030,175,WOODLAND PARK,TELLER,CO,38.99,-105.05,REPORTED VIA TWITTER WITH PICTURES. (PUB)
2031,100,5 WNW BUCKINGHAM,BUCKINGHAM,VA,37.57,-78.63,QUARTER SIZED HAIL FROM 431 PM TO 436 PM ALONG THE SOUTH JAMES RIVER HIGHWAY (RNK)
2053,200,3 N COLORADO SPRINGS,EL PASO,CO,38.88,-104.83,(PUB)
2110,100,6 W HUGO,LINCOLN,CO,39.13,-103.58,(BOU)
2145,100,FOREST CITY,SUSQUEHANNA,PA,41.65,-75.47,(BGM)
2156,100,1 NW HADAR,PIERCE,NE,42.12,-97.46,LOTS OF DIME TO QUARTER SIZE HAIL. (OAX)
2158,100,4 SE YODER,EL PASO,CO,38.8,-104.17,(PUB)
2210,100,STRATTON,KIT CARSON,CO,39.3,-102.6,COCORAHS OBSERVER REPORTED QUARTER SIZED HAIL. (GLD)
2240,100,JACKSONVILLE,ONSLOW,NC,34.76,-77.41,PUBLIC REPORTED QUARTER SIZE HAIL IN JACKSONVILLE. (MHX)
0000,150,4 NW DES MOINES,UNION,NM,36.8,-103.88,(ABQ)
0005,100,7 N ROGERS,DODGE,NE,41.57,-96.9,MOSTLY SMALL HAIL STONES BUT OCCASIONALLY A FEW QUARTER SIZE WOULD FALL. (OAX)
0022,100,EXETER,FILLMORE,NE,40.64,-97.45,(GID)
0200,150,3 ESE CATHERINE LAKE,ONSLOW,NC,34.78,-77.51,(MHX)
0236,125,HARDESTY,TEXAS,OK,36.61,-101.19,LOTS OF RAIN. SPOTTER ESTIMATED BETWEEN 60-70 MPH WIND GUSTS. (AMA)
0243,275,2 N BEAVER,BEAVER,OK,36.84,-100.52,(AMA)
0313,175,2 S BOISE CITY,CIMARRON,OK,36.7,-102.51,(AMA)
0328,150,1 E BOISE CITY,CIMARRON,OK,36.73,-102.49,(AMA)
0532,100,1 N SEILING,MAJOR,OK,36.16,-98.92,(OUN)
0810,125,VEGA,OLDHAM,TX,35.25,-102.43,MOSTLY DIME TO NICKEL SIZE WITH A FEW LARGER THAN QUARTERS. (AMA)
