Time,F_Scale,Location,County,State,Lat,Lon,Comments
1811,UNK,HONEY BROOK,CHESTER,PA,40.09,-75.91,NWS SURVEY TEAM CONFIRMED AN EF1 TORNADO IN THE HONEY BROOK AREA...WITH WINDS TO 95 MPH. (PHI)
2259,UNK,11 SE CRANE,RICHLAND,MT,47.47,-104.1,*** 1 INJ *** NWS GLASGOW CONDUCTED A DAMAGE SURVEY TODAY WITH RICHLAND COUNTY DES OF A SITE THAT HAD DAMAGE FROM LAST NIGHTS STORMS. A 79 YEAR OLD MAN WAS INJURED AND (GGW)
2353,UNK,7 SW TROTTERS,GOLDEN VALLEY,ND,47.25,-104.02,REPORT OF TONADO FROM PUBLIC 7 MILES SOUTHWEST OF TROTTERS. ON GROUND ABOUT 5 MINUTES IN OPEN COUNTRY. (BIS)
0003,UNK,2 S RIVERSIDE,NORTHUMBERLAND,PA,40.91,-76.65,AN EF1 TORNADO WAS CONFIMRED SOUTH OF RIVERSIDE...WITH MULTIPLE TREES DOWN AND DAMAGE TO A SMALL BARN AND A HOME. A SHED WAS DESTROYED AS WELL...AND A CAR WAS SIGNIFCAN (CTP)
0127,UNK,10 S BOWMAN,BOWMAN,ND,46.04,-103.39,(BIS)
0130,UNK,9 NE LUDLOW,HARDING,SD,45.93,-103.25,(UNR)
0131,UNK,7 N LUDLOW,HARDING,SD,45.93,-103.38,(UNR)
0131,UNK,5 WSW BOWMAN HALEY DAM,BOWMAN,ND,45.96,-103.34,(BIS)
Time,Speed,Location,County,State,Lat,Lon,Comments
1205,UNK,LAUDERDALE,LAUDERDALE,MS,32.52,-88.51,LARGE TREE DOWN IN THE LAUDERDALE COMMUNITY. TIME ESTIMATED. (JAN)
1223,UNK,4 S BIRMINGHAM,JEFFERSON,AL,33.47,-86.8,TREES AND POWERLINES DOWN IN HOMEWOOD INCLUDING ALONG LAKESHORE DR AND NEAR OXMOOR RD AND SEMINOLE DR (BMX)
1238,UNK,5 SE BIRMINGHAM,JEFFERSON,AL,33.48,-86.73,TREES AND POWER LINES DOWN IN MOUNTAIN BROOK ALONG BROOKWOOD AND WOODRIDGE ROADS...WESTOVER DR...FOREST GLENN DR...AND MONTEVALLO RD. (BMX)
1415,UNK,2 E GARDEN CITY,BLOUNT,AL,34.02,-86.71,ONE TREE DOWN ON COUNTY 26. WINDS ESTIMATED 50 MPH. (BMX)
1505,UNK,KILPATRICK,DEKALB,AL,34.27,-86.08,SEVERAL TREES DOWN IN THE KILPATRICK COMMUNITY. TIME ESTIMATED FROM RADAR. (HUN)
1556,UNK,3 ESE CAIRO,GRADY,GA,30.86,-84.16,TREE DOWN ON JOYNER ROAD. (TAE)
1612,UNK,3 N THOMASVILLE,THOMAS,GA,30.88,-83.97,SEVERAL TREES DOWN JUST NORTH OF THOMASVILLE. NUMEROUS POWERLINES ALSO DOWN. ADDITIONAL REPORT IN THE COUNTY OF LIGHTNING STRIKING A HOME. (TAE)
1615,UNK,SOUTHWOOD,LEON,FL,30.39,-84.22,A COUPLE TREES DOWN ON ST JOE ROAD. (TAE)
1630,UNK,MOUNT AIRY,HABERSHAM,GA,34.52,-83.5,TREE SNAPPED OFF OF NORTHWOODS DR AND 1/2 INCH HAIL (GSP)
1645,UNK,1 W VINE CITY,FULTON,GA,33.76,-84.42,POWERLINES WERE REPORTED DOWN ON ATLANTA STREET BETWEEN MAGNOLIA STREET AND OAK STREET CAUSING A ROAD CLOSURE. (FFC)
1645,UNK,TOCCOA,STEPHENS,GA,34.58,-83.32,MULTIPLE TREES DOWN. TIME ESTIMATED FROM RADAR. (GSP)
1700,UNK,2 N WILLIS,JACKSON,FL,30.59,-85.18,TREE DOWN NEAR THE INTERSECTION OF SR 73 AND HASTY POND ROAD. (TAE)
1700,UNK,CARNESVILLE,FRANKLIN,GA,34.37,-83.23,SCATTERED REPORTS OF TREES BLOWN DOWN THROUGHOUT THE COUNTY. (GSP)
1700,UNK,1 E CHROME HILL,HARFORD,MD,39.62,-76.4,TREE DOWN NEAR ROCKS RD AND SHARON RD (LWX)
1702,UNK,5 ENE HAHIRA,LOWNDES,GA,31.01,-83.3,TREE DOWN ACROSS NORTHERN LOWNDES COUNTY. (TAE)
1719,UNK,SNEADS,JACKSON,FL,30.71,-84.92,COUPLE TREES REPORTED DOWN NEAR SNEADS. (TAE)
1719,60,1 W SEMINOLE STATE PARK,SEMINOLE,GA,30.79,-84.9,MESONET SITE AT SNEADS LANDING MEASURED 60 MPH WINDS. (TAE)
1720,UNK,4 SSE WATERTOWN,COLUMBIA,FL,30.13,-82.58,LARGE TREE DOWN ON HOUSE NEAR SE CR 252 AND SE CR 245 (JAX)
1720,UNK,5 E BLUE ASH,CLERMONT,OH,39.24,-84.29,VERY LARGE BRANCH DOWN ACROSS BACKYARD DECK. (ILN)
1724,UNK,LAKE PARK,LOWNDES,GA,30.68,-83.19,A FEW TREES DOWN AROUND LAKE PARK. (TAE)
1728,UNK,5 N HARTWELL,HART,GA,34.42,-82.94,MULTIPLE TREES DOWN NORTH OF HARTWELL (GSP)
1729,UNK,2 SE LIVE OAK,SUWANNEE,FL,30.27,-82.96,TREE DOWN ACROSS ROAD ON 94TH STREET. (JAX)
1731,UNK,MOUNT PLEASANT,GADSDEN,FL,30.66,-84.69,A COUPLE TREES DOWN IN MT PLEASANT. (TAE)
1735,UNK,5 S SANDY SPRINGS,ANDERSON,SC,34.53,-82.76,POWER LINE DOWN OFF OF OLD GREEN POND RD (GSP)
1740,UNK,5 S GREENVILLE,MADISON,FL,30.4,-83.64,TREE DOWN ON A POWERLINE. (TAE)
1740,UNK,DAYTON,RHEA,TN,35.49,-85.01,COUPLE TREES DOWN NEAR DAYTON (MRX)
1745,UNK,GEORGIANA,BUTLER,AL,31.64,-86.74,SEVERAL TREES DOWN IN GEORGIANA (MOB)
1748,UNK,4 SSE AURORA,OHIO,IN,39,-84.88,1 TREE DOWN ON THUERMER HOLLOW ROAD... TIME ESTIMATED FROM RADAR (ILN)
1750,UNK,3 SE ANDERSON,ANDERSON,SC,34.48,-82.61,POWER LINES DOWN ON MELODY RD (GSP)
1751,UNK,NNE NEW MARION,RIPLEY,IN,39.01,-85.36,MULTIPLE LARGE TREE BRANCHES DOWN NEAR THE NEW MARION VOLUNTEER FIRE DEPT. (ILN)
1804,UNK,1 W FREEMONT,GADSDEN,FL,30.61,-84.47,NUMEROUS TREES AND POWERLINES DOWN JUST WEST OF HAVANA. DAMAGE CENTERED AROUND RIVERVIEW ROAD. (TAE)
1811,UNK,6 NNW LIVE OAK,SUWANNEE,FL,30.37,-83.04,LARGE TREE ON ROAD AT CR 249 AND 40TH STREET. TIME ESTIMATED BY RADAR. (JAX)
1815,UNK,OAKFIELD,WORTH,GA,31.78,-83.97,COUPLE TREES DOWN NEAR OAKFIELD NEAR GA-300. (TAE)
1815,UNK,HONEA PATH,ANDERSON,SC,34.45,-82.39,TREE DOWN ON SHED IN HONEA PATH. TIME ESTIMATED FROM RADAR. (GSP)
1817,UNK,4 E FORT THOMAS,HAMILTON,OH,39.08,-84.37,SMALL TREE SNAPPED IN HALF NEAR BASE. (ILN)
1821,UNK,4 E HILLSBORO,HIGHLAND,OH,39.2,-83.54,A FEW TREES WERE DOWNED. (ILN)
1825,UNK,4 WNW MCALPIN,SUWANNEE,FL,30.17,-83.01,TREE ACROSS ROAD ON 129TH ROAD. TIME ESTIMATED BY RADAR. (JAX)
1825,UNK,5 NE TALLAHASSEE,LEON,FL,30.49,-84.23,TREE DOWN ON VILLAGE SQUARE BLVD. DEBRIS IN THE ROAD. (TAE)
1826,UNK,HENSEL,LANCASTER,PA,39.83,-76.2,TREES AND WIRES DOWN ON CONOWINGO RD (CTP)
1827,UNK,HONEY BROOK,CHESTER,PA,40.09,-75.91,TREES AND WIRES REPORTED DOWN IN HONEY BROOK. (PHI)
1829,UNK,3 SW WARE SHOALS,GREENWOOD,SC,34.36,-82.28,LARGE OAK TREE DOWN 2 MI EAST OF SHOALS JUNCTION (GSP)
1830,UNK,EMPIRE,DODGE,GA,32.34,-83.3,TRAINED SPOTTER REPORTED TREES AND POWERLINES DOWN NEAR THE INTERSECTION OF HIGHWAY 257 AND HIGHWAY 87 NEAR THE EMPIRE COMMUNITY. (FFC)
1830,UNK,2 SW KINGSTON,ROANE,TN,35.85,-84.54,ONE TREE DOWN PER PICTURE ON WBIR FACEBOOK-TIME ESTIMATED (MRX)
1830,UNK,5 NW BATAVIA,CLERMONT,OH,39.13,-84.25,LARGE TREE LIMBS DOWN (ILN)
1834,UNK,HOMELAND,CHARLTON,GA,30.85,-82.02,TREE DOWN. TIME ESTIMATED BY RADAR. (JAX)
1835,UNK,WHITEHALL TWP,LEHIGH,PA,40.66,-75.51,NUMEROUS TREES AND WIRES REPORTED DOWN IN WHITEHALL TOWNSHIP... COPLAY AND CATASAQUA. (PHI)
1836,UNK,NORTHAMPTON,NORTHAMPTON,PA,40.69,-75.49,STRUCTURE DAMAGE WITH 2 PEOPLE REPORTED TO BE TRAPPED IN THE BUILDING. (PHI)
1837,UNK,WALTON,BOONE,KY,38.87,-84.62,ONE TREE SNAPPED (ILN)
1838,UNK,ELBA,COFFEE,AL,31.42,-86.08,TREES DOWN THROUGHOUT ELBA. (TAE)
1840,UNK,1 WNW NEWARK,LICKING,OH,40.06,-82.42,1 TREE DOWN ON HULL ROAD (ILN)
1845,UNK,5 SSE RAGLEY,BEAUREGARD,LA,30.45,-93.21,TREE DOWN ON GAYTINE ROAD. (LCH)
1846,61,LEHIGH VALLEY INTL AIRP,LEHIGH,PA,40.65,-75.44,61 MPH GUST RECORDED AT THE LEHIGH VALLEY INTERNATIONAL AIRPORT. (PHI)
1854,UNK,MORNING VIEW,CAMPBELL,KY,38.83,-84.46,SEVERAL TREES DOWN ACROSS MORNING VIEW AREA. (ILN)
1856,UNK,6 NNE NEW BROCKTON,COFFEE,AL,31.45,-85.87,TREES DOWN THROUGHOUT COFFEE COUNTY. (TAE)
1856,UNK,6 WSW MOUNT ORAB,BROWN,OH,39,-84.02,POWER LINES DOWN ON MEEKER RD. TIME ESTIMATED FROM RADAR. (ILN)
1856,UNK,2 ENE WILLIAMSBURG,CLERMONT,OH,39.06,-84.02,A FEW TREES DOWNED. (ILN)
1858,UNK,1 N HANOVER,LICKING,OH,40.09,-82.27,A FEW TREES DOWNED. (ILN)
1900,UNK,5 WNW ASHBURN,TURNER,GA,31.74,-83.73,TREE DOWN ACROSS WARWICK HIGHWAY (TAE)
1900,64,2 NNE CEDARVILLE,MONTGOMERY,PA,40.25,-75.66,ALSO WITH HAIL...HAIL SIZE UNKNOWN...RELAYED VIA SPOTTER NETWORK (PHI)
1905,UNK,LENOIR CITY,LOUDON,TN,35.8,-84.27,COUPLE OF TREES DOWN. (MRX)
1912,UNK,LAKE CITY,COLUMBIA,FL,30.19,-82.64,SEVERAL TREES DOWN IN THE LAKE CITY AREA. (JAX)
1915,UNK,2 SSE OZARK,DALE,AL,31.43,-85.64,TREES DOWN AT BRADFORD ROAD AND MORGAN LANE. (TAE)
1917,UNK,WEST GOSHEN,CHESTER,PA,39.97,-75.57,TREES AND WIRES REPORTED DOWN IN WEST GOSHEN. (PHI)
1920,UNK,3 NE MIDDLEBURG,CLAY,FL,30.07,-81.86,LARGE TREE DOWN ON HOUSE NEAR SR 21 AND NORTH FORK BLACK CREEK (JAX)
1920,63,WEST CHESTER,CHESTER,PA,39.96,-75.61,(PHI)
1921,UNK,NEVILLE,CLERMONT,OH,38.81,-84.21,SEVERAL TREES DOWN IN NEVILLE. TIME ESTIMATED FROM RADAR. (ILN)
1930,UNK,2 WNW HAZLEHURST,JEFF DAVIS,GA,31.87,-82.64,JEFF DAVIS 911/DISPATCH REPORTS A TREE DOWNED OVER A POWERLINE ALONG C.A. HOLMES ROAD IN HAZELHURST. TIME OF DAMAGE BASED ON RADAR DATA. (JAX)
1930,UNK,BENFER,SNYDER,PA,40.78,-77.21,NUMEROUS TREES DOWN ALONG BACK MOUNTAIN ROAD (CTP)
1934,UNK,PHOENIXVILLE,CHESTER,PA,40.13,-75.52,TREES AND WIRES REPORTED DOWN IN PHOENIXVILLE. (PHI)
1939,UNK,2 ESE GASKIN,WALTON,FL,30.96,-86.1,TREES AND POWER LINES DOWN NEAR GASKIN (TAE)
1940,UNK,LAKE BIRD,TAYLOR,FL,30.25,-83.62,TREES AND TREE LIMBS DOWN ON POWER LINES CAUSING POWER OUTAGES IN THE AREA (TAE)
1942,UNK,OXFORD,WARREN,NJ,40.8,-74.99,TREES REPORTED DOWN IN OXFORD. (PHI)
1943,UNK,6 SSW GEORGETOWN,BROWN,OH,38.79,-83.93,TREE DOWN ACROSS FREESOIL RD JUST NORTH OF US 52. SCATTERED POWER LINES DOWN ACROSS AREA. (ILN)
1945,UNK,SW FRUIT COVE,ST. JOHNS,FL,30.1,-81.62,FOUR TREES DOWN (JAX)
1945,UNK,3 N KODAK,SEVIER,TN,36.02,-83.63,4 TO 5 INCH TREE LIMBS DOWN (MRX)
1945,UNK,2 N ELGIN,SCOTT,TN,36.36,-84.61,ONE TREE DOWN ON BLACK CREEK RD (MRX)
1946,UNK,2 SSE STONE CREEK,TUSCARAWAS,OH,40.37,-81.55,TREE DOWN ON I-77 NEAR STONE CREEK (PBZ)
1959,UNK,2 NNW MINFORD,SCIOTO,OH,38.89,-82.87,LARGE TREE DOWNED ONTO ROAD AND INTO POWER LINES ON PIKETON ROAD NORTH OF MINFORD. TIME ESTIMATED FROM RADAR. (ILN)
2000,UNK,DE FUNIAK SPRINGS,WALTON,FL,30.72,-86.12,WIRES DOWN NEAR 23RD STREET AND LIVE OAK (TAE)
2005,UNK,2 S JACKSONVILLE BEACH,DUVAL,FL,30.25,-81.39,SEVERE LARGE TREES DOWN IN MARSH LANDING. (JAX)
2005,UNK,2 SSW JACKSONVILLE BEAC,ST. JOHNS,FL,30.25,-81.4,SEVERAL LARGE TREES REPORTED DOWN IN MARSH LANDING. (JAX)
2010,UNK,TALLEYVILLE,NEW CASTLE,DE,39.81,-75.55,A FEW TREES DOWN IN NEW CASTLE COUNTY. (PHI)
2011,UNK,N OAKFIELD,WORTH,GA,31.78,-83.97,TREE DOWN ON RAILROAD STREET (TAE)
2015,UNK,LEAVITTSVILLE,CARROLL,OH,40.51,-81.2,TREES SHEARED OFF ALONG ANTIGUA ROAD NEAR LEAVITTSVILLE (PBZ)
2020,UNK,RESLER,NORTHUMBERLAND,PA,40.78,-76.8,TREES DOWN (CTP)
2020,UNK,HACKETTSTOWN,WARREN,NJ,40.85,-74.83,TREES UPROOTED /1500 PEOPLE WITHOUT POWER IN LIBERTY AND HACKETTSTOWN TWP (PHI)
2025,UNK,1 NE MOUNT EPHRAIM,NOBLE,OH,39.85,-81.41,ONE TREE REPORTED DOWN ON SENECA LAKE ROAD BETWEEN ROUTE 566 AND MT EPHRAIM (PBZ)
2025,UNK,1 E CONOTTON,HARRISON,OH,40.42,-81.12,LARGE LIMBS DOWN IN THE BOWERSTON AREA (PBZ)
2027,UNK,2 NE DOWELL,CALVERT,MD,38.37,-76.43,TREE DOWN NEAR 100 BLOCK OF THUNDERBIRD DR (LWX)
2030,UNK,1 SSW MIDDLEBURG,CLAY,FL,30.03,-81.91,ONE BIG PINE TREE FELL ON CAMEL CIRCLE...JUST OFF OF COUNTRY ROAD 215 (JAX)
2030,UNK,SCHUYLKILL HAVEN,SCHUYLKILL,PA,40.63,-76.17,TWO LARGE TREES DOWN. (CTP)
2032,UNK,3 W RED BANK,LEXINGTON,SC,33.92,-81.29,TREES REPORTED DOWN AT LONGS POINT ROAD AT INTERSECTION WITH I-20. (CAE)
2037,68,11 NNE PANAMA CITY BEAC,BAY,FL,30.36,-85.8,68 MPH WIND GUST MEASURED AT KECP AIRPORT (TAE)
2043,UNK,5 NNE DOVER,SCREVEN,GA,32.65,-81.69,WARNING POINT REPORTED TREE DOWN ON STATESBORO HIGHWAY NEAR DOUBLE HEADS BAPTIST CHURCH. (CHS)
2044,UNK,3 WSW RIDGEWAY,FAIRFIELD,SC,34.29,-81,TREE IN ROADWAY AT PEACH ROAD EXIT RAMP OFF OF I-77 SOUTHBOUND. (CAE)
2051,UNK,4 NNW DENMARK,BULLOCH,GA,32.34,-81.74,TREE DOWN ACROSS HIGHWAY 67 NEAR INTERSECTION OF EMIT GROVE CHURCH ROAD (CHS)
2051,UNK,HANOVERTON,COLUMBIANA,OH,40.76,-80.94,TREES DOWN. (PBZ)
2052,UNK,SHINGLER,WORTH,GA,31.58,-83.79,TREE DOWN ON HIGHWAY 112 (TAE)
2053,UNK,1 SE SPRINGDALE,LEXINGTON,SC,33.95,-81.1,SC HIGHWAY PATROL REPORTED TREES DOWN AT THE INTERSECTION OF KITTY HAWK DRIVE AND DURHAM DRIVE. (CAE)
2057,60,2 W SPRINGFIELD,BAY,FL,30.17,-85.64,(TAE)
2058,UNK,POLKSVILLE,BATH,KY,38.14,-83.66,TREE DOWN ON ORE MINE ROAD. (JKL)
2059,UNK,1 SSW ARCADIA LAKES,RICHLAND,SC,34.04,-80.97,SC HIGHWAY PATROL REPORTED TREES DOWN ALONG BRIARFIELD RD. TIME ESTIMATED FROM RADAR. (CAE)
2100,UNK,6 NNW EDISTO,ORANGEBURG,SC,33.55,-80.93,TREE IN ROADWAY NORTH ROAD AT SHILLINGS BRIDGE ROAD (CAE)
2100,UNK,SMITHFIELD,JEFFERSON,OH,40.27,-80.78,ONE TREE DOWN ON COUNTRY ROAD 10 (PBZ)
2101,UNK,1 N ALLENDALE,ALLENDALE,SC,33.02,-81.31,TREE DOWN ACROSS HIGHWAY 278 NEAR COLLUMS LUMBER (CHS)
2108,UNK,2 SW PINERO,GLOUCESTER,VA,37.47,-76.56,TREES DOWN ON FAIRY MILLS ROAD (AKQ)
2112,UNK,GRAND RIDGE,JACKSON,FL,30.71,-85.02,NUMEROUS TREES DOWN IN JACKSON COUNTY...INCLUDING SOME TREES ON HOUSES IN THE GRAND RIDGE AREA (TAE)
2115,UNK,GUYTON,EFFINGHAM,GA,32.34,-81.39,TREE DOWN ON POWER LINE NEAR THE INTERSECTION OF MAGNOLIA ST AND FIFTH ST (CHS)
2121,UNK,AUSTIN,SCOTT,IN,38.74,-85.81,FEW TREES DOWN IN THE CITY OF AUSTIN. (LMK)
2123,UNK,BLOUNTSTOWN,CALHOUN,FL,30.44,-85.05,NUMEROUS TREES DOWN AROUND BLOUNTSTOWN. WIDESPREAD POWER OUTAGES IN THE CITY. ONLY ONE RESTURANT AND ONE GAS STATION STILL HAVE POWER. (TAE)
2123,UNK,2 SW SUNSWEET,TIFT,GA,31.54,-83.59,TREE AND POWER LINE DOWN ON CROMER ROAD (TAE)
2123,UNK,2 NNW FURMAN,HAMPTON,SC,32.71,-81.2,SC STATE HWY PATROL REPORTS TREE DOWN IN ROADWAY NEAR THE INTERSECTION OF SAVANNAH HIGHWAY AND MT CARMEL CH RD (CHS)
2127,UNK,4 N EASTOVER,RICHLAND,SC,33.93,-80.69,SC HIGHWAY PATROL REPORTED TREES DOWN THROUGHOUT EASTERN RICHLAND COUNTY. (CAE)
2130,UNK,BRISTOL,LIBERTY,FL,30.43,-84.98,TREES DOWN IN BRISTOL. POSTED TO WMBB FACEBOOK PAGE (TAE)
2130,UNK,2 NE REMBERT,SUMTER,SC,34.12,-80.51,TREES DOWN IN ROADWAY AT TD MCCLEOD AND PISGAH ROADS. TIME ESTIMATED BY RADAR. (CAE)
2132,UNK,WADESBORO,ANSON,NC,34.97,-80.07,MULTIPLE TREES DOWN ACROSS THE COUNTY (RAH)
2134,UNK,2 NE STILLWELL,EFFINGHAM,GA,32.39,-81.23,BENJAMIN GNANN RD TEMPORARILY SHUT DOWN DUE TO TREE DOWN ON POWER LINES IN THE 1800 BLOCK. (CHS)
2136,UNK,S BEAVER,BEAVER,PA,40.69,-80.31,TREES DOWN (PBZ)
2140,UNK,2 ESE CANE SAVANNAH,SUMTER,SC,33.88,-80.4,SC HIGHWAY PATROL REPORTED TREES DOWN THROUGHOUT SUMTER. TIME ESTIMATED FROM RADAR. (CAE)
2140,UNK,2 WNW JAMESTOWN,GUILFORD,NC,36.01,-79.97,TREES AND POWERLINES DOWN... SOME TREES BLOCKING ROADWAYS AND ON TOP OF HOMES. HICKSWOOD RD NEAR WILLARD RD. (RAH)
2140,60,PIEDMONT TRIAD APT,GUILFORD,NC,36.1,-79.94,(RAH)
2143,UNK,3 NW CARNOT-MOON,ALLEGHENY,PA,40.54,-80.25,1 TREE DOWN ON SPRING RUN ROAD EXTENSION (PBZ)
2145,UNK,TELOGIA,LIBERTY,FL,30.35,-84.82,LARGE TREE SNAPPED IN EASTERN LIBERTY COUNTY AS REPORTED VIA TWITTER. (TAE)
2151,UNK,4 NE OLD FORT,MCDOWELL,NC,35.67,-82.12,NUMEROUS TREES BLOWN DOWN OVER HIGHWAY 70 IN GREENLEE COMMUNITY (GSP)
2152,UNK,2 E HARMONY TOWNSHIP,BEAVER,PA,40.6,-80.19,2 TREES DOWN IN ECONOMY BOROUGH (PBZ)
2153,UNK,1 ENE WALTERBORO,COLLETON,SC,32.91,-80.65,SC STATE HWY PATROL REPORTS TREE DOWN BLOCKING TRAFFIC ON ROBERTSON BLVD NEAR THE INTERSECTION WITH LEMACKS ST (CHS)
2155,UNK,1 ENE BETHANY,DECATUR,GA,30.86,-84.71,NUMEROUS TREES DOWN ACROSS SOUTHERN DECATUR COUNTY. PROPERTY DAMAGE REPORTED ALONG WITH WIDESPREAD POWER LINES DOWN. DAMAGE FROM BARBER RD EASTWARD TO GREENSHADE ROAD. (TAE)
2200,UNK,2 NNE SAN DIEGO,SAN DIEGO,CA,32.74,-117.14,PHOTOS FROM UNION TRIBUNE OF A EUCALYPTUS TREE FALLING AND LANDING ON THE BACK OF A CAR AT MORLEY FIELD...DESTROYING THE BACK WINDSHIELD. TIME OF OCCURRENCE AND CAUSE.. (SGX)
2200,UNK,2 WSW ELLERBE,RICHMOND,NC,35.06,-79.8,TREE DOWN NEAR JOHN WEBB ROAD AND PAGE ST EXTENSION (RAH)
2208,65,2 NNW TALLAHASSEE COML,LEON,FL,30.47,-84.3,ALSO POWER LINES DOWN. (TAE)
2210,UNK,1 N PITTSBURGH,ALLEGHENY,PA,40.45,-79.98,LARGE TREE DOWN ON CAR IN CENTRAL NORTHSIDE (PBZ)
2211,UNK,SUGAR HILL,MCDOWELL,NC,35.58,-82.04,NUMEROUS TREES AND POWER LINES DOWN (GSP)
2212,UNK,LAKELAND VILLAGE,RIVERSIDE,CA,33.64,-117.35,TREE DOWN ACROSS WHOLE RD IN LAKELAND VILLAGE. (SGX)
2213,UNK,4 NW MANNING,CLARENDON,SC,33.74,-80.25,TREES DOWN ON OLD GEORGETOWN ROAD. BLOCKING VEHICLE TRAFFIC. TIME ESTIMATED BY RADAR. (CAE)
2213,UNK,4 SSE COLERIDGE,RANDOLPH,NC,35.59,-79.58,TREE DOWN NEAR SAM LEONARD ROAD AND PLEASANT GROVE CHURCH ROAD (RAH)
2215,UNK,GOVERNORS SQUARE MALL,LEON,FL,30.44,-84.25,TREE DOWN NEAR GOVERNORS SQUARE (TAE)
2215,UNK,2 S COTTAGEVILLE,COLLETON,SC,32.91,-80.49,SC STATE HWY PATROL REPORTS TREE DOWN ACROSS ROAD IN 800 BLOCK OF BAMA ROAD (CHS)
2215,UNK,4 W HARPERS CROSSROADS,CHATHAM,NC,35.56,-79.55,TREE DOWN ON HIGHWAY 22/42 NEAR LOG CABIN ROAD. RELAYED BY COUNTY EMERGENCY MANAGER. (RAH)
2215,UNK,1 N MCLEANSVILLE,GUILFORD,NC,36.11,-79.66,SEVERAL POWER LINES DOWN NEAR MCLEANSVILLE ROAD AND DICKS MILL ROAD (RAH)
2216,UNK,2 ENE EADYTOWN,BERKELEY,SC,33.43,-80.12,THE SOUTH CAROLINA HIGHWAY PATROL REPORTED A TREE DOWN NEAR THE INTERSECTION OF SC 45 AND EDGEWATER ROAD. (CHS)
2219,UNK,4 ENE CRAWFORDVILLE,WAKULLA,FL,30.19,-84.32,TREE DOWN ON A HOUSE AND A CAR (TAE)
2221,UNK,3 E OATS,DARLINGTON,SC,34.24,-80.02,TREE IN ROAD AT INTERSECTION OF LAWSON GROVE AND PHILADELPHIA RD. (ILM)
2224,UNK,5 NW BENNETTSVILLE,MARLBORO,SC,34.68,-79.75,LARGE TREE DOWN ON BRICKYARD ROAD NEAR SC HIGHWAY 9. (ILM)
2225,UNK,4 E BETHLEHEM,ALEXANDER,NC,35.82,-81.21,REPORTS OF DAMAGE TO BOAT TOPS IN DOCK. A COUPLE TREES SNAPPED IN HALF AND POWERLINES DOWN. (GSP)
2226,UNK,BASNETTVILLE,MARION,WV,39.58,-80.23,TREE DOWN (PBZ)
2227,UNK,6 ENE BISHOPVILLE,LEE,SC,34.26,-80.15,LEE COUNTY DISPATCH REPORTED TREES AND POWER LINES DOWN COUNTY WIDE. (CAE)
2229,UNK,HAMILTON TWP,MONROE,PA,40.93,-75.29,TREES DOWN ON WIRES (PHI)
2230,UNK,LLOYD,JEFFERSON,FL,30.48,-84.02,TREES DOWN COUNTYWIDE WITH BIGGEST CONCERTRATION ON HIGHWAY 59...GAMBLE ROAD. (TAE)
2235,UNK,SPARTA,HANCOCK,GA,33.28,-82.97,THE HANCOCK COUNTY EMERGENCY MANAGER REPORTED A COUPLE OF PECAN TREES DOWN IN SPARTA. (FFC)
2236,UNK,1 WSW HAW RIVER,ALAMANCE,NC,36.09,-79.37,POWER LINE DOWN NEAR GRAHAM ROAD AND W MAIN ST (RAH)
2239,UNK,3 N JEDBURG,BERKELEY,SC,33.1,-80.24,SC STATE HWY PATROL REPORTS TREE DOWN ON INTERSTATE 26 WESTBOUND NEAR MILE MARKER 192 (CHS)
2239,UNK,3 NNW BENNETTSVILLE,MARLBORO,SC,34.67,-79.71,TREE DOWN ON HICKORY GROVE RD. (ILM)
2239,UNK,5 SSE SUTPHIN,CHATHAM,NC,35.81,-79.33,TREE DOWN NEAR NEWLIN ROAD AND OLD SWITCHBOARD ROAD (RAH)
2243,UNK,3 SE JERICHO,CASWELL,NC,36.25,-79.32,ONE TREE DOWN ALONG HIGHWAY 62 SOUTH. (RNK)
2243,UNK,LOVEDALE,ALLEGHENY,PA,40.28,-79.87,TREE DOWN BLOCKING ROADWAY ON LOVEDALE ROAD (PBZ)
2245,UNK,3 NNE MONTICELLO,JEFFERSON,FL,30.58,-83.85,SEVERAL TREES DOWN ALONG TURNEY ANDERSON ROAD (TAE)
2245,UNK,6 SE MONT CLARE,DARLINGTON,SC,34.34,-79.74,TREE DOWN ON GEORGETOWN ROAD. (ILM)
2248,UNK,3 WSW LAURINBURG,SCOTLAND,NC,34.74,-79.52,TREE ACROSS X-WAY RD (RAH)
2249,UNK,1 NW CARR,ORANGE,NC,36.23,-79.24,TREE DOWN CORBETT RIDGE ROAD NEAR ATKINS ROAD (RAH)
2250,UNK,1 SSW LOVE VALLEY,IREDELL,NC,35.97,-81,ROOF BLOWN OFF A METAL SHED. ALSO...MANY REPORTS OF TREES DOWN ACROSS THE NORTHERN PART OF THE COUNTY. (GSP)
2251,UNK,1 WSW SAXAPAHAW,ALAMANCE,NC,35.94,-79.34,TREE DOWN AT 6300 S HIGHWAY 87 (RAH)
2256,UNK,1 E OAK GROVE,DILLON,SC,34.35,-79.54,TREE DOWN ON HWY 38. (ILM)
2258,UNK,3 ENE HIGHTOWERS,CASWELL,NC,36.35,-79.21,ONE TREE DOWN ON A POWER LINE AT THE HYCO CREEK BRIDGE ON GRIERS CHURCH ROAD (RNK)
2303,UNK,BOYD,TAYLOR,FL,30.19,-83.61,WIDESPREAD TREES DOWN AND WIND DAMAGE ACROSS THE COUNTY. (TAE)
2305,UNK,3 S HILLSBOROUGH,ORANGE,NC,36.03,-79.11,SEVERAL TREES DOWN THROUGHOUT HILLSBOROUGH INCLUDING ONE TREE ON A CAR. DIME SIIZE HAIL ALSO OBSERVED. (RAH)
2306,UNK,1 N GREENDALE,ARMSTRONG,PA,40.82,-79.39,SIX TREES DOWN (PBZ)
2309,UNK,4 NE TRIO,WILLIAMSBURG,SC,33.52,-79.66,TREE DOWN ON HWY 521 AND STEADFAST RD. (ILM)
2310,UNK,ICARD,BURKE,NC,35.73,-81.46,TREES BLOWN DOWN AT FIRST BAPTIST CHURCH. (GSP)
2315,UNK,4 NW ANTIOCH,HOKE,NC,34.92,-79.24,TREE DOWN AT 1500 MCBRYDE MILL ROAD (RAH)
2320,UNK,CARTER,GATES,NC,36.36,-76.68,TREES AND POWER LINES DOWN NEAR INTESECTION OF CARTER AND PERKINS ROADS (AKQ)
2325,UNK,2 SSE BUCKVILLE,LAFAYETTE,FL,30.11,-83.28,POWER LINE DOWN ON COUNTY ROAD 351 (TAE)
2326,UNK,4 SSE MARION,MARION,SC,34.12,-79.39,TREE DOWN ON HWY 9. (ILM)
2330,UNK,3 NW DOWLING PARK,MADISON,FL,30.27,-83.28,TREE DOWN NEAR COUNTY ROAD 255 AND COUNTY ROAD 53 (TAE)
2330,UNK,1 WNW CHARLESTON,CHARLESTON,SC,32.79,-79.95,TREE DOWN AT THE CORNER OF HAYGOOD AVE AND SPRING ST (CHS)
2330,UNK,4 SW BUSHY FORK,PERSON,NC,36.27,-79.14,DOT CALLED TO REMOVE TREES FROM NC49 NEAR THE COUNTY LINE. (RAH)
2331,UNK,1 W STRATTANVILLE,CLARION,PA,41.2,-79.34,DAMAGE TO ROOF...WINDOWS....AND TREES ON DAVES STORAGE LANE (PBZ)
2335,UNK,1 SSE COOKS HAMMOCK,LAFAYETTE,FL,29.91,-83.27,TREE DOWN AT 1984 SE COUNTY ROAD 357 BLOCKING BOTH LANES (TAE)
2335,UNK,CREEDMOOR,GRANVILLE,NC,36.12,-78.69,TREE DOWN ON HIGHWAY 50 NEAR CREEDMOOR (RAH)
2339,UNK,4 SSE SUWANNEE RIVER ST,SUWANNEE,FL,30.36,-83.13,NUMEROUS LARGE TREES DOWN ACROSS THE AREA (JAX)
2345,UNK,4 WNW GRADY,LAFAYETTE,FL,29.97,-83,TREE DOWN NEAR COUNTY ROAD 405 AND HIGHWAY 27 EAST (TAE)
2345,UNK,MCALPIN,SUWANNEE,FL,30.14,-82.95,SUWANNEE COUNTY 911/DISPATCH REPORTS NUMEROUS TREES DOWNED ACROSS THE COUNTY. (JAX)
2345,UNK,1 N EDGERTON,BRUNSWICK,VA,36.79,-77.77,SEVERAL TREES DOWNED ALONG ROUTE 721 NEAR HIGHWAY 58. (AKQ)
2345,UNK,1 N BOWEN,POWELL,KY,37.86,-83.77,SMALL TREE BLOWN DOWN IN THE ROAD ON HIGHWAY 15 AT COW CREEK ROAD. (JKL)
2347,UNK,FAYETTEVILLE,CUMBERLAND,NC,35.07,-78.9,TREES WERE REPORTED DOWN ON POWER LINES IN FAYETTEVILLE. (RAH)
2350,UNK,2 NNW BLUE RIVER,WASHINGTON,IN,38.55,-85.95,TREE REPORTED DOWN. (LMK)
2355,UNK,2 SE GREEN SEA,HORRY,SC,34.11,-78.95,TREE DOWN ON MT ZION RD. (ILM)
0000,UNK,6 SW BULLOCKSVILLE,VANCE,NC,36.43,-78.43,TREES AND POWERLINES DOWN NEAR WILLIAMSBORO (RAH)
0000,60,12 N BEACH,GOLDEN VALLEY,ND,47.09,-104,(BIS)
0005,UNK,2 S RIVERSIDE,SOMERSET,PA,40.25,-78.92,MULTIPLE BUILDINGS DAMAGED ON MOSER RD. TREES/WIRES DOWN (CTP)
0005,UNK,2 S RIVERSIDE,NORTHUMBERLAND,PA,40.91,-76.65,MULTIPLE BUILDINGS DAMAGED ON MOSER RD. TREES/WIRES DOWN (CTP)
0010,UNK,MEMPHIS,CLARK,IN,38.48,-85.77,TREES REPORTED DOWN. (LMK)
0012,UNK,BENSON,JOHNSTON,NC,35.38,-78.54,TREE DOWN IN BENSON (RAH)
0012,UNK,NORTH EMPORIA,CITY OF EMPORIA,VA,36.69,-77.54,TREE DOWNED ALONG HIGHWAY 301 IN EMPORIA. (AKQ)
0013,UNK,ENFIELD,HALIFAX,NC,36.18,-77.67,SEVERAL TREES DOWN...ONE ON A HOME IN TOWN. (RAH)
0015,UNK,NORLINA,WARREN,NC,36.44,-78.2,SEVERAL LARGE TREE LIMBS DOWN... BLOCKING ROADS. TOWN PUBLIC WORKS AND FIRE DEPARTMENT DISPATCHED TO REMOVE TREE LIMBS FROM ROADWAYS. (RAH)
0020,UNK,2 SE RIVERSIDE,NORTHUMBERLAND,PA,40.92,-76.62,MULTIPLE BUILDINGS DAMAGED ON MOSER RD. TREES/WIRES DOWN (CTP)
0025,UNK,PALMER CROSSROADS,MECKLENBURG,VA,36.57,-78.2,NUMEROUS TREES DOWN (AKQ)
0025,UNK,2 NW CATAWISSA,COLUMBIA,PA,40.97,-76.49,TREES DOWN (CTP)
0030,UNK,2 NE TUCSON,PIMA,AZ,32.25,-110.92,LARGE TREE DOWN CATALINA HS (TWC)
0030,UNK,SANTA ROSA,PIMA,AZ,32.32,-112.04,SPOTTER REPORTS FEW TREE BRANCHES DOWN 1 FT DIAMETER (TWC)
0041,UNK,2 NW FORESTVILLE,SHENANDOAH,VA,38.73,-78.75,TREES DOWN AT 5000 BLOCK OF SENEDO RD (LWX)
0041,UNK,WOODSTOCK,SHENANDOAH,VA,38.88,-78.52,TREES DOWN AT 5000 BLOCK OF SENEDO RD (LWX)
0045,UNK,SIERRA VISTA,COCHISE,AZ,31.55,-110.29,TREE DOWN IN ROAD IN SIERRA VISTA...FRY BLVD AND EL CAMINO REAL. (TWC)
0055,67,8 WSW TUCSON,PIMA,AZ,32.19,-111.07,67 MPH WIND GUST MEASURED ATOP THE CASINO DEL SOL (TWC)
0103,UNK,GAINESVILLE,ALACHUA,FL,29.67,-82.34,TWO TREES REPORTED DOWN IN THE CITY OF GAINESVILLE. (JAX)
0106,UNK,GOSHEN,OLDHAM,KY,38.41,-85.59,TREES DOWN ALONG HIGHWAY 42. (LMK)
0110,UNK,CLARKSTOWN,LYCOMING,PA,41.2,-76.73,LARGE TREE DOWN ON POWER LINES IN MUNCY CREEK TOWNSHIP. (CTP)
0115,UNK,5 S LEWISBURG,UNION,PA,40.89,-76.89,LARGE TREE DOWN ON POWER LINES IN UNION TOWNSHIP. (CTP)
0115,58,WATFORD CITY,MCKENZIE,ND,47.8,-103.28,(BIS)
0115,UNK,1 NE WATFORD CITY,MCKENZIE,ND,47.8,-103.28,TWO TRAILERS... ONE 50 FT IN LENGTH AND ONE SHORTER... TURNED OVER. THE 50 FT TRAILER MOVED 150 FEET. OCCURRED BETWEEN 745 AMD 815 BASED ON RADAR ESTIMATES. (BIS)
0130,UNK,1 SSE BLANCHARD,CADDO,LA,32.58,-93.88,SEVERAL TREES WERE BLOWN DOWN ALONG BOSTWICK ROAD. AN OUTDOOR STORAGE SHED WAS ALSO DESTROYED. (SHV)
0130,60,6 NE LUDLOW,HARDING,SD,45.89,-103.29,(UNR)
0130,75,10 NW OAKDALE,DUNN,ND,47.59,-102.98,SEVERAL LARGE TREES DOWN (BIS)
0140,UNK,ENFIELD,HALIFAX,NC,36.18,-77.67,SEVERAL TREES WERE REPORTED DOWN IN ENFIELD. (RAH)
0144,UNK,2 W MOLER CROSSROADS,JEFFERSON,WV,39.39,-77.81,DOWNED POWER LINE AT 5959 SHEPHERDSTOWN PIKE (LWX)
0150,70,1 N RALPH,HARDING,SD,45.79,-103.06,(UNR)
0151,UNK,ROANOKE RAPIDS,HALIFAX,NC,36.45,-77.65,SEVERAL TREES DOWN. LEADING TO POWER OUTAGES...ALSO MINOR NUISANCE FLOODING IN TOWN (RAH)
0152,UNK,1 W POPLAR HILL,GILES,VA,37.22,-80.75,911 CALL CENTER REPORTS TWO TREES DOWN ALONG ROUTE 42 IN GILES COUNTY... VA. (RNK)
0157,UNK,1 NNE POTECASI,NORTHAMPTON,NC,36.38,-77.23,TREES DOWN BETWEEN CONWAY AND WOODLAND ALONG HIGHWAY 35. (AKQ)
0202,UNK,6 ESE AMHERST,AMHERST,VA,37.56,-78.95,TWO TREES DOWN ALONG ROUTE 60 WEST OF GLADSTONE. (RNK)
0204,62,NEWPORT NEWS,CITY OF NEWPORT N,VA,37.13,-76.5,(AKQ)
0210,UNK,3 SSE MOUNTAIN LAKE,GILES,VA,37.3,-80.53,911 CALL CENTER REPORTS A TREE DOWN ACROSS MAYBROOK ROAD IN GILES COUNTY... VA. (RNK)
0210,UNK,GRASONVILLE,QUEEN ANNES,MD,38.96,-76.21,WIRES DOWN WERE REPORTED (PHI)
0219,60,11 NNW PRAIRIE CITY,PERKINS,SD,45.68,-102.89,(UNR)
0222,UNK,4 SSE ELMA,NELSON,VA,37.7,-78.77,TREE DOWN ON RED APPLE ORCHARD LANE (LWX)
0222,61,NWS RENO,WASHOE,NV,39.57,-119.8,61 MPH WIND GUST MEASURED AT THE RENO NWS. (REV)
0225,UNK,POWHATAN,POWHATAN,VA,37.54,-77.92,TREES UPROOTED...THREE HOUSES DAMAGED AND ONE VEHICLE CRUSHED...APPARENT MICROBURST. (AKQ)
0225,59,8 S CHUGWATER,LARAMIE,WY,41.65,-104.85,DURATION 5 MINUTES. (CYS)
0230,75,3 E REVA,HARDING,SD,45.55,-103.02,(UNR)
0243,UNK,SAHUARITA,PIMA,AZ,31.96,-110.95,POWER OUT TO NEARLY 1000 HOMES EAST OF I-19 (TWC)
0254,UNK,5 WSW ROANOKE,CITY OF ROANOKE,VA,37.25,-80.03,3 LARGE TREES DOWN AT THE OAK GROVE COMMUNITY REPORTED BY WDBJ. TIME FROM RADAR. (RNK)
0256,UNK,SW TROUTVILLE,BOTETOURT,VA,37.41,-79.88,911 CALL CENTER REPORTS 1 TREE DOWN ALONG MOUNTAIN PASS ROAD IN THE CITY OF TROUTVILLE. (RNK)
0258,80,12 ENE ZEONA,PERKINS,SD,45.26,-102.69,6-8 INCH DIAMETER TREES UPROOTED (UNR)
0300,UNK,1 E SAHUARITA,PIMA,AZ,31.96,-110.94,LARGE TREE DOWN IN MOBILE HOME PARK (TWC)
0302,UNK,VINTON,ROANOKE,VA,37.27,-79.89,SEVERAL LARGE TREE LIMBS DOWN (RNK)
0305,60,GUN BARREL,LARAMIE,WY,41.44,-104.35,DURATION 5 MINUTES. (CYS)
0322,60,17 SW USTA,PERKINS,SD,45.04,-102.41,(UNR)
0335,83,44 SSE GRAND ISLE CMAN,GMZ572,XX,28.64,-89.79,STATION KMDJ OIL PLATFORM IN MISSISSIPPI CANYON BLOCK 311A REPORTED 26058G72KT IN THEIR 0335Z OBSERVATION. ANEMOMETER HEIGHT IS 90 METERS. (LIX)
0349,UNK,3 SSW FOREST,BEDFORD,VA,37.32,-79.31,DOT REPORTS A TREE DOWN ALONG ROUTE 709 SOUTHWEST OF THE CITY OF FOREST IN BEDFORD COUNTY... VA. (RNK)
0350,UNK,1 SE HUDDLESTON,BEDFORD,VA,37.16,-79.47,911 CALL CENTER REPORTS A TREE DOWN WITHIN THE CITY OF HUDDLESTON... VA. (RNK)
0355,69,44 SSE GRAND ISLE CMAN,GMZ572,XX,28.64,-89.79,STATION KMDJ OIL PLATFORM IN MISSISSIPPI CANYON BLOCK 311A REPORTED 28051G60KT IN THEIR 0355Z OBSERVATION. ANEMOMETER HEIGHT IS 90 METERS. (LIX)
0355,65,12 S FAITH,MEADE,SD,44.85,-102.04,(UNR)
0358,UNK,WARRENTON,FAUQUIER,VA,38.72,-77.8,SEVERAL TREES DOWN IN THE WARRENTON AREA (LWX)
0407,60,5 W CARSON,GRANT,ND,46.42,-101.67,(BIS)
0413,UNK,1 ESE HEFLIN,STAFFORD,VA,38.48,-77.56,TREE DOWN AT POPLAR RD AND TACKETTS MILL RD (LWX)
0416,60,12 NE STONEHAM,LOGAN,CO,40.73,-103.52,(BOU)
0428,UNK,1 SSE DUNKIRK,CALVERT,MD,38.71,-76.65,TREES AND POWER LINES DOWN NEAR INTERSECTION OF SOUTHERN MARYLAND BLVD AND CORTLAND LN (LWX)
0445,UNK,1 N LINCOLNIA,FAIRFAX,VA,38.83,-77.15,TREE DOWN ON BRADDOCK ROAD (LWX)
0446,UNK,2 NNE STORCK,STAFFORD,VA,38.45,-77.59,TREE DOWN AT HARTWOOD RD AND SPOTTED TAVERN RD (LWX)
0454,UNK,4 E KETTERING,PRINCE GEORGES,MD,38.88,-76.72,TREE DOWN ON CRANE HIGHWAY AT TRADE ZONE AVENUE (LWX)
0455,65,12 S FAITH,MEADE,SD,44.85,-102.04,(UNR)
0458,UNK,BALLSTON,ARLINGTON,VA,38.88,-77.11,LARGE BRANCH DOWNED BLOCKING LANE OF NORTH GLEBE RD. (LWX)
0505,UNK,WASHINGTON,DISTRICT OF COLUM,DC,38.91,-77.02,TREES DOWN AT MULTIPLE LOCATIONS AROUND THE CITY (LWX)
0507,UNK,COTTAGE CITY,PRINCE GEORGES,MD,38.94,-76.94,TREE DOWN ON UPSHUR STREET AT 46TH STREET (LWX)
0507,UNK,1 WNW LANGLEY PARK,MONTGOMERY,MD,39,-77,50 FOOT TREE DOWN ON 8700 BLOCK OF PINEY BRANCH RD (LWX)
0507,UNK,1 SE WHITEFORD,HARFORD,MD,39.7,-76.33,TREES AND WIRES DOWN ON RIDGE ROAD AT WHITEFORD ROAD (LWX)
0512,74,1 NE SEAT PLEASANT,PRINCE GEORGES,MD,38.91,-76.89,(LWX)
0523,63,3 N STANFIELD,PINAL,AZ,32.93,-111.96,(PSR)
0524,UNK,2 NNE GLENN DALE,PRINCE GEORGES,MD,39.01,-76.78,SEVERAL BRANCHES 8 INCHES TO 1 FOOT THICK DOWN NEAR INTERSECTION OF 5TH ST. AND MAPLE AVE. (LWX)
0525,UNK,2 ESE BACK RIVER,BALTIMORE,MD,39.26,-76.41,TREE DOWN ON ROCKY POINT ROAD BETWEEN BARRISON POINT ROAD AND PARKVIEW ROAD (LWX)
0545,UNK,14 SE BAGDAD,YAVAPAI,AZ,34.43,-113,TREES DOWN ALONG SR-96 AT MM 18. REPORTED BY AZDOT. TIME ESTIMATED. (FGZ)
0553,UNK,NORTHEAST HEIGHTS,CECIL,MD,39.57,-75.95,DOCK WAS DESTROYED AT THE NORTHEAST MARINA (PHI)
0618,UNK,NEWARK,NEW CASTLE,DE,39.68,-75.76,WIRES DOWN (PHI)
0645,60,2 N PLEASANT HILL,CASS,MO,38.82,-94.27,(EAX)
0700,UNK,CALHOUN,HENRY,MO,38.47,-93.62,8 INCH RED BUD TREE UPROOTED. TIME ESTIMATED. (EAX)
0715,60,WARSAW,BENTON,MO,38.24,-93.38,REPORTS OF MULTIPLE STRAIGHT LINE WINDS THROUGHOUT BENTON COUNTY. (SGF)
0720,UNK,2 NE ARCHIE,CASS,MO,38.5,-94.33,TREES DOWN (EAX)
0722,UNK,URICH,HENRY,MO,38.46,-94,TREE BLOWN OVER. SNAPPED AT THE BASE. (EAX)
0730,UNK,2 W LAKE HAVASU CITY,MOHAVE,AZ,34.45,-114.37,AWNING RIPPED OF MOBILE HOME AT SAMS BEACHCOMER RV PARK. TIME IS APPROXIMATE. (VEF)
0740,UNK,LEETON,JOHNSON,MO,38.58,-93.7,TREES DOWN (EAX)
0742,UNK,1 NNW MOHAVE VALLEY,MOHAVE,AZ,34.95,-114.6,TWO TREES DOWN ABOUT 1/4 MILE APART NEAR MOUNTAIN VIEW RD AND PAUL RD. (VEF)
0800,UNK,5 SSW BULLHEAD CITY,MOHAVE,AZ,35.08,-114.59,METAL SHADE AWNING BLOWN OVER. TIME IS APPROXIMATE BASED ON ASOS WIND REPORT. (VEF)
0805,UNK,LOWRY CITY,ST. CLAIR,MO,38.14,-93.73,TREES AND POWER POLES DOWN. REPORT VIA FACEBOOK. (SGF)
0810,73,5 NNE BIG BEND RAWS,CLARK,NV,35.18,-114.68,STATION LALN2 REPORTED A GUST TO 73 MPH AT 110 AM AND A SUBSEQUENT GUST TO 68 MPH AT 112 AM. (VEF)
0813,UNK,BAYONNE,HUDSON,NJ,40.66,-74.11,TREE DOWN ON CAR. TIME ESTIMATED FROM RADAR. (OKX)
0815,UNK,6 WSW WEAUBLEAU,ST. CLAIR,MO,37.87,-93.64,REPORTS OF MULTIPLE TREES UPROOTED NEAR SE 1000 ROAD AND SE 801 ROAD NEAR COLLINS IN ST.CLAIR COUNTY. (SGF)
0823,UNK,RIVER EDGE,BERGEN,NJ,40.93,-74.04,TREES AND WIRES DOWN AT CONTINENTAL AND 8TH AVENUE. TIME ESTIMATED BY RADAR. (OKX)
0830,UNK,HARROLD,HUGHES,SD,44.52,-99.74,YIELD SIGN ANCHORED IN 55 GALLON DRUM TIPPED OVER --- DAMAGE TO DOOR AND WALL OF A BUILDING --- DAMAGE TO FRUIT TREE --- TIME ESTIMATED BY RADAR (ABR)
0838,UNK,3 NW PITTSBURG,HICKORY,MO,37.86,-93.34,TIME ESTIMATED BY RADAR (SGF)
0850,UNK,WEST CALDWELL,ESSEX,NJ,40.85,-74.3,FALLEN TREE ON WESTVILLE AVENUE (OKX)
0850,UNK,PARAMUS,BERGEN,NJ,40.95,-74.07,TREE TOOK DOWN SEVERAL POWER AND UTILITY POLES ON CONTINENTAL DRIVE (OKX)
0858,100,HOOVER DAM,CLARK,NV,36.01,-114.74,MESONET STATION HOOVER DAM BYPASS BRIDGE /HDMNV/ (VEF)
0904,UNK,4 E BUFFALO,DALLAS,MO,37.63,-93.03,REPORT OF TREE DOWN ON HIGHWAY 32 1 MILE EAST OF NIANGUA RIVER NEAR BUFFALO. THE TREE WAS BLOCKING THE WEST BOUND LANE. (SGF)
0910,UNK,2 ENE HENDERSON,CLARK,NV,36.04,-114.98,TREE SPLIT IN HALF NEAR BURKHOLDER BLVD AND LAKE MEAD PKWY. TIME APPROXIMATED. (VEF)
0910,UNK,5 W CROCKER,PULASKI,MO,37.95,-92.36,TREE BLOCKING HWY U WEST OF CROCKER. (SGF)
0913,UNK,4 SSE FAIR PLAY,POLK,MO,37.58,-93.55,REPORT OF TREES DOWN ALONG HWY 123 BETWEEN FAIR PLAY AND ALDRICH. (SGF)
0916,61,1 NW HENDERSON,CLARK,NV,36.04,-115.01,STATION HEND REPORTED A GUST TO 61 MPH. (VEF)
0921,UNK,N LONG LANE,DALLAS,MO,37.61,-92.91,REPORT OF TREE DOWN ON STATE ROAD P AND NORTH HIGHWAY 32 IN DALLAS COUNTY. (SGF)
0930,UNK,5 N TOPOCK,MOHAVE,AZ,34.79,-114.47,SEVERAL REPORTS OF DOWNED TREES... MOBILE HOME AWNINGS DAMAGED AND POWER OUTAGES. AT LEAST ONE PALM TREE FIRE REPORTED. TIME APPROXIMATE BASED ON POWER OUTAGE BEGIN TIME. (VE
0936,UNK,5 NW MARSHFIELD,WEBSTER,MO,37.4,-92.96,REPORT OF A TREE DOWN NEAR GREER CREEK ROAD IN MARSHFIELD. THE TREE WAS APPROXIMATELY 4 INCHES IN DIAMETER. (SGF)
0938,UNK,NNE BENNETT SPRINGS,LACLEDE,MO,37.73,-92.85,REPORT OF A TREE DOWN ON HIGHWAY 64 NEAR BENTON SPRINGS WHICH CAUSED A MOTOR VEHICLE ACCIDENT AT 513 AM. (SGF)
1004,UNK,4 E BUFFALO,DALLAS,MO,37.63,-93.03,REPORT OF TREE DOWN ON HIGHWAY 32 1 MILE EAST OF NIANGUA RIVER NEAR BUFFALO. THE TREE WAS BLOCKING THE WEST BOUND LANE. (SGF)
1014,UNK,RIVERHEAD,SUFFOLK,NY,40.91,-72.63,LARGE TREE FELL ON A HOUSE ON WILSON AVENUE. TIME ESTIMATED BY RADAR. (OKX)
1015,60,9 NE PUKWANA,BRULE,SD,43.89,-99.08,(FSD)
1026,UNK,SHELTER ISLAND,SUFFOLK,NY,41.08,-72.34,TREE DOWN ON OSPREY ROAD. (OKX)
1047,UNK,N LONG LANE,DALLAS,MO,37.61,-92.91,REPORT OF TREE DOWN ON STATE ROAD P AND NORTH HIGHWAY 32 IN DALLAS COUNTY. (SGF)
1057,UNK,2 SE CENTER GROTON,NEW LONDON,CT,41.37,-72.01,LARGRE BRANCH FELL ON WIRES CAUSING POWER OUTAGES. (OKX)
1100,58,6 SW AMARGOSA VALLEY,NYE,NV,36.57,-116.46,MESONET STATION AMARGOSA VALLEY 6 SW /CMP02/ (VEF)
1115,59,AREA 27 (NTS A27),NYE,NV,36.77,-116.11,SOUTH WINDS GUSTED TO 59 MPH AT THE AREA 27 MESONET SITE. (VEF)
1115,65,YUCCA MOUNTAIN (NTS A24,NYE,NV,36.84,-116.47,EAST WINDS GUSTED TO 65 MPH AT YUCCA MOUNTAIN. (VEF)
Time,Size,Location,County,State,Lat,Lon,Comments
1219,100,5 SE BESSEMER,JEFFERSON,AL,33.33,-86.9,QUARTER SIZE HAIL REPORTED IN RUSSET WOODS (BMX)
1315,100,BEAVERDALE,WHITFIELD,GA,34.92,-84.85,PUBLIC REPORTS QUARTER SIZED HAIL IN BEAVERDALE. (FFC)
1357,150,GOOD HOPE,CULLMAN,AL,34.11,-86.86,SILVER DOLLAR - 1.5 INCH DIAMETER - HAIL REPORTED BY LAW ENFORCEMENT DISPATCH IN GOOD HOPE. (HUN)
1415,100,BEAVERDALE,WHITFIELD,GA,34.92,-84.85,PUBLIC REPORTS QUARTER SIZED HAIL IN BEAVERDALE. (FFC)
1658,100,CARNESVILLE,FRANKLIN,GA,34.37,-83.23,PUBLIC REPORTS 1-INCH HAIL IN CARNESVILLE (GSP)
1700,100,9 SE LEITH,GRANT,ND,46.27,-101.5,QUARTER SIZED HAIL FOR A FEW MINUTES...1100 - 1104 PM MDT (BIS)
1718,100,9 SSE LEITH,GRANT,ND,46.24,-101.56,QUARTER SIZED HAIL FOR A FEW MINUTES...1120 - 1124 PM MDT (BIS)
1745,100,ANDERSON,ANDERSON,SC,34.52,-82.65,QUARTER SIZE HAIL IN DOWNTOWN ANDERSON (GSP)
1752,100,MILFORD,CLERMONT,OH,39.17,-84.28,(ILN)
1800,100,ANDERSON,ANDERSON,SC,34.52,-82.65,(GSP)
1825,175,OREFIELD,LEHIGH,PA,40.63,-75.58,(PHI)
1839,100,NORTH CATASAUQUA,NORTHAMPTON,PA,40.66,-75.47,(PHI)
1843,175,WHITEHALL TWP,LEHIGH,PA,40.66,-75.51,(PHI)
1942,125,OXFORD,WARREN,NJ,40.8,-74.99,HALF DOLLAR SIZE HAIL REPORTED IN OXFORD. (PHI)
2015,100,SELINSGROVE,SNYDER,PA,40.8,-76.87,(CTP)
2035,100,3 NE SPRINGFIELD,ORANGEBURG,SC,33.53,-81.24,PUBLIC REPORTED ONE INCH HAIL 3 MILES NORTHEAST OF SPRINGFIELD. REPORT RELAYED VIA SOCIAL MEDIA. (CAE)
2037,100,FAIRVIEW,GUERNSEY,OH,40.06,-81.24,(PBZ)
2052,100,4 NW NEWPORT,WASHINGTON,OH,39.44,-81.3,TIME ESTIMATED FROM RADAR (RLX)
2100,100,SELINSGROVE,SNYDER,PA,40.8,-76.87,(CTP)
2145,100,OWENTON,OWEN,KY,38.54,-84.84,HAIL REPORTED BY OWEN FIRE DEPT. (ILN)
2210,100,1 WNW POINT LOOKOUT,WASHINGTON,PA,40.12,-80.27,(PBZ)
2225,175,10 S CIBECUE,GILA,AZ,33.88,-110.48,(FGZ)
2227,175,13 NNW SIDNEY,RICHLAND,MT,47.89,-104.26,MOSTLY DIME SIZE WITH SOME GOLF BALL SIZED AND HEAVY RAIN. WINDS ESTIMATED 30 TO 35 MPH. (GGW)
2231,100,3 WNW HOLTON,RIPLEY,IN,39.09,-85.43,REPORT FROM SHAVE. (ILN)
2232,100,5 WNW WIBAUX,WIBAUX,MT,47.03,-104.29,MAINLY DIME SIZED HAIL WITH SOME QUARTER. HEAVY RAIN (GGW)
2240,100,WHITE OAK,ALLEGHENY,PA,40.34,-79.8,(PBZ)
2245,200,SIDNEY,RICHLAND,MT,47.72,-104.15,HAIL LASTED AT LEAST 5 MINUTES. (GGW)
2250,100,CLINTON,HINDS,MS,32.34,-90.33,VIA SOCIAL MEDIA (JAN)
2252,100,SHELBYVILLE,SHELBY,IN,39.52,-85.78,HAIL STONES UP TO 1 INCH IN DIAMETER. (IND)
2317,150,HENRYVILLE,CLARK,IN,38.53,-85.77,(LMK)
2325,100,2 NE SKAAR,MCKENZIE,ND,47.4,-104,(BIS)
2343,175,1 SE EAST FAIRVIEW,MCKENZIE,ND,47.85,-104.02,HAIL LASTED FROM 615 PM CDT TO 635 PM CDT. MEASURED 0.35 INCH OF RAIN. (BIS)
0008,375,16 W AMIDON,SLOPE,ND,46.48,-103.66,(BIS)
0010,100,MEMPHIS,CLARK,IN,38.48,-85.77,(LMK)
0011,100,SIMPSONVILLE,SHELBY,KY,38.22,-85.35,(LMK)
0022,175,4 SSW DIVIDE,TELLER,CO,38.9,-105.18,(PUB)
0038,150,7 NW SOUTH TUCSON,PIMA,AZ,32.26,-111.07,SPOTTER REPORTED PING PONG TO BASEBALL SIZED HAIL. (TWC)
0040,100,2 WSW BARKSDALE AIR FOR,BOSSIER,LA,32.49,-93.71,QUARTER SIZE HAIL REPORTED NEAR COATES BLUFF APARTMENTS IN SHREVEPORT. (SHV)
0042,100,4 SE SABINO CANYON,PIMA,AZ,32.29,-110.76,(TWC)
0056,175,3 W BOWMAN,BOWMAN,ND,46.18,-103.46,HAIL LASTED FOR ABOUT 1 MINUTE. SPOTTER DROVE THROUGH THE HAIL. AT ABOUT 754 CDT. (BIS)
0107,100,GOSHEN,OLDHAM,KY,38.41,-85.59,(LMK)
0130,100,8 S SCRANTON,BOWMAN,ND,46.03,-103.14,QUARTER SIZE HAIL....730 - 0735 MDT PM (BIS)
0130,100,3 W RICHEY,DAWSON,MT,47.64,-105.14,MOSTLY PENNY SIZED HAIL WITH SOME QUARTER SIZED...WIND GUST OF 52 MPH. (GGW)
0134,100,3 W AMIDON,SLOPE,ND,46.48,-103.39,(BIS)
0137,175,CORONA DE TUCSON,PIMA,AZ,31.95,-110.77,SPOTTER REPORTS GOLF BALL SIZED HAIL (TWC)
0151,100,AMIDON,SLOPE,ND,46.48,-103.32,(BIS)
0155,100,1 N RIO RICO,SANTA CRUZ,AZ,31.49,-110.97,DIME TO QUARTER SIZE HAIL. E WIND 29 GUSTING 43 MPH. (TWC)
0215,125,8 SSW RALPH,HARDING,SD,45.67,-103.13,(UNR)
0230,250,3 E REVA,HARDING,SD,45.55,-103.02,(UNR)
0322,100,4 SSE SIERRA VISTA,COCHISE,AZ,31.51,-110.27,SPOTER REPORTS QUARTER SIZED HAIL AND HEAVY RAIN (TWC)
0322,100,17 SW USTA,PERKINS,SD,45.04,-102.41,(UNR)
0400,100,5 S LEITH,GRANT,ND,46.29,-101.64,QUARTER SIZED HAIL FOR A FEW MINUTES...1100 - 1104 PM MDT (BIS)
0440,100,1 N RIO RICO,SANTA CRUZ,AZ,31.49,-110.97,SPOTTER REPORTS QUARTER SIZED HAIL IN AMADO (TWC)
0518,100,9 SSE LEITH,GRANT,ND,46.24,-101.56,QUARTER SIZED HAIL FOR A FEW MINUTES...1120 - 1124 PM MDT (BIS)
0650,175,CALHOUN,HENRY,MO,38.47,-93.62,(EAX)
0815,175,6 WSW WEAUBLEAU,ST. CLAIR,MO,37.87,-93.64,REPORT OF GOLF BALL SIZED HAIL AND PEA SIZE HAIL NEAR SE 1000 ROAD NEAR COLLINS IN ST. CLAIR COUNTY. (SGF)
0915,125,10 NNW STEPHAN,HYDE,SD,44.38,-99.52,HAIL DAMAGED CORN AND OAT CROPS AND CAUSED CATTLE HERD TO STAMPEDE AND DAMAGE A FENCE (ABR)
0940,125,6 N LEES CORNER,BUFFALO,SD,44.16,-99.33,LARGEST HAILSTONES UP TO HALF DOLLAR SIZED. STRONG WINDS SPLIT A 12 INCH TREE TRUNK AND BLEW OVER AN OUTHOUSE...LUCKILY UNOCCUPIED. (ABR)
1020,100,8 NE PUKWANA,BRULE,SD,43.86,-99.06,(FSD)
