Time,F_Scale,Location,County,State,Lat,Lon,Comments
2036,UNK,11 SSW SPEARMAN,HUTCHINSON,TX,36.05,-101.27,NWS DAMAGE SURVEY INFORMATION FOUND THAT A TORNADO TOUCHDOWN FIRST OCCURRED ABOUT 11 MILES SSW OF SPEARMAN AT 0336 PM AND LIFTED AT 0349 PM APPROXIMATELY 8 MILES SSW OF (AMA)
2042,UNK,9 SSW SPEARMAN,HANSFORD,TX,36.08,-101.26,NWS DAMAGE SURVEY INFORMATION FOUND THAT A TORNADO TOUCHDOWN FIRST OCCURRED ABOUT 9 MILES SSW OF SPEARMAN AT 0342 PM AND LIFTED AT 0349 PM APPROXIMATELY 8 MILES SSW OF (AMA)
2050,UNK,6 S SPEARMAN,HANSFORD,TX,36.12,-101.21,BRIEF TORNADO TOUCHDOWN 6 MILES SOUTH OF SPEARMAN TEXAS. (AMA)
2127,UNK,7 N HALFWAY,HALE,TX,34.29,-101.95,(LUB)
2148,UNK,14 N FORT STOCKTON,Pecos,TX,31.09,-102.89,(MAF)
2149,UNK,2 N BORGER,HUTCHINSON,TX,35.69,-101.4,STORM CHASERS REPORTED A TORNADO TOUCHDOWN JUST NORTH OF BORGER. (AMA)
2150,UNK,4 S GRAY,OCHILTREE,TX,36.49,-100.82,NWS DAMAGE SURVEY INFORMATION FOUND THAT A TORNADO BRIEFLY TOUCHED DOWN AT 0450 PM CDT 4 MILES SOUTH OF GRAY. THE TORNADO WAS RATED EF-0... AND BASED UPON BROADCAST MED (AMA)
2201,UNK,6 SSW KIMBERLY,TWIN FALLS,ID,42.45,-114.43,VIDEO ON FACEBOOK OF A WEAK LANDSPOUT. FACEBOOK REPORT OF TREES DOWN AT A FARM. (BOI)
2212,UNK,6 SW TULIA,SWISHER,TX,34.48,-101.85,(LUB)
2216,UNK,9 ENE PLEMONS,HUTCHINSON,TX,35.87,-101.17,NWS DAMAGE SURVEY INFORMATION FOUND THAT A CONE TORNADO TOUCHED DOWN FOR APPROXIMATELY 3 MINUTES IN THE CANADIAN RIVER VALLEY. THE TORNADO RECEIVED WAS GIVEN AN EF-0 RA (AMA)
2224,UNK,11 NE PLEMONS,HUTCHINSON,TX,35.9,-101.15,CONE TORNADO LASTED 3 MINUTES (AMA)
2225,UNK,9 SW TULIA,SWISHER,TX,34.45,-101.88,VIA TWITTER PIC (LUB)
2256,UNK,9 NE TULIA,SWISHER,TX,34.63,-101.66,(LUB)
2327,UNK,7 ESE WAYSIDE,ARMSTRONG,TX,34.75,-101.44,MULTIPLE REPORTS OF DOWNED TREES AND POWERLINES DUE TO A TORNADO ALONG US HIGHWAY 207 IN FAR SOUTHERN ARMSTRONG COUNTY. (AMA)
2335,UNK,12 SSW GOODNIGHT,ARMSTRONG,TX,34.87,-101.27,NWS DAMAGE SURVEY INFORMATION SUGGESTS THAT THE SOUTHERN ARMSTRONG COUNTY TORNADO LIFTED AT 0635 PM CDT 12 MILES SSW OF GOODNIGHT. THIS TORNADO WAS GIVEN A PRELIMINARY (AMA)
2356,UNK,7 W LIPSCOMB,LIPSCOMB,TX,36.23,-100.4,FUNNEL CLOUD NORTHWEST OF LOCATION AND HALFWAY DOWN WITH DEBRIS CIRCULATION ON THE GROUND FOR LESS THAN ONE MINUTE. (AMA)
0025,UNK,1 SE HOWARDWICK,DONLEY,TX,35.02,-100.9,NWS STORM SURVEY INFORMATION SUGGESTS THAT THE TORNADO TOUCHED DOWN 1 MILE SOUTHEAST OF HOWARDWICK AT 0725 PM CDT AND LIFTED IN HOWARDWICK AT 0728 PM CDT. THIS TORNADO (AMA)
0038,UNK,4 ENE HOWARDWICK,DONLEY,TX,35.06,-100.85,REPORT OF TORNADO ON THE GROUND THAT BECAME RAIN WRAPPED. (AMA)
0048,UNK,7 SSW ALANREED,DONLEY,TX,35.12,-100.78,NWS DAMAGE SURVEY INFORMATION SUGGESTS THAT A TORNADO TOUCHED DOWN 7 MILES SSW OF ALANREED AT 0748 PM CDT AND LIFTED 3 MILES S OF ALANREED AT 0754 PM CDT. THIS TORNADO (AMA)
0052,UNK,1 W ALANREED,GRAY,TX,35.21,-100.76,REPORTS OF TORNADO CROSSING INTERSTATE 40 NEAR ALANREED. (AMA)
0112,UNK,8 S TEXOLA,BECKHAM,OK,35.1,-99.99,VIDEO FROM BROADCAST MEDIA... AS WELL A SPOTTER REPORTS AND LAW ENFORCEMENT REPORTS. (OUN)
0419,UNK,5 SE AUGUSTA,BUTLER,KS,37.63,-96.92,TORNADO TOUCHDOWN AND MOVED NORTHEAST FOR 3 MINUTES CAUSING MINOR DAMAGE TO TREES. (ICT)
0423,UNK,2 N HOBART,KIOWA,OK,35.06,-99.09,LARGE TORNADO ON THE GROUND... TV BROADCAST AND STORM SPOTTER REPORTS. (OUN)
0457,UNK,1 SE NEWKIRK,KAY,OK,36.87,-97.04,MOBILE HOME BLOWN OVER. ROOF BLOWN OFF BUILDING. POWER LINES AND RADIO TOWER DOWN. (OUN)
Time,Speed,Location,County,State,Lat,Lon,Comments
1240,63,2 NNE SEMINOLE,Gaines,TX,32.74,-102.64,(MAF)
2013,UNK,3 E ROYAL PALM BEACH,PALM BEACH,FL,26.7,-80.18,MULTIPLE LARGE PINE TREE LIMBS DOWN IN PALISADES COMMUNITY PARK. TIME ESTIMATED FROM RADAR. (MFL)
2145,UNK,SW BELLE PLAINE,SUMNER,KS,37.39,-97.28,POWER POLE KNOCKED DOWN. 70TH AVE AND SENECA. (ICT)
2147,UNK,ROSE HILL,BUTLER,KS,37.57,-97.13,1 FOOT DIAMETER TRIM LIMB IS DOWN ON THE SOUTH SIDE OF TOWN. DELAYED REPORT FROM KAKE TV. (ICT)
2207,60,3 SW UDALL,SUMNER,KS,37.36,-97.16,(ICT)
2209,UNK,2 W UDALL,COWLEY,KS,37.39,-97.15,1 FOOT DIAMETER TREE BRANCH DOWN. (ICT)
2225,70,UDALL,COWLEY,KS,37.39,-97.12,ALSO DIME SIZE HAIL WAS REPORTED. (ICT)
2230,UNK,BEN WHEELER,VAN ZANDT,TX,32.45,-95.7,DELAYED REPORT---SEVERAL TREES DOWN WITH MINOR STRUCTURAL DAMAGE TO OUTBUILDINGS AND A SUN ROOM NEAR BEN WHEELER ASSOCIATED WITH DOWNBURST. (FWD)
2314,80,7 S WAYSIDE,LYNN,TX,33.22,-101.81,NUMEROUS POWER LINES SNAPPED. POSSIBLE TORNADO CROSSED ROAD. (LUB)
2314,80,5 NW VIGO PARK,SWISHER,TX,34.7,-101.55,NUMEROUS POWER LINES SNAPPED. POSSIBLE TORNADO CROSSED ROAD. (LUB)
0000,59,5 S ALBUQUERQUE,BERNALILLO,NM,35.04,-106.62,KABQ ASOS. (ABQ)
0028,80,PIEDMONT,GREENWOOD,KS,37.62,-96.37,(ICT)
0103,60,4 W MCLEAN,GRAY,TX,35.23,-100.67,(AMA)
0125,80,7 SSW ALVA,WOODS,OK,36.71,-98.72,MESONET REPORT (OUN)
0133,UNK,4 E SUMMERSVILLE,SHANNON,MO,37.18,-91.58,NICKLE SIZED HAIL REPORTED AT INTERSECTION OF HWY 106 AND COUNTY ROAD 106-339 EAST OF SUMMERSVILLE. TIME ESTIMATED FROM RADAR. (SGF)
0138,UNK,NNW TEXOLA,BECKHAM,OK,35.22,-99.99,SEMI OVERTURNED AT MILE MARKER 3 ON I-40 (OUN)
0400,UNK,BRECKENRIDGE,GARFIELD,OK,36.44,-97.73,WIND DAMAGE TO CARPORT AND MOBILE HOME. TIME IS ESTIMATED. (OUN)
0415,77,5 SE MANGUM,GREER,OK,34.83,-99.44,MESONET MEASUREMENT (OUN)
0455,61,3 S ALTUS,JACKSON,OK,34.6,-99.33,MESONET MEASUREMENT (OUN)
0457,UNK,NEWKIRK,KAY,OK,36.88,-97.06,DAMAGE TO SOME STRUCTURES VIA TWITTER. POSSIBLE TORNADO. TIME BASED ON RADAR. (OUN)
0508,60,BLACKWELL,NOLAN,TX,32.09,-100.32,THUNDERSTORM WIND GUSTS TO NEAR 60 MPH BROKE SOME TREE LIMBS. (SJT)
0510,UNK,LEON,BUTLER,KS,37.69,-96.78,ONE-INCH DIAMETER TREE LIMBS BROKEN OFF AND SHINGLES BLOWN OFF. RECEIVED VIA MPING. (ICT)
0522,60,CAPROCK CANYON SP,BRISCOE,TX,34.41,-101.06,MEASURED BY THE WEST TEXAS MESONET (LUB)
0530,UNK,6 W DEXTER,COWLEY,KS,37.18,-96.82,AT LEAST TWO POWER POLES LEANING AND TWO KNOCKED DOWN. TIME ESTIMATE FROM RADAR. (ICT)
0535,UNK,POTOSI,TAYLOR,TX,32.34,-99.68,DAMAGING THUNDERSTORM WINDS KNOCKED DOWN A TREE IN POTOSI. (SJT)
0535,58,4 WNW BESSIE,WASHITA,OK,35.41,-99.05,MESONET MEASUREMENT (OUN)
0545,UNK,COYLE,LOGAN,OK,35.95,-97.24,REPORTS OF LIMBS DOWN WITH ESTIMATED 60MPH WINDS. (OUN)
0640,60,CHAUTAUQUA,CHAUTAUQUA,KS,37.02,-96.18,(ICT)
0804,60,1 NNW BRADY,MCCULLOCH,TX,31.15,-99.34,(SJT)
0955,60,6 SSW SAN ANGELO,TOM GREEN,TX,31.37,-100.5,(SJT)
Time,Size,Location,County,State,Lat,Lon,Comments
1812,100,5 S MASTERSON,POTTER,TX,35.56,-101.96,(AMA)
1836,150,DUMAS,MOORE,TX,35.86,-101.96,(AMA)
1902,275,FRITCH,HUTCHINSON,TX,35.64,-101.6,HAIL BETWEEN GOLFBALL AND BASEBALL SIZE (AMA)
1902,275,LAKE MEREDITH,MOORE,TX,35.65,-101.66,(AMA)
1918,100,9 SSE MASTERSON,POTTER,TX,35.51,-101.91,(AMA)
1940,100,1 S IOLA,GRIMES,TX,30.76,-96.07,TWITTER REPORT WITH PHOTO. (HGX)
1955,175,4 N STINNETT,HUTCHINSON,TX,35.88,-101.45,(AMA)
2000,100,VALLEY DE ORO,POTTER,TX,35.45,-102.11,(AMA)
2015,150,3 S PRINGLE,HUTCHINSON,TX,35.91,-101.46,(AMA)
2018,100,1 NNE ADAMS,TEXAS,OK,36.76,-101.07,LATE REPORT OF DIME TO QUARTER SIZE HAIL THAT FELL FOR A FEW MINUTES. (AMA)
2020,100,2 E ROYAL PALM BEACH,PALM BEACH,FL,26.71,-80.2,QUARTER SIZED AND SMALLER HAIL AT TARGET IN ROYAL PALM BEACH. (MFL)
2025,175,7 ENE VALLEY DE ORO,POTTER,TX,35.5,-101.99,(AMA)
2034,175,8 SSE WILDORADO,DEAF SMITH,TX,35.11,-102.19,(AMA)
2036,100,7 W DUMAS,MOORE,TX,35.86,-102.09,(AMA)
2057,100,TURPIN,BEAVER,OK,36.86,-100.88,LATE REPORT OF HEAVY RAINFALL AND HAIL UP TO QUARTER SIZE. (AMA)
2059,250,6 NNE BUSHLAND,POTTER,TX,35.27,-102.04,LATE REPORT OF TENNIS BALL SIZE HAIL ALONG HIGHWAY 1061 NORTH OF BUSHLAND. SEVERAL CARS HAD WINDSHIELDS BUSTED OUT. (AMA)
2101,100,3 NNW WAKA,OCHILTREE,TX,36.32,-101.06,LATE REPORT OF HEAVY RAINFALL AND HAIL UP TO QUARTERS. (AMA)
2103,100,5 N OLTON,LAMB,TX,34.25,-102.14,(LUB)
2123,125,FRITCH,HUTCHINSON,TX,35.64,-101.6,QUARTER TO HALF DOLLAR SIZE HAIL NEAR FRITCH. (AMA)
2132,150,14 N FORT STOCKTON,Pecos,TX,31.09,-102.89,ALONG TEXAS HIGHWAY 18 (MAF)
2132,200,7 NNW ANDREWS,Andrews,TX,32.42,-102.59,HIGHWAY 385 AND 1967 (MAF)
2137,100,6 N CANYON,RANDALL,TX,35.06,-101.92,(AMA)
2147,125,ROSE HILL,BUTLER,KS,37.57,-97.13,(ICT)
2148,275,14 N FORT STOCKTON,Pecos,TX,31.09,-102.89,(MAF)
2150,100,E ROPESVILLE,HOCKLEY,TX,33.41,-102.15,(LUB)
2150,175,3 N BORGER,HUTCHINSON,TX,35.71,-101.41,LATE REPORT OF GOLF BALL SIZE HAIL. HAIL DAMAGE INCLUDED BROKEN WINDOWS... DENTED CARS... FENCE DAMAGE AND ROOF DAMAGE. (AMA)
2211,125,6 N BUSHLAND,POTTER,TX,35.28,-102.05,(AMA)
2215,100,4 SSE KERMIT,Winkler,TX,31.8,-103.07,ALONG STATE HWY 18. (MAF)
2216,275,15 N FORT STOCKTON,Pecos,TX,31.11,-102.89,ON FARM TO MARKET 1053 (MAF)
2230,100,15 W ANDREWS,ANDREWS,TX,32.32,-102.81,A FEW QUARTERS AND SMALLER (MAF)
2258,250,SEMINOLE,GAINES,TX,32.72,-102.65,GOLFBALL TO TENNIS BALL SIZE HAIL (MAF)
2304,100,1 ENE BRISCOE,WHEELER,TX,35.59,-100.27,LATE REPORT OF QUARTER SIZE HAIL. (AMA)
2308,200,SEMINOLE,BEXAR,TX,29.46,-98.7,(MAF)
2308,200,SEMINOLE,Gaines,TX,32.72,-102.65,(MAF)
2320,175,6 E WAYSIDE,ARMSTRONG,TX,34.79,-101.44,(AMA)
2330,125,FORT STOCKTON,PECOS,TX,30.89,-102.89,INTERSTATE 10 MILE MARKER 269 (MAF)
2341,125,3 ESE LIPSCOMB,LIPSCOMB,TX,36.22,-100.22,LATE REPORT OF HALF DOLLAR SIZE HAIL. (AMA)
0018,300,13 E FORT STOCKTON,Pecos,TX,30.89,-102.67,(MAF)
0042,100,1 N SHAMROCK,WHEELER,TX,35.23,-100.25,(AMA)
0117,175,2 N ROUND SPRING,SHANNON,MO,37.31,-91.41,QUARTER TO GOLF BALL SIZE HAIL WAS REPORTED. (SGF)
0118,100,KIRKLAND,CHILDRESS,TX,34.39,-100.07,INTENSE QUARTER SIZE HAIL (LUB)
0118,100,REYDON,ROGER MILLS,OK,35.65,-99.92,EM REPORTED IN NWSCHAT. (OUN)
0129,100,3 W ERICK,BECKHAM,OK,35.21,-99.92,REPORTED BY BROADCAST STORMCHASTER. (OUN)
0133,100,10 W VICI,ELLIS,OK,36.15,-99.48,TWITTER PHOTO IN MESSAGES. (OUN)
0153,100,5 WNW AMARILLO,POTTER,TX,35.23,-101.9,(AMA)
0412,100,4 N WATER VALLEY,COKE,TX,31.73,-100.72,(SJT)
0419,100,AUGUSTA,BUTLER,KS,37.69,-96.98,REPORT OF HAIL SLIGHTLY LARGER THAN NICKELS REPORTED IN AUGUSTA. (ICT)
0444,100,1 W ROCKY,WASHITA,OK,35.16,-99.08,REPORT VIA NWSCHAT. TIME IS ESTIMATED BASED ON RADAR. (OUN)
0604,175,COOPERTON,KIOWA,OK,34.86,-98.88,BROADCAST STORM SPOTTER REPORTED. (OUN)
0638,275,13 ENE SONORA,SUTTON,TX,30.62,-100.44,(SJT)
0651,200,1 ESE CARNEGIE,CADDO,OK,35.1,-98.59,REPORTS FROM HAM RADIO... MEDIA BROADCAST... AND SPOTTER REPORTS. (OUN)
0710,100,7 NW FORT COBB,CADDO,OK,35.17,-98.53,EM REPORT IN NWSCHAT (OUN)
0935,100,MERTZON,IRION,TX,31.26,-100.82,(SJT)
1155,200,3 ESE KERRVILLE-SCHREIN,KERR,TX,29.98,-99.09,(EWX)
