Time,F_Scale,Location,County,State,Lat,Lon,Comments
1601,UNK,4 NNW HEARNE,ROBERTSON,TX,30.93,-96.63,TREE DAMAGE REPORTED 4 MILES NNW OF HEARNE (FWD)
1614,UNK,MUMFORD,ROBERTSON,TX,30.73,-96.55,A BRIEF EF0 TORNADO CONFIRMED FROM 3 VIDEOS JUST EAST OF THE TOWN OF MUMFORD TX. NO DAMAGE WAS REPORTED AS THE TRACK STAYED IN OPEN FARMLAND. (FWD)
1615,UNK,FRANKLIN,ROBERTSON,TX,31.03,-96.48,DAMAGE TO SEVERAL HOMES IN FRANKLIN. (FWD)
1633,UNK,TADMOR,HOUSTON,TX,31.43,-95.17,*** 4 INJ *** EF-1 TORNADO DAMAGE WAS FOUND ALONG COUNTY ROAD 1175 WITH TREES SNAPPED AND UPROOTED ALONG A PATH PARALLEL TO THE ROAD. NEAR THE END OF THE PATH... THE TO (HGX)
1650,UNK,1 SW MARQUEZ,LEON,TX,31.22,-96.28,REPORTS OF TREES DOWN ON HWY 79 SW OF MARQUEZ (FWD)
1700,UNK,ALTO,CHEROKEE,TX,31.65,-95.07,POSSIBLE TORNADO WITH 2 HOMES REPORTED DESTROYED. (SHV)
1723,UNK,4 ESE VISTULA,HOUSTON,TX,31.08,-95.58,EF-2 TORNADO PRODUCED INTERMITTENT DAMAGE ALONG ITS TRACK TAKING A METAL ROOF OFF OF A HOME WHERE IT TOUCHED DOWN. THE MOST SEVERE DAMAGE WAS ON THE NORTHEAST END OF TH (HGX)
1756,UNK,2 NE HICKORY CREEK,HOUSTON,TX,31.4,-95.3,*** 1 FATAL *** EF-3 TORNADO TOUCHED DOWN IN HOUSTON COUNTY NORTHEAST OF CROCKETT AND TRACKED FOR 30 MILES ACROSS THE COUNTY LINE THROUGH CHEROKEE COUNTY. THE HOUSTON C (HGX)
1832,UNK,1 N ALTO,CHEROKEE,TX,31.66,-95.07,*** 16 INJ *** SEVERAL STRUCTURES DAMAGED... INCLUDING THE GYM OF ALTO ELEMENTARY SCHOOL. (SHV)
2104,UNK,12 E GILBERT,TENSAS,LA,32.02,-91.46,THIS EF-1 TORNADO TRACKED NORTHEASTWARD FROM ALONG LA 128 ACROSS LA 4... BECKS BAYOU RD... SHACKLEFORD RD... BELL RD... LA 575... LA 888... LA 898... AND US 65 BEFORE L (JAN)
2113,UNK,5 WNW NEWELLTON,TENSAS,LA,32.09,-91.31,THIS EF-1 TORNADO TOUCHED DOWN NEAR SHACKLEFORD ROAD... CROSSING LA 575... CUTOFF ROAD... AND NEAR THE INTERSECTION OF TURN ROW AND US 65. THE TORNADO THEN CROSSED THE (JAN)
2115,UNK,10 WNW NEWELLTON,TENSAS,LA,32.12,-91.39,REPORTS OF POWER LINES DOWN AND SOME SHEET METAL DEBRIS NEAR HIGHWAY 888 BETWEEN NEWELLTON AND GILBERT. TORNADO DEBRIS SIGNATURE ALSO NOTED ON RADAR. LIKELY TORNADO. (JAN)
2135,UNK,8 SW MOUND,MADISON,LA,32.24,-91.1,THIS EF1 TORNADO TOUCHED DOWN RIGHT ALONG OR JUST BEFORE THE LEVEE AND STATE ROUTE 603... UPROOTING QUITE A FEW TREES AND SNAPPING SOME LARGE LIMBS IN THE PATH. SOME LI (JAN)
2140,UNK,1 N MOUND,MADISON,LA,32.35,-91.02,PHOTO OF THE TORNADO REPORTED VIA SOCIAL MEDIA. (JAN)
2157,UNK,1 WNW CULKIN,WARREN,MS,32.37,-90.83,THIS EF-2 TORNADO STARTED WEST OF US 61 ON SHERMAN AVE AND CONTINUED EAST-NORTHEAST PASSING NEAR RIVER REGIONAL HEATH CENTER... CROSSING BRISTER RD... BOY SCOUT RD... O (JAN)
2204,UNK,3 SSW VICKSBURG,WARREN,MS,32.31,-90.89,THIS TORNADO STARTED NEAR THE WALMART OFF OF IOWA BOULEVARD WHERE IT KNOCKED DOWN SOME LARGE LIMBS AND ALSO CAUSED SOME DAMAGE TO SOME PLANTS AND MATERIALS AT WALMART. (JAN)
2300,UNK,1 W DOVER,YAZOO,MS,32.7,-90.35,THIS EF0 TORNADO BEGAN IN A WOODED AREA ABOUT TWO MILES NORTHWEST OF BENTONIA NEAR THE DOVER COMMUNITY. THE TORNADO SNAPPED AND UPROOTED A FEW TREES ALONG A ROUGHLY THR (JAN)
0006,UNK,2 SW CARMACK,ATTALA,MS,33.22,-89.69,A BRIEF EF1 TORNADO BEGAN NEAR THE INTERSECTION OF ATTALA ROADS 3111 AND 3102. NUMEROUS TREES WERE SNAPPED OR UPROOTED ALONG ITS HALF MILE TRACK... AND A POWER POLE WAS (JAN)
0009,UNK,7 E WARSAW,MADISON,LA,32.29,-91.4,THIS WEAK EF0 TORNADO TRACKED THROUGH RURAL PORTIONS OF MADISON PARISH. A TORNADO DEBRIS SIGNATURE WAS NOTED ON RADAR. THIS TORNADO CROSSED QUEBEC ROAD AND TRACKED INTO (JAN)
0035,UNK,1 ESE THOMASTOWN,LEAKE,MS,32.86,-89.65,THIS TORNADO STARTED ON THE HIGHWAY 429 BRIDGE AT THE YOCKANOOKANY RIVER. HERE A NUMBER OF TREES WERE SNAPPED AND UPROOTED. THE TORNADO THEN CONTINUED NORTH-NORTHEAST T (JAN)
0112,UNK,8 W TYLERTOWN,PIKE,MS,31.1,-90.27,DAMAGE PATH ABOUT 150 YARDS WIDE... ABOUT 4.4 MILES LONG. TORNADO BEGAN IN FAR EASTERN PIKE COUNTY ALONG SILVER DRIVE. TORNADO CONTINUED NORTHEAST CROSSING NEW RIVER RO (LIX)
0208,UNK,2 NE SHERWOOD,CHOCTAW,MS,33.51,-89.12,STARTED SOUTH OF CROSSROADS CHURCH RD AND TRACKED NORTHWARD INTO MATHISTON. AT ONE HOME... A TREE DESTROYED A TRUCK AND DAMAGED A SHED. HUNDREDS OF TREES WERE SNAPPED A (JAN)
0226,UNK,3 NNE CUMBERLAND,WEBSTER,MS,33.65,-89.06,A BRIEF EF0 TORNADO STARTED BETWEEN ANTIOCH AND JOHNSON ROADS AND TRAVELED NORTH FOR 0.3 MILES BEFORE ENDING NEAR JOHNSON ROAD. A FEW TREES WERE DAMAGED OR UPROOTED ALO (JAN)
0230,UNK,2 NNW COLLINS,COVINGTON,MS,31.66,-89.57,TREE ON A HOUSE IN COLLINS WITH LIVE POWER LINES DOWN. (JAN)
0239,UNK,4 NW HOT COFFEE,COVINGTON,MS,31.77,-89.51,*** 2 INJ *** THIS EF-1 TORNADO TOUCHED DOWN AT THE INTERSECTION OF BOYD DUCKWORTH AND LILLY VALLEY CHURCH ROADS AND MOVED NORTHEAST CROSSING DECAR PAGE DR... AND GILME (JAN)
0245,UNK,5 NW HOT COFFEE,SMITH,MS,31.8,-89.51,TREES WERE DOWN ON COUNTY ROAD 18... AND A SHED WAS DESTROYED. PICTURES RELAYED VIA SOCIAL MEDIA. (JAN)
0255,UNK,3 N BETHEDEN,WINSTON,MS,33.26,-88.95,AN EF2 TORNADO STARTED SOUTH OF MS HIGHWAY 25 NEAR THE WINSTON AND OKTIBBEHA COUNTY LINE. NUMEROUS TREES WERE SNAPPED AND UPROOTED AS THE TORNADO TRACKED NORTHEAST... I (JAN)
0318,UNK,3 SSE STARKVILLE,OKTIBBEHA,MS,33.41,-88.8,AN EF1 TORNADO STARTED NEAR POOR HOUSE ROAD ON THE MSU PROPERTY. NUMEROUS TREES WERE SNAPPED AND UPROOTED AS IT MOVED NORTHEAST TOWARD AND THROUGH THE HILLBROOK SUBDIVI (JAN)
0325,UNK,1 SW CLAYTON VILLAGE,OKTIBBEHA,MS,33.46,-88.77,SNAPPED TREES ON BARDWELL RD. (JAN)
0404,UNK,3 NNE BETHEDEN,WINSTON,MS,33.26,-88.92,REPORTS OF STRUCTURAL DAMAGE AND TREES DOWN ON PETERSON CIRCLE... NORTH OF HWY 25. (JAN)
0407,UNK,9 SE ABERDEEN,MONROE,MS,33.74,-88.44,*** 1 FATAL... 3 INJ *** MULTIPLE HOMES DAMAGED AND MULTIPLE INJURIES IN THE TOWN OF HAMILTON. AT LEAST ONE FATALITY WITH SEARCH AND RESCUE OPERATIONS CONTINUING. (MEG)
0419,UNK,4 WSW PORTERVILLE,KEMPER,MS,32.67,-88.55,THIS EF2 TORNADO STARTED ALONG FIRETOWER RD WEST OF US HIGHWAY 45 AND MOVED NORTHEAST... SNAPPING OR UPROOTING NUMEROUS TREES ALONG ITS TRACK. FALLING TREES AND BRANCHE (JAN)
0436,UNK,7 SE VOSSBURG,CLARKE,MS,31.85,-88.87,THIS EF-1 TORNADO BEGAN ALONG CR 222 IN SW CLARKE COUNTY. IT MOVED NORTHEAST ACROSS BEAVERDAM CREEK... ALONG CR 210... AND LIFTING JUST ACROSS CR 250. ALONG THE PATH... (JAN)
0443,UNK,4 S HARMONY,CLARKE,MS,31.93,-88.81,TREES WERE BLOWN DOWN ON COUNTY ROAD 250. TORNADO DEBRIS SIGNATURE ALSO NOTED ON RADAR. (JAN)
0448,UNK,4 SSE HARMONY,CLARKE,MS,31.94,-88.79,THIS EF1 TORNADO BEGAN AROUND CR 273... WHERE SEVERAL TREES WERE UPROOTED AND BLOCKED THE ROAD. ONE HOME HAD MINOR SHINGLE DAMAGE. THE TORNADO CONTINUED TO THE NNE AND (JAN)
0455,UNK,1 SSE QUITMAN,CLARKE,MS,32.02,-88.71,THIS EF2 TORNADO TOUCHED DOWN ON THE SOUTH EDGE OF THE ARCHUSA CREEK WATER PARK ALONG RIDGEWOOD ROAD. IT THEN CROSSED A PORTION OF QUITMAN COUNTRY CLUB GOLF COURSE... T (JAN)
0456,UNK,2 SSW SHOTTSVILLE,MARION,AL,34.24,-88.14,PATH WIDTH WAS 440 YARDS. PATH LENGTH WAS 1.21 MILES. MAX WINDS WERE 90 MPH. DAMAGE CONSISTED MAINLY OF UPROOTED TREES ALONG WITH SOME DAMAGE TO AN OUTBUILDING. (BMX)
0514,UNK,5 ENE RED BAY,FRANKLIN,AL,34.46,-88.06,EF1 WITH PEAK WIND OF 100 MPH... PATH LENGTH OF 6.31 MILES... AND PATH WIDTH UP TO 80 YARDS. (HUN)
0622,UNK,1 NE GALLION,HALE,AL,32.51,-87.7,MAX WIDTH WAS 220 YARDS. PATH LENGTH WAS 8.72 MILES. MAX WINDS WERE 80 MPH. DAMAGE CONSISTED OF A KNOCKED OVER A TRAILER... DAMAGE TO 3 SHEDS... SHINGLE/SIDING DAMAGE T (BMX)
0627,UNK,1 NE GALLION,HALE,AL,32.51,-87.7,CORRECTS FOR START TIME. MAX WIDTH WAS 220 YARDS. PATH LENGTH WAS 8.72 MILES. MAX WINDS WERE 80 MPH. DAMAGE CONSISTED OF A KNOCKED OVER A TRAILER... DAMAGE TO 3 SHEDS.. (BMX)
0635,UNK,5 WSW LEIGHTON,COLBERT,AL,34.67,-87.61,EF-1 WITH PEAK WIND OF 100 MPH... PATH LENGTH OF 1.1 MILES... AND PATH WIDTH UP TO 70 YARDS. (HUN)
0720,UNK,2 SSW HAGLER,TUSCALOOSA,AL,33.01,-87.36,PATH WIDTH WAS 475 YARDS. PATH LENGTH WAS 3.51 MILES. MAX WINDS WERE 105 MPH. DAMAGE MANY CONSISTED OF SNAPPED AND UPROOTED TREES. A ROOF WAS REMOVED FROM A SMALL BARN. (BMX)
0741,UNK,HAGLER,TUSCALOOSA,AL,33.03,-87.34,TREES AND POWERLINES DOWN NEAR HAGLER VFD. POSSIBLE STRUCTURAL DAMAGE. (BMX)
0750,UNK,2 NNW ESCATAWPA,JACKSON,MS,30.52,-88.56,SCATTERED TREE AND ROOF DAMAGE ALONG WITH SOME MINOR STRUCTURAL DAMAGE ALONG RIVERLODGE AND PRESCOTT ROADS. ADDITIONAL TREE AND ROOF DAMAGE ON WINDROW AND KIMBERLY CIRC (LIX)
0755,UNK,1 NE ESCATAWPA,JACKSON,MS,30.5,-88.54,RADAR INDICATED LIKELY TORNADO NEAR THE CROSSROADS OF WILDWOOD RD AND HIGHWAY 63 NORTH OF ESCATAWPA... MS. REPORTS FROM LAW ENFORCEMENT OF MULTIPLE HOMES DAMAGED. (LIX)
0821,UNK,3 ENE SPROTT,PERRY,AL,32.69,-87.16,PATH WIDTH WAS 400 YARDS. PATH LENGTH WAS 6.67 MILES. MAX WINDS WERE 80 MPH. DAMAGE CONSISTED OF MANY SNAPPED AND UPROOTED TREES... DAMAGE TO A FARM SHED... ALONG WITH (BMX)
0905,UNK,1 SE OAK MOUNTAIN LAKE,SHELBY,AL,33.35,-86.69,A NWS SURVEY TEAM HAS DETERMINED DAMAGE IN THE AREA WAS CAUSED BY AN EF-0 WITH MAXIMUM WIND SPEEDS OF AROUND 75 MPH. SPORADIC TREE DAMAGE AND MINOR ROOF DAMAGE OCCURRED (BMX)
0911,UNK,1 SE GREYSTONE,SHELBY,AL,33.42,-86.64,TREES DOWN... BLOCKING HUGH DANIEL DR NEAR GREYSTONE FARMS. TREES DOWN ON MILNER WAY IN GREYSTONE FARMS. ASSOCIATED WITH TDS FROM KBMX. (BMX)
0913,UNK,2 WNW CALERA,SHELBY,AL,33.11,-86.79,THE PATH WIDTH WAS 125 YARDS. THE LENGTH WAS 2.97 MILES. THE MAX WIND WAS 76 MPH. DAMAGE CONSISTED OF SOME UPROOTED TREES... SEVERAL DOWNED FENCES... AND A FEW STRUCTUR (BMX)
0916,UNK,LAKE PURDY AT GRANTS MI,JEFFERSON,AL,33.48,-86.63,TREE DOWN ON GRANTS MILL RD NEAR LAKE PURDY. ASSOCIATED WITH TDS FROM KBMX. (BMX)
1125,UNK,1 NNE GLENCOE,ETOWAH,AL,33.98,-85.93,A NWS SURVEY TEAM HAS DETERMINED DAMAGE IN GLENCOE WAS CAUSED BY AN EF1 TORNADO... WITH A PATH LENGTH OF 2.55 MILES AND A WIDTH OF 100 YARDS. THE MOST SIGNIFICANT DAMAG (BMX)
1150,UNK,3 W HENDERSON,PIKE,AL,31.66,-86.13,A NWS SURVEY TEAM INVESTIGATED A TDS AND DETERMINED AN EF-0 TORNADO TOUCHED DOWN NEAR PIKE COUNTY RD 2243. THE PATH LENGTH OF 1 MILE AND WIDTH OF 150 YARDS WERE ESTIMAT (BMX)
1153,UNK,3 N GLENWOOD,CRENSHAW,AL,31.71,-86.17,THE EF-0 TORNADO FORMED WEST OF GOSHEN... AL NEAR THE INTERSECTION OF JONES BRIDGE RD AND ATHENS CHURCH RD WHERE IT UPROOTED TREES AND TORE THE ROOF OFF OF A CHICKEN BA (MOB)
1157,UNK,1 W GOSHEN,PIKE,AL,31.72,-86.15,A NWS SURVEY TEAM HAS DETERMINED DAMAGE IN THE AREA WAS CAUSED BY AN EF-0 WITH MAXIMUM WIND SPEEDS OF AROUND 70 MPH. DAMAGE IN PIKE COUNTY WAS MAINLY TREE DAMAGE... HOW (BMX)
Time,Speed,Location,County,State,Lat,Lon,Comments
1201,UNK,5 S GASSOWAY,EAST CARROLL,LA,32.92,-91.23,A FEW TREES AND POWER POLES WERE BLOWN DOWN AROUND THE SHELBURN AREA. (JAN)
1208,UNK,JUNCTION CITY,UNION,AR,33.03,-92.72,TREES REPORTED DOWN OVER SOUTHWESTERN AND SOUTH CENTRAL PARTS OF THE COUNTY. (SHV)
1214,UNK,1 NNE BERNICE,UNION,LA,32.84,-92.65,TREES REPORTED DOWN ON PISGAH CHURCH ROAD. (SHV)
1430,UNK,2 W GREY FOREST,BEXAR,TX,29.61,-98.72,REPORT OF KNOCKED DOWN FENCES AND TREE LIMBS. (EWX)
1550,UNK,JOURDANTON,ATASCOSA,TX,28.92,-98.55,SOCIAL MEDIA VIDEO OF LIMBS BREAKING IN ESTIMATED WINDS IN EXCESS OF 60 MPH. (EWX)
1610,UNK,6 S SHREVEPORT,CADDO,LA,32.39,-93.78,TREE ON HOME ON KINGSTON ROAD BETWEEN WILLIAMSON WAY AND FLOURNOY LUCAS. (SHV)
1620,UNK,4 SW FRANKLIN,ROBERTSON,TX,30.99,-96.53,FRANKLIN SAFARI ANIMAL PARK SUFFERED DAMAGE TO FENCES WITH ANIMAL HOUSES DESTROYED. (FWD)
1625,UNK,1 W KENNARD,HOUSTON,TX,31.36,-95.2,MULTIPLE TREES DOWN ON THE WEST SIDE OF KENNARD. (HGX)
1627,UNK,5 S SHREVEPORT,CADDO,LA,32.4,-93.8,DOWNED TREES IN SOUTHERN HILLS NEIGHBORHOOD. (SHV)
1636,UNK,RIDGE,ROBERTSON,TX,31.15,-96.32,MULTIPLE TREES DOWN ON US 79 E OF FRANKLIN TO THE ROBERTSON/LEON CO LINE. TRAFFIC BLOCKED IN BOTH DIRECTIONS. (FWD)
1637,UNK,1 S BERGSTROM INTERNATI,TRAVIS,TX,30.19,-97.67,METAR REPORT OF 1/4 INCH HAIL AT BERGSTROM AIRPORT. (EWX)
1640,UNK,RATCLIFF,HOUSTON,TX,31.39,-95.14,POWERLINES DOWN NEAR RATCLIFF. (HGX)
1657,UNK,ALTO,CHEROKEE,TX,31.65,-95.07,2 HOMES DAMAGED IN DOWNTOWN ALTO. (SHV)
1657,UNK,7 NE ABERDEEN,MONROE,MS,33.9,-88.47,ROOF BLOWN OFF A HOUSE. (MEG)
1712,UNK,GROESBECK,LIMESTONE,TX,31.53,-96.52,CARPORT BLOWN DOWN... AS WELL AS A ROOF COLLAPSE TO A METAL BUILDING IN GROESBECK. (FWD)
1712,UNK,10 N CORSICANA,NAVARRO,TX,32.24,-96.47,SEVERAL TREES BLOWN DOWN ACROSS SEVERAL AREAS ACROSS THE NORTHERN PART OF THE COUNTY. (FWD)
1726,UNK,5 WNW LOVELADY,HOUSTON,TX,31.15,-95.52,TREES AND POWERLINES DOWN ON FM 3151 WEST-NORTHWEST OF LOVELADY. TIME ESTIMATED. (HGX)
1728,UNK,BRYAN,BRAZOS,TX,30.67,-96.37,LARGE TREE LIMB DOWN. (HGX)
1740,UNK,CROSS,GRIMES,TX,30.81,-96.1,TREES SNAPPED. (HGX)
1750,UNK,5 N GROESBECK,LIMESTONE,TX,31.6,-96.52,SMALL TREES 6-8" IN DIAMETER BLOWN DOWN FORT PARKER AREA NORTH OF GROESBECK. (FWD)
1755,UNK,RAYVILLE,RICHLAND,LA,32.48,-91.76,LAW ENFORCEMENT REPORTED TWO LARGE TREES DOWN... ONE FROM LIGHTNING... ONE WIND BLOWN. (JAN)
1757,UNK,CORSICANA,NAVARRO,TX,32.1,-96.47,4-6" DIAMETER TREES SNAPPED. (FWD)
1804,UNK,2 W KENNARD,HOUSTON,TX,31.36,-95.22,TREES DOWN WEST OF KENNARD ON SH7. (HGX)
1805,UNK,5 N NEW LONDON,RUSK,TX,32.34,-94.93,TREES DOWN ACROSS STATE HWY 42 NEAR THE INTERSECTION OF COUNTY ROAD 142D IN NW RUSK COUNTY BETWEEN THE LAIRD HILL AND LEVERETTS CHAPEL COMMUNITIES. (SHV)
1812,UNK,ELKHART,ANDERSON,TX,31.62,-95.58,LARGE TREE DOWN ON CR 184 JUST OFF OFF HWY 287 IN ELKHART. (FWD)
1835,UNK,TRINITY,TRINITY,TX,30.94,-95.37,NUMEROUS REPORTS OF TREES DOWN... POWERLINES DOWN AND A TREE ON A HOME IN TRINITY. TIME ESTIMATED. (HGX)
1845,UNK,5 E RATCLIFF,HOUSTON,TX,31.39,-95.05,SWATH OF TREES DOWN BLOCKING STATE HIGHWAY 7 NEARLY A MILE WIDE. DAMAGE EXTENDS TO THE NECHES RIVER. TRAFFIC CAN'T GET THROUGH AND SOME VEHICLES ARE STUCK BETWEEN AREAS (HGX)
1850,UNK,3 E TENNESSEE COLONY,ANDERSON,TX,31.83,-95.8,TREES DOWN ON FM 315 ELMWOOD AREA... AND ALONG 84E NEAR CR 391... WHERE A TREE WAS ACROSS THE ROAD. (FWD)
1851,UNK,12 E PALESTINE,ANDERSON,TX,31.75,-95.43,TREE ACROSS THE ROAD ON 84(EAST) NEAR CR 391. (FWD)
1851,UNK,ELMWOOD,ANDERSON,TX,31.92,-95.63,TREES DOWN ON FM 315. (FWD)
1857,UNK,2 ESE FARMERVILLE,UNION,LA,32.76,-92.37,POWER LINES AND TREES DOWN AT THE INTERSECTION OF DEAN ROAD AND LOUISIANA STATE HWY 2. (SHV)
1900,UNK,10 N CORSICANA,NAVARRO,TX,32.24,-96.47,SEVERAL TREES DOWN ACROSS THE NORTHERN PART OF THE COUNTY. (FWD)
1905,UNK,5 ESE WELLS,ANGELINA,TX,31.45,-94.87,KTRE-TV WEATHER WATCHER REPORTS PARTS OF A METAL ROOF TAKEN OFF A HOME IN THE POLLOK COMMUNITY. TREE LIMBS EVERYWHERE FROM THE STRONG WINDS. (SHV)
1905,UNK,2 NNE GLEN ALPINE,BURKE,NC,35.76,-81.76,911 CALL CENTER REPORTED TREES DOWN AT 1377 NC-126 IN MORGANTON. TIME ESTIMATED FROM RADAR. (GSP)
1915,UNK,LUFKIN,ANGELINA,TX,31.33,-94.73,FOREST SERVICE EMPLOYEE REPORTS THUNDERSTORM WIND DAMAGE ON THE SOUTH SIDE OF LUFKIN. A TREE WAS SNAPPED OFF AT TOP AND IT DAMAGED A ROOF. OTHER LIMBS DOWN IN THE AREA. (SHV)
1915,UNK,3 ESE CUSHING,NACOGDOCHES,TX,31.8,-94.79,TREES DOWN... POSSIBLE TORNADO. (SHV)
1920,UNK,11 E ALTO,NACOGDOCHES,TX,31.64,-94.89,TREE DOWN ACROSS ROUTE 225. (SHV)
1920,UNK,1 SSW DREXEL,BURKE,NC,35.75,-81.62,911 CALL CENTER REPORTED TREES DOWN ON 487 MOUNTAIN VIEW DR. TIME ESTIMATED FROM RADAR. (GSP)
1935,UNK,7 ESE COLFAX,GRANT,LA,31.47,-92.59,TREES DOWN ACROSS MUCH OF THE SOUTHWESTERN PORTION OF THE PARISH. (SHV)
1950,UNK,3 NNW TIMPSON,SHELBY,TX,31.95,-94.42,TREES DOWN NEAR THE PANOLA-SHELBY COUNTY LINE. (SHV)
2005,UNK,7 ESE CENTER,SHELBY,TX,31.76,-94.07,TREES DOWN. (SHV)
2015,UNK,5 SE RHINEHART,CATAHOULA,LA,31.59,-91.94,STRUCTURAL DAMAGE... TREES ACROSS ROADS... AND POWER LINES DOWN. (JAN)
2015,UNK,1 NNW RAYVILLE,RICHLAND,LA,32.48,-91.76,A COUPLE OF TREES DOWN. (JAN)
2015,UNK,MONROE,OUACHITA,LA,32.52,-92.09,TREE UPROOTED AND FELL ON A HOME IN THE GARDEN DISTRICT. (SHV)
2015,UNK,3 SSE GOODWILL,WEST CARROLL,LA,32.74,-91.55,CORRECTS TIME AND LOCATION OF PREVIOUS TSTM WND DMG REPORT FROM 1 E FISKE UNION TO MORNING STORM. TREES WERE DOWNED ALONG PATH OF STORM BUT MOST DAMAGE WAS NEAR FOREST. (JAN)
2015,UNK,1 E FISKE UNION,WEST CARROLL,LA,32.89,-91.48,TREES DOWN ALL OVER PARISH PER EM. (JAN)
2019,UNK,2 SE BEEKMAN,MOREHOUSE,LA,32.91,-91.86,SOCIAL MEDIA REPORT OF SEVERAL TREES DOWN ALONG HWY 425 BETWEEN BASTROP AND THE STATE LINE. (JAN)
2026,UNK,1 SE CONVERSE,SABINE,LA,31.78,-93.69,SEVERAL TREES AND POWER LINES DOWN. (SHV)
2030,UNK,1 SSW PINELAND,SABINE,TX,31.23,-93.98,TREES DOWN. (SHV)
2040,UNK,1 NE HEMPHILL,SABINE,TX,31.35,-93.84,TREES DOWN. (SHV)
2040,UNK,13 NW COLUMBIA,CALDWELL,LA,32.22,-92.24,TREES DOWN. (SHV)
2055,UNK,15 E STONEWALL,RED RIVER,LA,32.23,-93.56,TREES DOWN. (SHV)
2100,UNK,FISHER,SABINE,LA,31.5,-93.46,NUMEROUS HOUSES DAMAGED TREES AND POWER LINES DOWN ACROSS THE CITY. (SHV)
2100,UNK,1 NW LAKE VILLAGE,CHICOT,AR,33.33,-91.29,LARGE OAK TREE ON HOUSE. POWER POLES ALSO DOWN. (JAN)
2110,UNK,1 SSE LEESVILLE,VERNON,LA,31.13,-93.27,THUNDERSTORM WIND DAMAGE TO STORAGE BUILDING AND POLES SNAPPED. (LCH)
2110,UNK,3 ESE FOREST,WEST CARROLL,LA,32.77,-91.37,SOCIAL MEDIA REPORT OF A TREE DOWN ALONG HWY 582 EAST OF FOREST. (JAN)
2119,UNK,3 SSW RICHMOND,MADISON,LA,32.35,-91.21,POWER POLES DOWN 3 MILES SSW OF RICHMOND... LA. (JAN)
2121,UNK,3 N NEWELLTON,TENSAS,LA,32.12,-91.24,CORRECTS PREVIOUS TSTM WND DMG REPORT FROM 7 N NEWELLTON. MULTIPLE POWER POLES BROKEN OFF AT THE GROUND ALONG US HIGHWAY 65 JUST SOUTH OF MS HIGHWAY 888. (JAN)
2122,UNK,6 NNW LAKE PROVIDENCE,EAST CARROLL,LA,32.89,-91.23,SOCIAL MEDIA REPORT OF SEVERAL TREES DOWN ALONG HWY 65 SEVERAL MILES NORTH OF LAKE PROVIDENCE. (JAN)
2124,UNK,2 NW TRANSYLVANIA,EAST CARROLL,LA,32.7,-91.21,AN STANDALONE WORKSHOP OR SHED BUILDING WAS DESTROYED AROUND THE TRANSYLVANIA AREA. (JAN)
2200,UNK,METAIRIE,JEFFERSON,LA,30,-90.18,TREE BLOW DOWN IN METAIRIE (LIX)
2204,UNK,3 SSW VICKSBURG,WARREN,MS,32.31,-90.9,CORRECTS PREVIOUS TSTM WND DMG REPORT FROM 3 SSW VICKSBURG. WARRENTON ROAD WAS BLOCKED BY DOWNED TREES. (JAN)
2208,UNK,3 E DELTA CITY,SHARKEY,MS,33.07,-90.74,SOCIAL MEDIA REPORT OF A TREE DOWN IN THE VICINITY OF HWY 434 EAST OF NITTA YUMA. (JAN)
2221,UNK,3 S VICKSBURG,WARREN,MS,32.31,-90.88,ROOF OVER KROGER AND UPS STORE KNOCKED OVER... CARS DESTROYED BY KROGER AND POWER POLES DOWN. (JAN)
2243,UNK,3 ESE PHOENIX,YAZOO,MS,32.57,-90.52,DAMAGE ON HEBRON CHURCH RD. (JAN)
2251,UNK,1 W BEECHWOOD,WARREN,MS,32.33,-90.83,TREE AND POWER LINE DOWN ON LEE ROAD. (JAN)
2303,UNK,2 E MECHANICSBURG,YAZOO,MS,32.64,-90.48,DOWNED TREE BLOCKING HWY 433... REPORTED VIA SPOTTER VIDEO. (JAN)
2318,UNK,FLORA,MADISON,MS,32.54,-90.31,ROOF WAS RIPPED OFF A STORAGE SHED AND BIG PINE TREES WERE BLOWN DOWN. DAMAGE ALSO OCCURRED TO THE CHEVRON. A TREE ALSO FELL ONTO A HOUSE WITH POSSIBLE INJURIES. (JAN)
2333,UNK,2 W CAMERON,MADISON,MS,32.84,-89.92,SOCIAL MEDIA REPORT OF SEVERAL TREES DOWN ALONG HWY 17 SOUTHEAST OF PICKENS. (JAN)
2349,UNK,5 S WASHINGTON,ADAMS,MS,31.51,-91.3,TWO TREES DOWN ON LIBERTY RD. NEAR SPRINGFIELD RD. (JAN)
2352,UNK,5 NNW CANTON,MADISON,MS,32.69,-90.05,TREE DOWN COVERING SE BOUND LANES OF MS HWY 16. (JAN)
0015,UNK,7 W TYLERTOWN,WALTHALL,MS,31.12,-90.25,OFFICIALS EN ROUTE TO ASSESS STORM DAMAGE ON 24 NEW RIVER RD NEAR THE BOGUE CHITTO RIVER. POSSIBLE TORNADO (LIX)
0018,UNK,3 WSW CARMACK,ATTALA,MS,33.22,-89.71,TREES SNAPPED ALONG CR 3102...WIDESPREAD TREE DAMAGE. (JAN)
0022,UNK,3 SE CAMDEN,MADISON,MS,32.75,-89.79,SOCIAL MEDIA REPORT OF SEVERAL TREES DOWN ALONG HWY 43. (JAN)
0028,UNK,CRYSTAL SPRINGS,COPIAH,MS,31.99,-90.36,SOCIAL MEDIA REPORT OF SEVERAL TREES DOWN IN CRYSTAL SPRINGS. (JAN)
0030,UNK,1 SE TERRY,HINDS,MS,32.1,-90.29,SOCIAL MEDIA REPORT OF TREES DOWN IN TERRY. (JAN)
0034,UNK,2 SSE RICHLAND,RANKIN,MS,32.21,-90.16,CORRECTS REPORT TYPE FROM 2 SSE RICHLAND. SOCIAL MEDIA REPORT OF A TREE DOWN ACROSS POWER LINES IN RICHLAND. (JAN)
0034,UNK,1 SW LE FLEURS BLUFF,HINDS,MS,32.32,-90.17,PICTURE OF A LARGE TREE DOWN IN THE BELHAVEN AREA. (JAN)
0035,UNK,1 WSW PINNACLE,STOKES,NC,36.33,-80.41,POWER LINE DOWN ON BOWEN ROAD IN KING. (RNK)
0043,UNK,2 NNE BRANDON,RANKIN,MS,32.31,-89.98,TREE DOWN ON LINDSAY RD. (JAN)
0100,UNK,5 N BRANDON,RANKIN,MS,32.34,-89.97,TREE ON A HOUSE NEAR THE LANGFORD WATER TOWER ON HWY 471. (JAN)
0111,UNK,1 ENE BROWNSVILLE,HINDS,MS,32.45,-90.42,TREE ON A HOUSE REPORTED IN THE BROWNSVILLE COMMUNITY. (JAN)
0135,UNK,MCCOOL,ATTALA,MS,33.2,-89.34,SOCIAL MEDIA REPORT OF TREES DOWN IN MCCOOL. (JAN)
0143,UNK,MENDENHALL,SIMPSON,MS,31.96,-89.87,SOCIAL MEDIA REPORT OF TREES DOWN IN MENDENHALL. (JAN)
0144,UNK,4 N SOCIETY HALL,JEFFERSON DAVIS,MS,31.47,-89.89,NUMEROUS TREES DOWN ALONG HIGHWAY 13 NORTH AND SOUTH. (JAN)
0200,UNK,MAGEE,SIMPSON,MS,31.87,-89.73,SOCIAL MEDIA REPORT OF TREES DOWN IN MAGEE. (JAN)
0205,UNK,2 NE SHERWOOD,CHOCTAW,MS,33.51,-89.11,SEVERAL TREES DOWN ACROSS THE ROAD. NEAR CROSSROADS AND REED. (JAN)
0206,UNK,3 NE PRENTISS,JEFFERSON DAVIS,MS,31.62,-89.83,TREES AND POWER LINES DOWN ALONG HALL LANE. (JAN)
0224,UNK,3 WNW COLLINS,COVINGTON,MS,31.65,-89.61,A TREE WAS BLOWN DOWN ONTO A HOUSE AND POWER LINES WERE BLOWN DOWN ON OLD MCINTOSH ROAD. (JAN)
0244,UNK,2 SSW ARLINGTON,NESHOBA,MS,32.85,-89.18,A TREE WAS BLOWN DOWN AND BLOCKED COUNTY ROAD 602. (JAN)
0250,UNK,4 NNW SUMRALL,COVINGTON,MS,31.48,-89.56,TREES WERE BLOWN DOWN ALONG DAUGHTRY HOLBROOK ROAD... SEMINARY SUMRALL ROAD AND ROCK HILL CHURCH ROAD. (JAN)
0255,UNK,CRAIG SPRINGS,OKTIBBEHA,MS,33.32,-88.92,TREE FELL ON A HOUSE. SEVERAL TREES DOWN. (JAN)
0300,UNK,2 NW BAY SPRINGS,JASPER,MS,32,-89.31,A TREE WAS BLOWN DOWN AND POWER LINES WERE BLOWN DOWN ACROSS THE FRONT OF A HOUSE ON COUNTY ROAD 182A. (JAN)
0300,UNK,1 N PHEBA,CLAY,MS,33.59,-88.95,TREE ON A HOUSE. (JAN)
0313,UNK,3 NW HOPEWELL,COVINGTON,MS,31.75,-89.5,TREE DOWN AT INTERSECTION OF HWY 532 AND SALEM SCHOOL RD. (JAN)
0313,UNK,2 SSW CLAYTON VILLAGE,OKTIBBEHA,MS,33.45,-88.77,TREES AND POWER LINES DOWN. (JAN)
0319,UNK,SOSO,JONES,MS,31.76,-89.27,SOCIAL MEDIA REPORT OF TREES DOWN IN SOSO. (JAN)
0324,UNK,3 NNW QUITMAN,CLARKE,MS,32.08,-88.74,TREE DOWN ON ROAD. (JAN)
0325,UNK,4 NNE SUMRALL,COVINGTON,MS,31.48,-89.52,TREE DOWN. (JAN)
0334,UNK,2 NE MORGANTOWN,OKTIBBEHA,MS,33.33,-88.98,TREE REPORTED DOWN. (JAN)
0334,UNK,2 E STARKVILLE,OKTIBBEHA,MS,33.45,-88.78,DEBRIS ON BLACKJACK ROAD. (JAN)
0340,UNK,1 SSW LOST GAP,LAUDERDALE,MS,32.34,-88.78,THREE TREES SNAPPED ALONG INTERSTATE 20 EAST BETWEEN EXIT 129 AND THE ON-RAMP TO INTERSTATE 20/59 SOUTH. (JAN)
0357,UNK,2 ESE STARKVILLE,OKTIBBEHA,MS,33.43,-88.78,A TREE WAS DOWN ON A HOUSE IN THE HILLBROOK SUBDIVISION. (JAN)
0415,UNK,TUPELO,LEE,MS,34.26,-88.73,A FEW TREES DOWN ON LAKESHORE DRIVE IN TUPELO. (MEG)
0421,UNK,4 WSW PORTERVILLE,KEMPER,MS,32.66,-88.54,NUMEROUS TREES SNAPPED. POSSIBLE TORNADO. (JAN)
0438,UNK,6 SE VOSSBURG,CLARKE,MS,31.87,-88.87,TREES WERE BLOWN DOWN ON COUNTY ROAD 210 AND 216. POSSIBLE TORNADO. (JAN)
0445,UNK,2 SSE DIXIE,FORREST,MS,31.19,-89.28,TREES DOWN IN PETAL NEAR OLLIE WILLIAMS ROAD AND PORTER LANE. (JAN)
0450,UNK,AMORY,MONROE,MS,33.99,-88.48,MINOR HOME DAMAGE. A TIN AWNING WAS BENT BACKWARDS. (MEG)
0452,UNK,2 N QUITMAN,CLARKE,MS,32.07,-88.72,MULTIPLE TREES WERE BLOWN DOWN ON COUNTY ROAD 140. (JAN)
0503,UNK,SHOTTSVILLE,MARION,AL,34.26,-88.13,MULTIPLE TREES SNAPPED IN THE SHOTTSVILLE COMMUNITY. (BMX)
0507,UNK,2 NNE HODGES,FRANKLIN,AL,34.35,-87.92,TREES DOWN ON HIGHWAY 187 NORTH OF HODGES. TIME ESTIMATED FROM RADAR. (HUN)
0525,UNK,7 NNE RED BAY,FRANKLIN,AL,34.52,-88.08,POSSIBLE TORNADO DAMAGE IN THE PIKE BRANCH AREA. RADAR ESTIMATED FROM TDS SIGNATURE ON RADAR. (HUN)
0526,UNK,4 SSE EUCUTTA,WAYNE,MS,31.75,-88.85,TREES DOWN ALONG EUCUTTA ROAD WITH ONE TREE FALLING ON A MOBILE HOME. TIME ESTIMATED BY RADAR. (MOB)
0526,UNK,6 NW GATTMAN,MONROE,MS,33.96,-88.3,LARGE TREES DOWN IN THE SPLUNGE COMMUNITY NEAR LANN CEMETERY RD. (MEG)
0530,UNK,11 SW CHEROKEE,COLBERT,AL,34.63,-88.08,SEVERAL TREES DOWN ON MAUDE ROAD. (HUN)
0543,UNK,4 NNW UNIVERSITY OF WES,SUMTER,AL,32.65,-88.2,TREES DOWN ON I-20 NEAR MM 12. TIME ESTIMATED BY RADAR. (BMX)
0605,UNK,WAYNESBORO,WAYNE,MS,31.67,-88.63,FEW TREES DOWN IN WAYNESBORO NEAR PATTON CREEK PARKWAY AND ALONG HIGHWAY 145. (MOB)
0614,UNK,BENNDALE,GEORGE,MS,30.87,-88.81,TREES DOWN OVER THE ROADWAY IN BENNDALE. TIME ESTIMATED BY RADAR. (MOB)
0627,UNK,1 NE GALLION,HALE,AL,32.51,-87.7,SEVERAL TREES DOWN AND DAMAGE TO A BARN ON GALLION RD. DAMAGE ALSO CONFIRMED BY SPOTTER. (BMX)
0628,UNK,4 NNE LITTLEVILLE,COLBERT,AL,34.65,-87.64,NUMEROUS DAMAGE REPORTS REPORTED IN THE SPRINGS VALLEY COMMUNITY. THIS DAMAGE INCLUDED A POWER POLE DOWN ON HWY 20 AND JACKSON HIGHWAY AND ALSO ON BLAKE DRIVE. (HUN)
0645,UNK,1 ESE MOUNT VERNON,FAIRFAX,VA,38.71,-77.1,TREE DOWN NEAR INTERSECTION OF OLD MILL RD AND OLD MT. VERNON RD (LWX)
0655,UNK,SHIPMAN,GEORGE,MS,30.86,-88.49,TREES DOWN OVER ROADWAY IN SHIPMAN. TIME ESTIMATED BY RADAR. (MOB)
0707,UNK,4 E KILLEN,LAUDERDALE,AL,34.85,-87.45,A TREE WAS REPORTED DOWN AT 1206 CR 107. (HUN)
0725,UNK,4 E KILLEN,LAUDERDALE,AL,34.86,-87.45,TWO TREES WERE REPORTED DOWN ON CR 227. (HUN)
0733,UNK,5 ENE MOULTON,LAWRENCE,AL,34.5,-87.19,TWO TREES REPORTED DOWN AT 416 CR 227. (HUN)
0734,UNK,4 SE RUSSELLVILLE,FRANKLIN,AL,34.46,-87.68,HIGH WATER RESCUE WAS NEEDED DUE TO FLASH FLOODING AT THE INTERSECTION OF CR 144 AND CR 244. (HUN)
0740,UNK,4 ESE LESTER,LIMESTONE,AL,34.96,-87.08,TREE WAS REPORTED SNAPPED AT THIS LOCATION. (HUN)
0751,UNK,5 N UNDERWOOD-PETERSVIL,LAUDERDALE,AL,34.95,-87.69,TREES DOWN ON CR 8 AND PARSONAGE CEMETERY ROAD. OTHER TREES DOWN ON CR 52 BLOCKING BOTH LANES. (HUN)
0753,UNK,10 SSE CHEROKEE,COLBERT,AL,34.63,-87.9,A TREE WAS REPORTED DOWN ON JONES ROAD NEAR HIGHWAY 247. (HUN)
0755,UNK,2 SSW MERCEDES-BENZ US,TUSCALOOSA,AL,33.15,-87.27,TREES DOWN ON WIRE RD BETWEEN VANCE AND COALING. (BMX)
0804,UNK,6 NW WEST POINT,CULLMAN,AL,34.31,-87.01,TWO TREES WERE REPORTED DOWN ON CR 1101. (HUN)
0808,UNK,7 WSW FLINT CITY,MORGAN,AL,34.47,-87.09,A LARGE TREE WAS REPORTED DOWN AND POWER OUTAGES WERE REPORTED AT THIS LOCATION. (HUN)
0817,UNK,4 WSW LEIGHTON,COLBERT,AL,34.69,-87.61,CAMPER WAS OVERTURNED BY WINDS IN THE AYCOCK HEIGHTS SUBDIVISON. (HUN)
0819,UNK,4 SSW SOMERVILLE,MORGAN,AL,34.42,-86.82,MULTIPLE TREES WERE REPORTED DOWN AND POWER OUTAGES WERE REPORTED IN THIS AREA. (HUN)
0855,UNK,1 S SARALAND,MOBILE,AL,30.8,-88.07,SOCIAL MEDIA REPORT OF A TREE AND POWER LINES DOWN ON LEON STREET IN SARALAND. (MOB)
0935,61,55 E VENICE,GMZ577,XX,29.25,-88.44,STATION KVKY IN MAIN PASS BLOCK 289C REPORTED A 53 KNOT WIND GUST IN A THUNDERSTORM. (LIX)
1020,UNK,BREWTON,ESCAMBIA,AL,31.14,-87.06,TREES AND POWER LINES DOWN IN BREWTON... AL ON SOWELL ROAD AND DOUGLAS LANE. POWER OUTAGES ACROSS THE CITY OF BREWTON. REPORT VIA TWITTER. TIME ESTIMATED BY RADAR. (MOB)
1100,UNK,RIVERVIEW,ESCAMBIA,AL,31.06,-87.06,MULTIPLE TREES DOWN IN RIVERVIEW AL WITH POWER OUTAGES. REPORT VIA TWITTER. TIME ESTIMATED BY RADAR. (MOB)
1120,UNK,BERRYDALE,SANTA ROSA,FL,30.91,-87.03,MULTIPLE TREES DOWN IN BERRYDALE FL WITH POWER OUTAGES. REPORT VIA TWITTER. TIME ESTIMATED BY RADAR. (MOB)
1125,UNK,2 NNE GLENCOE,ETOWAH,AL,33.98,-85.92,SIGNIFICANT DAMAGE TO TWO HOMES ON RABBITTOWN RD. TIME ESTIMATED FROM RADAR. (BMX)
1130,UNK,2 WNW BRANTLEY,CRENSHAW,AL,31.59,-86.28,SEVERAL TREES DOWN IN THE BRANTLEY COMMUNITY ALONG SPRING HILL RD. TIME ESTIMATED BY RADAR. (MOB)
1145,UNK,3 WNW GLENWOOD,CRENSHAW,AL,31.69,-86.22,REPORTS OF LARGE TREE LIMBS AND POWER LINES DOWN. (MOB)
1150,62,4 NE BALLPLAY,CHEROKEE,AL,34.1,-85.77,62 MPH WIND GUSTS REPORTED BY EMA. (BMX)
1154,UNK,2 E BLANCHE,CHEROKEE,AL,34.37,-85.58,TREES DOWN ON COUNTY ROAD 89 IN THE BROOMTOWN AREA. TIME ESTIMATED BY RADAR. (BMX)
Time,Size,Location,County,State,Lat,Lon,Comments
1215,100,8 ENE OAK RIDGE,MOREHOUSE,LA,32.66,-91.64,QUARTER SIZE HAIL REPORTED OFF OF BRIGHAM RANCH RD. (JAN)
1330,100,3 SSW BRADY,MCCULLOCH,TX,31.1,-99.36,MCCULLOCH COUNTY SHERRIFS OFFICE REPORTED QUARTER SIZE HAIL JUST SOUTHWEST OF BRADY. (SJT)
1416,300,4 ENE MICO,MEDINA,TX,29.56,-98.87,RECEIVED A PICTURE OF A 3 INCH HAIL. (EWX)
1423,100,1 E CARROLLTON,DALLAS,TX,32.95,-96.88,HAIL UP TO THE SIZE OF QUARTERS NEAR THE DALLAS/COLLIN LINE NEAR PGBT (FWD)
1427,150,3 NW LAKE WORTH,TARRANT,TX,32.83,-97.44,PING-PONG BALL SIZED HAIL REPORTED 3 MI NW OF LAKE WORTH (FWD)
1430,300,1 ENE HELOTES,BEXAR,TX,29.57,-98.68,PICTURE OF 3 INCH HAIL SENT TO THE OFFICE. (EWX)
1430,275,THE COLONY,DENTON,TX,33.09,-96.89,REPORT OF BASEBALL SIZE HAIL AT THE COLONY CITY HALL (FWD)
1448,300,THE DOMINION,BEXAR,TX,29.65,-98.62,RECEIVED TWO REPORTS NEAR THE DOMINION AREA OF 3 INCH HAIL. (EWX)
1455,175,4 N BULVERDE,COMAL,TX,29.79,-98.46,REPORT OF 1.75 INCHES... 3 MILES NORTH OF BULVERDE. (EWX)
1455,175,ROCKDALE,MILAM,TX,30.65,-97,GOLF BALL SIZED HAIL REPORTED IN ROCKDALE (FWD)
1455,100,WACO,MCLENNAN,TX,31.55,-97.15,(FWD)
1455,100,6 ENE CENTER,SHELBY,TX,31.84,-94.09,PUBLIC REPORTED QUARTER-SIZED HAIL COVERED THE GROUND. (SHV)
1513,100,2 SW BLOOMING GROVE,NAVARRO,TX,32.08,-96.74,(FWD)
1515,175,2 S CANYON LAKE,COMAL,TX,29.84,-98.26,(EWX)
1515,150,HASLET,TARRANT,TX,32.97,-97.35,PING PONG BALL SIZED HAIL REPORTED IN HASLET NEAR HWY 287 (FWD)
1545,175,2 W ATLANTA,WINN,LA,31.81,-92.77,REPORTED IN THE PINEY GROVE AREA WEST OF ATLANTA. (SHV)
1545,250,LINDEN,CASS,TX,33.01,-94.36,(SHV)
1549,100,4 SSW QUITMAN,WOOD,TX,32.74,-95.48,(SHV)
1603,100,2 SW WHITEHOUSE,SMITH,TX,32.21,-95.24,QUARTER SIZE HAIL ANTIOCH COMMUNITY. (SHV)
1702,100,BASTROP,BASTROP,TX,30.11,-97.31,(EWX)
1724,100,5 W CEENTERVILLE,LEON,TX,31.25,-96.06,QUARTER SIZED HAIL REPORTED 5 MILES WEST OF CENTERVILLE (FWD)
1857,100,GRAMBLING,LINCOLN,LA,32.52,-92.72,QUARTER SIZE HAIL REPORTED AT GRAMBLING STATE UNIVERSITY. (SHV)
1908,125,1 N MORGANTON,BURKE,NC,35.76,-81.7,HALF DOLLAR-SIZED HAIL REPORTED JUST NORTH OF MORGANTON...NC. (GSP)
1954,125,MISSION BEND,FORT BEND,TX,29.69,-95.66,SKYWARN SPOTTER HALF DOLLAR SIZED HAIL. (HGX)
1956,100,3 NW SHARPSTOWN,HARRIS,TX,29.73,-95.54,QUARTER HAIL IN WESTCHASE AREA NEAR BELTWAY 8 AND WESTPARK TOLLWAY. (HGX)
2234,100,1 NNE FLOWERS,WARREN,MS,32.4,-90.67,CORRECTS TIME FOR PREVIOUS HAIL REPORT FROM 1 NNE FLOWERS. QUARTER SIZE HAIL REPORTED ON BIRDSONG RD. (JAN)
2310,175,MECHANICSBURG,YAZOO,MS,32.63,-90.5,LARGE HAIL TO GOLF BALL SIZE ACCUMULATED ON GROUND. (JAN)
0125,250,5 SE ROGERSVILLE,LIMESTONE,AL,34.77,-87.21,RELAYED THROUGH BROADCAST MEDIA. JUST SOUTH OF U.S. 72 NEAR ROGERSVILLE. (HUN)
0140,100,BON AQUA,HICKMAN,TN,35.95,-87.33,PHOTOS SHOWED HAIL UP TO QUARTER SIZE FELL IN BON AQUA (OHX)
0145,100,5 W LAWRENCEBURG,LAWRENCE,TN,35.25,-87.43,(OHX)
0240,100,BON AQUA,HICKMAN,TN,35.95,-87.33,PHOTOS SHOWED HAIL UP TO QUARTER SIZE FELL IN BON AQUA (OHX)
