Time,F_Scale,Location,County,State,Lat,Lon,Comments
1739,UNK,1 SSW LANCASTER,FAIRFIELD,OH,39.7,-82.61,BRIEF/WEAK TORNADO CONFIRMED VIA SURVEY WITH MINOR TREE DAMAGE. (ILN)
2139,UNK,WRENTHAM,NORFOLK,MA,42.07,-71.33,EF-0 TORNADO CONFIRMED ACROSS THE WRENTHAM CENTER TOWN COMMON...80 MPH ESTIMATED MAXIMUM WINDS...LARGE TREE UPROOTED...TREE TOPS SNAPPED...LARGE LIMBS DOWN. (BOX)
2324,UNK,WESTMINSTER,WORCESTER,MA,42.55,-71.91,EF-0 TORNADO CONFIRMED NEAR WEST PRINCETON ROAD...75 MPH ESTIMATED MAXIMUM WIND...A DOZEN TREES WERE DAMAGED...SEVERAL TREES HAD TOPS SHEARED OFF...AN EYEWITNESS ACCOUN (BOX)
Time,Speed,Location,County,State,Lat,Lon,Comments
1208,UNK,2 N BIG RUN,JEFFERSON,PA,41,-78.88,NUMEROUS TREES DOWN ON ROUTE 199 IN HENDERSON TOWNSHIP. TREES ALSO DOWN IN WINSLOW TOWNSHIP. (PBZ)
1230,UNK,LUTHERSBURG,CLEARFIELD,PA,41.05,-78.72,TREES AND WIRES DOWN. (CTP)
1242,UNK,CURWENSVILLE,CLEARFIELD,PA,40.97,-78.52,TREES AND WIRES DOWN. (CTP)
1245,UNK,2 N BIG RUN,JEFFERSON,PA,41,-78.88,NUMEROUS TREES DOWN ON ROUTE 199 IN HENDERSON TOWNSHIP. TREES ALSO DOWN IN WINSLOW TOWNSHIP. (PBZ)
1315,UNK,ZION,CENTRE,PA,40.92,-77.67,WIRES DOWN AND POWER OUTAGES IN ZION. (CTP)
1404,UNK,MORAVIA,LAWRENCE,PA,40.92,-80.38,TREE DOWN BLOCKING THE ROADWAY NEAR STATE ROUTE 18 AND GALILEE ROAD (PBZ)
1523,UNK,4 SSE BIG RUN,JEFFERSON,PA,40.92,-78.85,LIMBS AROUND 2 INCH DIAMETER SNAPPED BY THUNDERSTORM WIND. OBSERVER ESTIMATED 60 MPH (PBZ)
1528,UNK,MAHAFFEY,CLEARFIELD,PA,40.88,-78.73,TREES AND WIRES DOWN. (CTP)
1533,UNK,1 S FRIZZLEBURG,LAWRENCE,PA,41.07,-80.45,TREE DOWN ACROSS THE ROAD NEAR HILLSVILLE ROAD AND BEECHWOOD BLVD. (PBZ)
1559,UNK,1 WSW SHAWWOOD PARK,BUTLER,PA,40.96,-80.14,DOH REPORTS TREES DOWN IN BUTLER COUNTY (PBZ)
1616,UNK,STATE COLLEGE,CENTRE,PA,40.79,-77.86,TREES DOWN ON ROCK ROAD (CTP)
1625,69,E PLUM ISLAND,ESSEX,MA,42.81,-70.81,(BOX)
1625,UNK,NEWBURYPORT,ESSEX,MA,42.81,-70.88,WIRES DOWN ON SUNSET DRIVE (BOX)
1635,UNK,AARONSBURG,CENTRE,PA,40.9,-77.45,MORE THAN 50 TREES DOWN...SOME ON WIRES (CTP)
1645,UNK,BLAWNOX,ALLEGHENY,PA,40.49,-79.86,RIDC EAST. (PBZ)
1705,UNK,NORTHUMBERLAND,NORTHUMBERLAND,PA,40.9,-76.79,TREES AND WIRES DOWN IN THE CITY OF NORTHUMBERLAND. (CTP)
1724,UNK,BLAWNOX,ALLEGHENY,PA,40.49,-79.86,RIDC EAST. (PBZ)
1732,UNK,VANPORT,BEAVER,PA,40.68,-80.33,WIRES REPORTED DOWN. (PBZ)
1738,UNK,FREEPORT,ARMSTRONG,PA,40.68,-79.68,TREE DOWN FREEPORT AND GOAT HILL ROAD (PBZ)
1740,UNK,SARVER,BUTLER,PA,40.73,-79.73,TREES REPORTED DOWN NEAR INTERSECTION OF GRIMM AND BEAR CREEK ROAD. (PBZ)
1741,UNK,2 SSE BOWDERTOWN,INDIANA,PA,40.74,-78.84,TREES DOWN IN INDIANA COUNTY (PBZ)
1813,UNK,SCHENLEY,ARMSTRONG,PA,40.68,-79.66,DOH REPORTS TREES DOWN IN ARMSTRONG COUNTY (PBZ)
1813,UNK,1 NW HILLSDALE,INDIANA,PA,40.76,-78.9,DOH REPORTS TREES DOWN IN INDIANA COUNTY (PBZ)
1818,UNK,TOOMSBORO,WILKINSON,GA,32.83,-83.08,911 CALL CENTER RECEIVED REPORT OF 3 TREES DOWN ON SHEPPARD STREET NEAR THE HIGHWAY 57 AND HIGHWAY 112 INTERSECTION. (FFC)
1820,UNK,1 SSW FLORENCE,WASHINGTON,PA,40.42,-80.44,MULTIPLE TREES DOWN NW OF BURGETTSTOWN (PBZ)
1825,UNK,PRICE TWP,MONROE,PA,41.13,-75.22,TREE DOWN BLOCKING ROUTE 447 NEAR THE ALPINE MOUNTAIN RESORT (PHI)
1835,UNK,3 S SUMATRA,FRANKLIN,FL,29.98,-84.98,TREE DOWN ON HWY 65 IN FRANKLIN COUNTY NEAR THE LIBERTY COUNTY BORDER. (TAE)
1836,UNK,BURGETTSTOWN,WASHINGTON,PA,40.38,-80.39,NUMEROUS TREES DOWN. ONE TREE DOWN ON A CAR. (PBZ)
1845,UNK,6 ENE COLUMBIA,COLUMBIA,FL,30.1,-82.61,ROOF DAMAGE REPORTED AT THE 100 BLOCK OF SOUTHWEST WATERFALL GLENN. (JAX)
1845,UNK,CORDELE,CRISP,GA,31.96,-83.78,911 CALL CENTER RECEIVED REPORT OF A TREE BRANCH ON VEHICLE IN THE VALHALLA NEIGHBORHOOD WEST OF CORDELE. NUMEROUS TREES HAVE ALSO BEEN REPORTED TO HAVE FALLEN DOWN ON (FFC)
1850,UNK,HAWKINSVILLE,PULASKI,GA,32.28,-83.47,EMERGENCY MANAGER DISCOVERED ON TREE DOWN ON A HOUSE IN NORTH HAWKINSVILLE. A TOTAL OF ABOUT 4-5 TREES WERE ALSO FOUND NEAR THE DOOLY AND MCDUFFIE STREET INTERSECTIONS. (FFC)
1855,UNK,EXPORT,WESTMORELAND,PA,40.42,-79.62,FEW TREES DOWN (PBZ)
1900,UNK,VERNON TWP,SUSSEX,NJ,41.2,-74.5,TREES DOWN ON LAKE PANACHE ROAD (PHI)
1905,UNK,2 E BETHANY,BROOKE,WV,40.21,-80.53,TREE DOWN (PBZ)
1905,UNK,MCMURRAY,WASHINGTON,PA,40.28,-80.09,NUMEROUS TREES AND WIRES DOWN (PBZ)
1910,UNK,KEWANEE,LAURENS,GA,32.49,-83.09,THE LAURENS COUNTY EMERGENCY MANAGER REPORTED ONE TREE DOWN AT CHICKEN ROAD AND HWY 338. (FFC)
1911,67,GULFPORT AIRPORT,HARRISON,MS,30.4,-89.07,(LIX)
1911,UNK,GULFPORT AIRPORT,HARRISON,MS,30.4,-89.07,110TH TASMG AT GULFPORT AIRPORT HAD DAMAGE TO GENERATORS...HUMVEES...AND MAINTENANCE PLATFORMS. TIME ESTIMATED FROM RADAR. (LIX)
1912,UNK,2 NW TAYLORSTOWN,WASHINGTON,PA,40.19,-80.41,TREE DOWN (PBZ)
1915,UNK,DUBLIN,LAURENS,GA,32.54,-82.9,THE LAURENS COUNTY EMERGENCY MANAGER REPORTED ONE TREE DOWN IN DUBLIN. (FFC)
1915,UNK,WARWICK,ORANGE,NY,41.26,-74.36,NUMEROUS TREES AND WIRES DOWN ACROSS TOWN (OKX)
1924,UNK,1 N ATHENS,ATHENS,OH,39.34,-82.1,REPORTS OF TREES DOWN AND POWER OUTAGES IN ATHENS... OH (RLX)
1925,UNK,DONORA,WASHINGTON,PA,40.18,-79.86,SEVERAL TREES DOWN (PBZ)
1926,UNK,LIGONIER,WESTMORELAND,PA,40.24,-79.24,TREES DOWN (PBZ)
1926,UNK,MOUNT TREMPER,ULSTER,NY,42.04,-74.28,TREES DOWN. (ALY)
1935,UNK,SHADE GAP,HUNTINGDON,PA,40.18,-77.87,TREE DOWN ON WIRES (CTP)
1945,UNK,4 WSW OCALA,MARION,FL,29.17,-82.19,TREE DOWN ON SW 20TH STREET. (JAX)
1949,UNK,GERMANTOWN,COLUMBIA,NY,42.13,-73.89,TREES DOWN. TIME ESTIMATED BY RADAR. (ALY)
1950,UNK,KATONAH,WESTCHESTER,NY,41.26,-73.69,DOWNED TREE AT MUSTATO ROAD AND JAY STREET (OKX)
1955,UNK,2 S TERRA ALTA,PRESTON,WV,39.42,-79.54,SEVERAL TREES DOWN (PBZ)
1957,UNK,3 SW TEMPY,WORTH,GA,31.42,-83.85,TREE DOWN ON BRIDGEBORO-ANDERSON CITY RD 1 MI E OF HWY 133. (TAE)
2000,UNK,1 WNW DUNNELLON,MARION,FL,29.06,-82.47,TREES WERE KNOCKED DOWN BY STRONG THUNDERSTORM WINDS NEAR ROLLING HILLS APARTMENTS AND VOGT SPRINGS. (JAX)
2000,65,1 N BELLEVIEW,MARION,FL,29.07,-82.05,TRAINED STORM SPOTTER REPORTS WIND GUSTS IN EXCESS OF 60 MPH NEAR SE 92ND AVENUE AND DOGWOOD ROAD. (JAX)
2000,UNK,RIDGEFIELD,FAIRFIELD,CT,41.27,-73.5,TREES DOWN ACROSS TOWN WITH SEVERAL TREES DOWN ON CARS. (OKX)
2005,UNK,NEWTOWN,FAIRFIELD,CT,41.41,-73.32,WIDESPREAD TREES DOWN IN THE SANDY HOOK AREA (OKX)
2005,UNK,CLAVERACK,COLUMBIA,NY,42.22,-73.72,WIRES DOWN ALONG ORCHARD ROAD. TIME ESTIMATED BY RADAR. (ALY)
2008,UNK,MILL POINT,MONTGOMERY,NY,42.89,-74.28,TREE DOWN ON ROUTE 161 NEAR MILL POINT ROAD. TIME ESTIMATED BY RADAR. (ALY)
2016,UNK,2 E HOPEFUL,MITCHELL,GA,31.17,-84.36,TREES BLOWN DOWN ON HIGHWAY 65 IN MITCHELL CO. (TAE)
2016,UNK,UPPER TULPEHOCKEN TWP,BERKS,PA,40.51,-76.17,TREES DOWN. ALSO IN CENTRE AND BRECKNOCK TWPS. (PHI)
2017,UNK,SEYMOUR,NEW HAVEN,CT,41.4,-73.06,LARGE TREES DOWN AT OSPREY DRIVE AND MEADOW WOODS ROAD (OKX)
2018,UNK,MIDDLEBURG,CLAY,FL,30.05,-81.9,TREE DOWN ON US HWY 21 IN MIDDLEBURG. (JAX)
2020,UNK,2 NE BALLSTON CENTER,SARATOGA,NY,42.97,-73.84,TREES DOWN ALONG NY ROUTE 67. (ALY)
2025,UNK,MONROE,FAIRFIELD,CT,41.36,-73.2,WIDESPREAD TREES DOWN ACROSS NORTHERN PORTION OF TOWN... SEVERAL ROAD CLOSURES (OKX)
2027,UNK,3 NW GONZALEZ,ESCAMBIA,FL,30.61,-87.32,REPORT OF TREE DOWN ACROSS SOUTH BOUND LAND OF HWY 29 3 MILES NORTHWEST OF GONZALEZ... FL. (MOB)
2030,UNK,6 S RAINBOW LAKES ESTAT,MARION,FL,29.06,-82.46,TREE DOWN IN THE DUNNELLON AREA. (JAX)
2030,UNK,3 W DOERUN,COLQUITT,GA,31.31,-83.96,A COUPLE TREES BLOWN DOWN IN COLQUITT COUNTY INCLUDING ON HIGHWAY 270 NEAR DOERUN. (TAE)
2031,UNK,3 NNE STEINHAM STORE,DECATUR,GA,31.06,-84.53,TREES DOWN ON HIGHWAY 253 IN DECATUR COUNTY. (TAE)
2033,UNK,1 N ATHENS,ATHENS,OH,39.34,-82.1,REPORTS OF TREES DOWN AND POWER OUTAGES IN ATHENS... OH (RLX)
2035,UNK,HAMDEN,NEW HAVEN,CT,41.37,-72.9,MULTIPLE LARGE BRANCHES AND WIRES DOWN ACROSS THE TOWN (OKX)
2035,UNK,MERIDEN,NEW HAVEN,CT,41.54,-72.8,LARGE TREE DOWN BLOCKING ROAD ON MAYFLOWER LANE (OKX)
2040,UNK,DURHAM,MIDDLESEX,CT,41.47,-72.68,NUMEROUS REPORTS OF TREES AND POWER LINES DOWN. ENTIRE TOWN WITHOUT POWER. (OKX)
2043,UNK,SOUTHINGTON,HARTFORD,CT,41.6,-72.88,TREES AND WIRES DOWN AT RUSSELL ROAD AN RTE 10 (BOX)
2050,UNK,4 S DOCTORS INLET,CLAY,FL,30.07,-81.77,POWER OUTAGES AND POSSIBLE TREE LIMBS DOWN REPORTED IN NORTHEAST CLAY COUNTY. (JAX)
2051,70,3 WNW GALLUP,MCKINLEY,NM,35.54,-108.78,KGUP ASOS. (ABQ)
2100,UNK,BLUE BALL,LANCASTER,PA,40.12,-76.05,TREES DOWN (CTP)
2100,UNK,MONTVILLE,NEW LONDON,CT,41.44,-72.12,NUMEROUS TRESS DOWN ALONG ROUTE 82 (OKX)
2102,UNK,1 WSW WINCHESTER CENTER,LITCHFIELD,CT,41.89,-73.15,TREES DOWN ON WIRES ON BLUE STREET (ALY)
2103,UNK,1 SSW GERMANTOWN,MONTGOMERY,MD,39.17,-77.26,5 LARGE SOUTHERN PINE TREES SNAPPED OFF 10 FEET ABOVE GROUND AND 1 LARGE OAK TREE KNOCKED DOWN NEAR INTERSECTION OF WISTERIA DR AND GREAT SENECA HWY (LWX)
2103,UNK,GLASTONBURY,HARTFORD,CT,41.71,-72.61,TREE AND WIRES DOWN ON CHESTNUT HILL ROAD AND MASTON HILL AND CLARK HILL ROAD (BOX)
2105,UNK,FRANKLIN,ESSEX,NJ,40.85,-74.29,TREE DOWN ON ROUTE 32 (OKX)
2105,UNK,FRANKLIN,NEW LONDON,CT,41.6,-72.14,TREE DOWN ON ROUTE 32 (OKX)
2110,UNK,4 NE STEWARTSTOWN,YORK,PA,39.79,-76.54,TREE DOWN ON GARAGE. (CTP)
2110,UNK,SE SEVEN VALLEYS,YORK,PA,39.85,-76.77,LOTS OF TREES DOWN (CTP)
2112,UNK,2 ESE ROSEMONT,FREDERICK,MD,39.32,-77.59,TREE DOWN IN 2200 BLOCK OF POINT OF ROCKS RD (LWX)
2112,UNK,2 NNW PYLESVILLE,HARFORD,MD,39.72,-76.39,TREE DOWN NEAR 2902 WHITEFORD RD (LWX)
2113,UNK,HONEY BROOK,CHESTER,PA,40.09,-75.91,MULTIPLE REPORTS OF TREES DOWN (PHI)
2116,UNK,BENNINGTON,BENNINGTON,VT,42.87,-73.19,TREES DOWN. (ALY)
2119,UNK,CAPON BRIDGE,HAMPSHIRE,WV,39.3,-78.43,TREE DOWN ON 500 BLOCK OF CHRISTIAN CHURCH RD (LWX)
2119,UNK,FRESH MEADOWS,QUEENS,NY,40.73,-73.79,LARGE TREE DOWN ON TWO VEHICLES. (OKX)
2120,UNK,1 SW COLEBROOK,COOS,NH,44.88,-71.51,TREES REPORTED DOWN ON RTE 3 (GYX)
2121,UNK,RISING SUN,CECIL,MD,39.7,-76.06,TREES DOWN (PHI)
2121,UNK,WEST BRADFORD TWP,CHESTER,PA,39.97,-75.74,MULTIPLE REPORTS OF TREES DOWN (PHI)
2123,UNK,BRECKNOCK TWP,BERKS,PA,40.23,-75.98,TREES DOWN. (PHI)
2125,58,3 N HICKORY,HARFORD,MD,39.62,-76.35,(LWX)
2125,UNK,BLACKSTONE,WORCESTER,MA,42.02,-71.54,TREE DOWN ON WIRES ON MILK AND CHESNUT STREETS (BOX)
2127,UNK,OXFORD,CHESTER,PA,39.79,-75.98,TREES DOWN (PHI)
2127,UNK,OXFORD,WARREN,NJ,40.8,-74.99,TREES DOWN (PHI)
2128,UNK,2 E PARK MILLS,FREDERICK,MD,39.3,-77.38,TREE DOWN AND POWER POLE SNAPPED IN 8400 BLOCK OF PETERS RD (LWX)
2130,UNK,1 E WALNUT HILL,ESCAMBIA,FL,30.89,-87.5,MEDIA REPORTS A LARGE OAK TREE DOWN OVER ARTHUR BROWN ROAD IN WALNUT HILL. (MOB)
2130,UNK,COVENTRY,KENT,RI,41.7,-71.68,BRANCHES AND LIMBS DOWN ON HILL FARM ROAD AND ON TOWN FARM ROAD. (BOX)
2133,UNK,3 W LIBERTYTOWN,FREDERICK,MD,39.49,-77.29,TREE ON WIRES IN 10800 BLOCK OF DAYSVILLE RD (LWX)
2135,UNK,LOWER PROVIDENCE TWP,MONTGOMERY,PA,40.15,-75.42,NUMEROUS TREES AND WIRES DOWN (PHI)
2136,UNK,2 NE TIMONIUM,BALTIMORE,MD,39.46,-76.6,EXTENSIVE DAMAGE IN TERMS OF TREES DOWN...WINDOWS SMASHED...HOLES IN SIDING OF HOMES NEAR AND JUST EAST OF COCKEYSVILLE MD (LWX)
2137,UNK,GLEN MILLS,DELAWARE,PA,39.92,-75.49,TREE DOWN ON A HOUSE (PHI)
2137,70,KING OF PRUSSIA,MONTGOMERY,PA,40.1,-75.38,(PHI)
2137,UNK,FRANKLIN,NORFOLK,MA,42.08,-71.4,TREE DOWN ON SUMMER STREET (BOX)
2138,UNK,3 N CEDAR GROVE,FREDERICK,VA,39.31,-78.18,TREE DOWN BETWEEN GREEN SPRING AND ESTATE DR. (LWX)
2140,UNK,1 SSE HICKORY,HARFORD,MD,39.56,-76.33,TREE DOWN IN FRONT OF C MILTON WRIGHT HS (LWX)
2140,UNK,STROUD TWP,MONROE,PA,40.96,-75.21,TREES REPORTED DOWN. (PHI)
2140,UNK,EAST GREENWICH,KENT,RI,41.66,-71.46,TREE AND UTILITY POLE DOWN (BOX)
2141,UNK,NEWARK,NEW CASTLE,DE,39.68,-75.76,TREES AND WIRES DOWN (PHI)
2142,UNK,2 W HILLSBORO,LOUDOUN,VA,39.2,-77.76,TREES DOWN ALONG RT 9. (LWX)
2145,67,NEW CASTLE COUNTY AIRPO,NEW CASTLE,DE,39.68,-75.61,(PHI)
2145,UNK,WILMINGTON,NEW CASTLE,DE,39.73,-75.53,ROOF BLOWN OFF THIRD STORY BUILDING (PHI)
2147,68,CAIRNS AAF,DALE,AL,31.28,-85.71,59 KNOT...68 MPH...PEAK WIND GUST MEASURED AT CAIRNS ARMY AIR FIELD...KOZR. UPDATED FROM AN EARLIER REPORT. (TAE)
2147,UNK,SCITUATE,PROVIDENCE,RI,41.83,-71.63,TREE DOWN ON LANGLAIS DRIVE (BOX)
2148,UNK,UPLAND,CHESTER,PA,39.89,-75.77,OVER 70 TREES REPORTED DOWN IN UPLAND PARK. (PHI)
2150,UNK,DALEVILLE,DALE,AL,31.29,-85.73,MULTIPLE TREES REPORTED DOWN AND BLOCKING ROADWAYS IN SOUTHERN DALE COUNTY. ALL OF DALEVILLE REPORTED TO BE WITHOUT POWER. (TAE)
2150,UNK,3 SSW LUCKETTS,LOUDOUN,VA,39.17,-77.55,2 INCH DIAMETER TREE LIMBS DOWN (LWX)
2150,UNK,ROXBOROUGH,PHILADELPHIA,PA,40.04,-75.22,WIRES DOWN (PHI)
2150,UNK,MANSFIELD,BRISTOL,MA,42.03,-71.22,LARGE LIMB DOWN ON MADISON AT EAST STREET (BOX)
2151,60,SWEDESBORO,GLOUCESTER,NJ,39.75,-75.31,(PHI)
2151,UNK,BLACKWOOD,CAMDEN,NJ,39.8,-75.06,TREES DOWN (PHI)
2152,UNK,DAMASCUS,MONTGOMERY,MD,39.28,-77.2,TREE DOWN ON VALLEY PARK ROAD (LWX)
2153,UNK,FORK,BALTIMORE,MD,39.47,-76.44,TREE DOWN BLOCKED SB LANE RT 147 AND SUNSHINE AVE (LWX)
2155,UNK,GIBBSTOWN,GLOUCESTER,NJ,39.82,-75.28,MULTIPLE REPORTS OF TREES AND WIRES DOWN IN THE GIBBSTOWN AREA. (PHI)
2157,UNK,1 ESE LISBON,HOWARD,MD,39.33,-77.05,TREE DOWN BLOCKING RT 144 AT CARRS MILL RD (LWX)
2157,UNK,MIDDLETOWN,NEW CASTLE,DE,39.45,-75.71,TREES AND WIRES DOWN (PHI)
2158,UNK,COLCHESTER,NEW LONDON,CT,41.57,-72.33,NUMEROUS TREES AND WIRES DOWN. (OKX)
2200,69,12 E ELMER,GLOUCESTER,NJ,39.58,-74.93,(PHI)
2200,71,NORWOOD,DELAWARE,PA,39.89,-75.3,(PHI)
2202,UNK,5 WNW ARLINGTON,DUVAL,FL,30.36,-81.68,TREE ON A HOUSE ON WEST 21ST STREET. (JAX)
2203,66,MERCHANTVILLE,CAMDEN,NJ,39.95,-75.05,(PHI)
2204,59,1 WSW DAMASCUS,MONTGOMERY,MD,39.27,-77.22,(LWX)
2204,72,PHILADELPHIA INTL AIRPO,PHILADELPHIA,PA,39.89,-75.25,A 72 MPH WIND GUST MEASURED AT PHILADELPHIA INTERNATIONAL AIRPORT. (PHI)
2204,UNK,PALMYRA,BURLINGTON,NJ,40,-75.03,TREES REPORTED DOWN IN PALMYRA (PHI)
2205,70,GLASSBORO,GLOUCESTER,NJ,39.7,-75.11,(PHI)
2207,UNK,NORTH STRATFORD,COOS,NH,44.76,-71.59,TREE ON WIRES IN NORTH STRATFORD (GYX)
2210,UNK,WASHINGTON TWP,GLOUCESTER,NJ,39.75,-75.07,TREES REPORTED DOWN IN WASHINGTON TOWNSHIP. POWER OUTAGES REPORTED. (PHI)
2211,UNK,COLRAIN,FRANKLIN,MA,42.67,-72.7,TREE AND WIRES DOWN ON CAR ON CALVIN COOMBS ROAD (BOX)
2212,UNK,WICKSBURG,HOUSTON,AL,31.21,-85.62,MULTIPLE REPORTS OF TREES DOWN IN THE WICKSBURG AREA. (TAE)
2212,UNK,CLEMENTON,CAMDEN,NJ,39.8,-74.99,TREES REPORTED DOWN IN CLEMENTON. (PHI)
2212,UNK,FISHTOWN,PHILADELPHIA,PA,39.97,-75.14,*** 4 INJ *** HOUSE UNDER CONSTRUCTION ON EAST ALLEN STREET COLLAPSED. TIME ESTIMATED FROM RADAR AND NEARBY ASOS. (PHI)
2213,UNK,POOLESVILLE,MONTGOMERY,MD,39.14,-77.41,MANY TREES DOWN IN TOWN (LWX)
2215,UNK,PURCELLVILLE,LOUDOUN,VA,39.14,-77.71,TREES AND WIRES DOWN (LWX)
2215,UNK,FLUSHING,QUEENS,NY,40.77,-73.84,LARGE TREE LIMB DOWN (OKX)
2219,UNK,2 NW COLUMBIA,HOWARD,MD,39.22,-76.88,2 LARGE TREES DOWN. 1 TREE UPROOTED. LARGE TREE BRANCH DOWN. CHIMNEY KNOCKED DOWN. (LWX)
2219,64,2 SW DAMASCUS,MONTGOMERY,MD,39.25,-77.23,(LWX)
2220,UNK,1 SW BRIGHTON DAM,MONTGOMERY,MD,39.18,-77.02,TREE DOWN ON RT 650 NEAR GOLD MINE (LWX)
2220,UNK,BRIDGETON,CUMBERLAND,NJ,39.43,-75.23,TREES AND BRANCHES REPORTED DOWN AROUND BRIDGETON. (PHI)
2223,UNK,SOUTHAMPTON TWP,BURLINGTON,NJ,39.91,-74.73,TREES REPORTED DOWN IN SOUTHAMPTON TOWNSHIP (PHI)
2224,68,HUNTINGTON STATION,SUFFOLK,NY,40.84,-73.41,68 MPH WIND GUST. BRANCHES KNOCKED DOWN ALONG WITH ROOF SIDING DAMAGE (OKX)
2225,71,HAMMONTON,ATLANTIC,NJ,39.65,-74.77,(PHI)
2227,UNK,HAMMONTON,ATLANTIC,NJ,39.65,-74.77,TREES DOWN IN HAMMONTON. (PHI)
2228,UNK,MAYS LANDING,ATLANTIC,NJ,39.45,-74.72,TREES DOWN (PHI)
2228,75,MEDFORD,BURLINGTON,NJ,39.9,-74.82,(PHI)
2229,UNK,NORTH POINT STATE PARK,BALTIMORE,MD,39.22,-76.43,ONE TREE DOWNED (LWX)
2230,UNK,2 NE BELMONT,LOUDOUN,VA,39.09,-77.48,TREE DOWN ON NORTH COURSE OF LANSDOWNE GOLF CLUB (LWX)
2230,UNK,WASHINGTON TWP,BURLINGTON,NJ,39.68,-74.58,TREES REPORTED DOWN IN MULTIPLE LOCATIONS IN WASHINGTON TOWNSHIP. (PHI)
2230,UNK,OYSTER BAY,NASSAU,NY,40.87,-73.53,TREES DOWN IN OYSTER BAY (OKX)
2230,UNK,3 WNW WEST NEWFIELD,YORK,ME,43.65,-70.97,LARGE TREE TOOK DOWN WIRES AND IS BLOCKING STEVENS CORNER ROAD (GYX)
2241,UNK,2 E LAUREL,ANNE ARUNDEL,MD,39.1,-76.82,TREE DOWN NEAR INTERSECTION OF OLD ANNAPOLIS RD AND RT 198 (LWX)
2245,UNK,1 E SAINT ANDREWS,RICHLAND,SC,34.05,-81.09,REPORT OF TREES DOWN ALONG NUNAMAKER DRIVE BETWEEN KATHLEEN DRIVE AND CHANDLER AVENUE (CAE)
2245,68,HUNTINGTON STATION,SUFFOLK,NY,40.84,-73.41,68 MPH WIND GUST. BRANCHES KNOCKED DOWN ALONG WITH ROOF SIDING DAMAGE (OKX)
2245,61,10 WNW AMIDON,SLOPE,ND,46.55,-103.52,(BIS)
2247,UNK,TUCKERTON,OCEAN,NJ,39.6,-74.33,NUMEROUS WIRES AND TREES DOWN. (PHI)
2248,UNK,1 WNW LITTLE FALLS,FAIRFAX,VA,38.94,-77.13,TREE DOWN ON GEORGE WASHINGTON PARKWAY SOUTH OF VA ROUTE 123 (LWX)
2251,UNK,LONG BEACH PARK,OCEAN,NJ,39.72,-74.13,TREES AND WIRES DOWN (PHI)
2252,UNK,1 SE SEVERNA PARK,ANNE ARUNDEL,MD,39.07,-76.55,TREE DOWN NEAR INTERSECTION OF RIGGS AVE AND AVONDALE CIR (LWX)
2254,71,12 E ELMER,GLOUCESTER,NJ,39.58,-74.93,(PHI)
2255,60,5 SE BLYTHEWOOD,RICHLAND,SC,34.16,-80.91,PUBLIC REPORT OF 60 MPH WIND GUST AT LAKE CAROLINA (CAE)
2255,72,LITTLE EGG HARBOR TWP,OCEAN,NJ,39.65,-74.35,(PHI)
2255,68,HARVEY CEDARS,OCEAN,NJ,39.7,-74.14,TIME ESTIMATED (PHI)
2256,UNK,BARNESVILLE,MONTGOMERY,MD,39.22,-77.38,TREE DOWN BLOCKING SB LANE MD109 AT BARNESVILLE RD (LWX)
2257,UNK,2 SSW BROKEN HILL,FAUQUIER,VA,38.73,-77.72,TREE DOWN AT THE INTERSECTION OF RT 605 AND WOODLAWN RD (LWX)
2301,61,8 SSE CRESTVIEW,OKALOOSA,FL,30.65,-86.52,MEASURED AT KEGI. (MOB)
2305,UNK,PHILLIPSTON,WORCESTER,MA,42.55,-72.13,TREE AND WIRES DOWN ON WILLIS ROAD (BOX)
2305,UNK,BERLIN,COOS,NH,44.47,-71.19,LARGE BRANCHES AND POWER LINES DOWN. POWER OUTAGES. (GYX)
2311,UNK,1 SSE DAVIDSONVILLE,ANNE ARUNDEL,MD,38.91,-76.63,TREE DOWN NEAR INTERSECTION OF COTTAGE RUN AND BIRDSVILLE RD (LWX)
2312,UNK,1 WNW LITTLE FALLS,FAIRFAX,VA,38.94,-77.13,TREE DOWN ON GW PARKWAY JUST PAST VA-123 (LWX)
2315,UNK,STONE RIDGE,ULSTER,NY,41.85,-74.14,LARGE TREE DOWN. TIME ESTIMATED BY RADAR. (ALY)
2319,UNK,1 N BURKE,FAIRFAX,VA,38.79,-77.27,SEVERAL TREES ONTO HOMES (LWX)
2320,59,2 N NORTH BEACH,ANNE ARUNDEL,MD,38.73,-76.54,HERRING BAY (LWX)
2320,UNK,SCARBOROUGH,CUMBERLAND,ME,43.58,-70.32,WIRES DOWN ON BEECH RIDGE ROAD (GYX)
2321,UNK,1 WSW LAKE RIDGE,PRINCE WILLIAM,VA,38.68,-77.32,TREE DOWN ON A HOME AT VERONICA LANE IN LAKE RIDGE (LWX)
2321,UNK,NW SUDLEY,PRINCE WILLIAM,VA,38.79,-77.5,LOTS OF TREES DOWN (LWX)
2324,UNK,NEW MARLBOROUGH,BERKSHIRE,MA,42.12,-73.22,POWER LINES DOWN. (ALY)
2325,UNK,ST. MARTINVILLE,ST. MARTIN,LA,30.12,-91.83,KATC TELEVISION FACEBOOK POST OF BRICKS BLOWN OFF THE SIDE OF THE STATE FARM BUILDING IN SAINT MARTINVILLE. VELOCITY DATA FROM KLCH RADAR SHOWED WINDS NEAR 48 KNOTS OR (LCH)
2326,UNK,2 S HERNDON,FAIRFAX,VA,38.94,-77.39,BRANCHES 1-2 INCHES IN DIAMETER DOWN (LWX)
2329,UNK,RUSSELL,HAMPDEN,MA,42.19,-72.86,TREE DOWN ON ROUTE 2 (BOX)
2331,UNK,1 N CHURCHTON,ANNE ARUNDEL,MD,38.82,-76.54,TREES DOWNED AT MD-214 (LWX)
2334,UNK,2 SW BOLLING AIR FORCE,CITY OF ALEXANDRI,VA,38.82,-77.04,TREE DOWN ON GEORGE WASHINGTON PARKWAY AT SLATERS LANE. (LWX)
2335,UNK,BROUSSARD,LAFAYETTE,LA,30.15,-91.97,PICTURE FROM KATC-TV FACEBOOK PAGE OF TREE DOWN ON SPORTS BAR IN BROUSSARD. ESTIMATES OF WIND GUSTS IN THE AREA BETWEEN 50 AND 60 MPH. TIME ESTIMATED FROM RADAR. (LCH)
2339,UNK,2 ENE BRISTERSBURG,FAUQUIER,VA,38.6,-77.58,TREES DOWN NEAR BRENT TOWN RD AND CACY CT (LWX)
2342,68,ST. JOHNS AIRPORT,APACHE,AZ,34.52,-109.38,SHERIFFS OFFICE REPORTS A POWERLINE DOWN AND A ROOF OFF A TRAILOR IN ST. JOHNS. (FGZ)
2347,UNK,1 SE CARYVILLE,WASHINGTON,FL,30.76,-85.8,TREES BLOWN DOWN IN THE VICINITY OF ST. MARYS ROAD. (TAE)
2349,UNK,GARRISONVILLE,STAFFORD,VA,38.48,-77.43,FIVE REPORTS OF TREES DOWN IN GARRSIONVILLE AREA (LWX)
2350,UNK,PECONIC,SUFFOLK,NY,41.04,-72.46,TREES AND BRANCHES DOWN... SCATTERED ACROSS TOWN (OKX)
2354,60,CAMBRIDGE,DORCHESTER,MD,38.56,-76.08,EATON POINT LIGHT IN CAMBRIDGE (AKQ)
2355,UNK,2 SW HERITAGE MOBILE HO,DORCHESTER,MD,38.58,-75.96,NUMEROUS LARGE TREES AND POWER LINES DOWN FROM CAMBRIDGE TO SOUTHEAST OF HURLOCK. SHINGLES BLOWN OFF ROOFS. (AKQ)
2356,68,GREENPORT,SUFFOLK,NY,41.1,-72.37,68 MPH WIND GUST MEASURED IN GREENPORT (OKX)
0000,67,ROYAL OAK,TALBOT,MD,38.74,-76.18,(PHI)
0002,UNK,RISON,CHARLES,MD,38.55,-77.18,TOPS OF LARGE TREES TORN OFF. DOZEN OR MORE LARGE TREES DOWN. ONE OR TWO TREES ONTO POWER LINES SNAPPING THEM OUT OF POWER POLES. (LWX)
0003,UNK,1 ESE HINSONS CROSSROAD,WASHINGTON,FL,30.67,-85.83,LINES DOWN AT DOUGLAS FERRY ROAD AND WILDERNESS RD. (TAE)
0005,UNK,OLD LYME,NEW LONDON,CT,41.31,-72.34,TREES AND BRANCHES DOWN ON ROADS ACROSS TOWN (OKX)
0010,60,2 SSE OPELOUSAS,ST. LANDRY,LA,30.5,-92.07,PUBLIC ESTIMATED THUNDERSTORM WIND GUST IN EXCESS OF 60 MPH NEAR INTERSTATE 49 IN OPELOUSAS. (LCH)
0010,UNK,RED BAY,WALTON,FL,30.59,-85.94,TREE BLOWN ONTO A POWER LINE IN THE RED BAY AREA...PER CHELCO FACEBOOK PAGE. (TAE)
0010,UNK,PLUM ISLAND,SUFFOLK,NY,41.18,-72.19,TELEPHONE POLE DOWN OFF OLD POINT ROAD (OKX)
0011,UNK,1 WSW MOOREVILLE,LITCHFIELD,CT,41.91,-73.09,TREES DOWN ON WIRES ON EAST WAKEFIELD BLVD. (ALY)
0015,UNK,FREEPORT,CUMBERLAND,ME,43.86,-70.1,TREES AND WIRES DOWN ON US RTE 1... FOSTER AVE AND FROST BROOK ROAD (GYX)
0020,UNK,FISHERS ISLAND,SUFFOLK,NY,41.27,-71.99,TREE DOWN ON AVENUE B AND ON MADELINE AVENUE (OKX)
0021,UNK,OPELOUSAS,ST. LANDRY,LA,30.52,-92.08,SHERIFFS DEPT REPORTS SEVERAL TREES DOWN IN TOWN AND ON HWY 182 AND 356. (LCH)
0022,UNK,DELMAR,WICOMICO,MD,38.45,-75.57,TREES AND POWER LINES DOWN (AKQ)
0025,UNK,MYSTIC,NEW LONDON,CT,41.35,-71.97,TREES DOWN AT 492 MILITARY HIGHWAY. (OKX)
0039,UNK,OAKVILLE,ST. MARYS,MD,38.39,-76.64,ONE TREE DOWNED (LWX)
0039,UNK,PRINCE FREDERICK,CALVERT,MD,38.55,-76.59,MULTIPLE TREES DOWN IN PRINCE FREDERICK AREA (LWX)
0040,66,13 NE BAKER,FALLON,MT,46.48,-104.07,(BYZ)
0045,UNK,5 NNE SANFORD,COVINGTON,AL,31.36,-86.36,SEVERAL TREES DOWN ON CR70 BETWEEN ANDALUSIA AND OPP. LOCATION AND TIME ESTIMATED. (MOB)
0045,UNK,SNOW HILL,WORCESTER,MD,38.17,-75.39,TREES BLOCKIING ROADS NEAR SNOW HILL. (AKQ)
0045,UNK,BERLIN,WORCESTER,MD,38.33,-75.22,TREES DOWN ON ROADS (AKQ)
0047,UNK,FREEPORT,WALTON,FL,30.5,-86.14,LARGE TREE LIMBS BLOWN DOWN WITH ESTIMATED 60 MPH GUSTS. (TAE)
0057,UNK,2 N PRINCESS ANNE,SOMERSET,MD,38.23,-75.69,TREE DOWN ALONG OCEAN HIGHWAY NORTHEAST OF PRINCESS ANNE (AKQ)
0100,UNK,NARRAGANSETT,WASHINGTON,RI,41.45,-71.45,6 TO 8 INCH TREE LIMBS DOWN ON WIRES ON POINT JUDITH ROAD AT JOHN STREET. (BOX)
0103,UNK,PASSAPATANZY,KING GEORGE,VA,38.3,-77.31,TWO TREES DOWN IN NORTHWEST PORTION OF COUNTY (LWX)
0105,UNK,PATUXENT RIVER NAS,ST. MARYS,MD,38.28,-76.43,TWO TELEPHONE POLES PUSHED OVER BY HIGH WINDS (LWX)
0110,70,5 E DARES BEACH,ANZ533,MD,38.56,-76.41,GOOSES REEF BUOY (LWX)
0128,60,4 ESE WINSEGANSETT HEIG,ANZ234,MA,41.58,-70.79,(BOX)
0130,UNK,FALMOUTH,BARNSTABLE,MA,41.55,-70.61,WIRES DOWN ON RYDALL MOUNT DRIVE (BOX)
0131,UNK,1 NE HUMBOLDT,GIBSON,TN,35.83,-88.89,TREES REPORTED DOWN AT THE INTERSECTION OF HIGHWAYS 79 AND 152 NEAR THE FEDERAL EXPRESS BUILDING BETWEEN HUMBOLDT AND MILAN. (MEG)
0135,UNK,MURFREESBORO,RUTHERFORD,TN,35.85,-86.39,TREE ON HOUSE ON MAPLE STREET NEAR THE SQUARE (OHX)
0136,UNK,ROLLINS FORK,KING GEORGE,VA,38.18,-77.06,THREE TREES DOWN IN SOUTHEAST PORTION OF COUNTY (LWX)
0147,UNK,BARNSTABLE,BARNSTABLE,MA,41.7,-70.3,TREE DOWN BLOCKING MAIN STREET AT OLD MILL ROAD (BOX)
0152,UNK,FALMOUTH,BARNSTABLE,MA,41.55,-70.61,MULTIPLE LARGE LIMBS DOWN ON SANDWICH ROAD (BOX)
0153,62,2 NE HYANNIS,BARNSTABLE,MA,41.67,-70.26,(BOX)
0200,UNK,6 E WILDERSVILLE,HENDERSON,TN,35.78,-88.26,ONE LARGE TREE DAMAGED A CABIN AT NATCHEZ TRACE STATE PARK. (MEG)
0200,60,23 SE KARVAL,KIOWA,CO,38.49,-103.23,(BOU)
0200,60,19 SE KARVAL,LINCOLN,CO,38.54,-103.28,(BOU)
0203,66,TUCKERTON,OCEAN,NJ,39.6,-74.33,(PHI)
0210,UNK,5 W LINDEN,PERRY,TN,35.61,-87.93,A TREE DOWNED ON STATE HIGHWAY 128 AND A COUPLE OF TREES DOWNED ON CROOKED ROAD ACROSS THE WESTERN PART OF THE COUNTY. (OHX)
0337,UNK,1 E MANQUIN,KING WILLIAM,VA,37.71,-77.14,TREE DOWN (AKQ)
0338,UNK,3 NNW WATERLOO,LAUDERDALE,AL,34.96,-88.07,POWER LINES WERE KNOCKED DOWN AT 4330 CR 14. TIME ESTIMATED BY RADAR. (HUN)
0343,UNK,2 NE CLOVERDALE,LAUDERDALE,AL,34.96,-87.75,A 7 INCH DIAMETER TREE WAS KNOCKED DOWN ACROSS THE ROAD AT CR 266 AND CR 139. TIME ESTIMATED BY RADAR. (HUN)
0345,UNK,BOLIVAR,HARDEMAN,TN,35.26,-89,AT HOME OF EMERGENCY MANAGER 240 LAKE CIRCLE IN BOLIVAR...SHED BLOWN OVER AND STORM DOOR BLOWN FROM HOUSE. LARGE LIMBS DOWN. (MEG)
0347,UNK,1 NW DAHLGRENS CORNER,KING AND QUEEN,VA,37.72,-76.94,VERY LARGE TREE DOWN ACROSS ROAD (AKQ)
0435,UNK,5 NW BELMONT,TISHOMINGO,MS,34.56,-88.27,TREE DAMAGE REPORTED AT PINEY GROVE CAMPGROUND AT BAY SPRINGS LAKE. (MEG)
0515,UNK,MANTACHIE,ITAWAMBA,MS,34.32,-88.49,SEVERAL LARGE TREES DOWN AND POWER LINES DOWN. (MEG)
0528,UNK,8 SE TUPELO,LEE,MS,34.18,-88.63,TREE DOWN ON A HOUSE IN RICHMOND MISSISSIPPI...REPORTED VIA WTVA TELEVISION. (MEG)
0530,UNK,11 WSW FAYETTEVILLE,LINCOLN,TN,35.08,-86.73,SEVERAL LARGE TREES DOWNED IN WESTERN PART OF LINCOLN COUNTY. TIME AND LOCATION ESTIMATE. (HUN)
0542,UNK,HARVEST,MADISON,AL,34.86,-86.75,TWO LARGE TREES DOWN (HUN)
0544,UNK,3 E MOORES MILL,MADISON,AL,34.85,-86.46,LARGE TREE DOWNED (HUN)
0554,UNK,6 ESE REDSTONE ARSENAL,MADISON,AL,34.65,-86.57,A TREE WAS KNOCKED DOWN ONTO A HOME AT WEATHERLY ROAD NEAR MEMORIAL PARKWAY. (HUN)
0840,60,7 ESE FARMINGDALE,PENNINGTON,SD,43.93,-102.76,(UNR)
0940,60,7 ESE FARMINGDALE,PENNINGTON,SD,43.93,-102.76,(UNR)
1030,60,MANDERSON,SHANNON,SD,43.24,-102.47,(UNR)
1037,UNK,1 SW HEBRON CENTER,POTTER,PA,41.87,-78.03,TREES DOWN. (CTP)
1039,UNK,3 SSW AUSTIN,POTTER,PA,41.6,-78.12,TREES DOWN. (CTP)
Time,Size,Location,County,State,Lat,Lon,Comments
1418,100,8 NE HUBBELL,THAYER,NE,40.09,-97.39,QUARTER HAIL. (GID)
1505,175,3 NNE BYRON,THAYER,NE,40.05,-97.75,REPORT VIA SOCIAL MEDIA. TIME AND LOCATION CORRECTED FROM ORIGINAL REPORT OF OCCURRING IN DESHLER. (GID)
1520,175,DESHLER,THAYER,NE,40.14,-97.72,REPORT VIA SOCIAL MEDIA (GID)
1534,125,3 N HUBBELL,THAYER,NE,40.05,-97.5,REPORT VIA SOCIAL MEDIA (GID)
1550,100,1 W REYNOLDS,JEFFERSON,NE,40.06,-97.35,(OAX)
1625,100,6 W FAIRBURY,JEFFERSON,NE,40.14,-97.29,(OAX)
1640,150,FAIRBURY,JEFFERSON,NE,40.14,-97.18,(OAX)
1658,100,4 NNE BREMEN,MARSHALL,KS,39.95,-96.75,(TOP)
1707,175,HEBRON,THAYER,NE,40.17,-97.59,IN TOWN. (GID)
1715,250,5 S FAIRBURY,JEFFERSON,NE,40.07,-97.18,HAIL LASTED FOR 10 MINUTES. ALSO 2.94 OF RAIN SINCE 7 AM. LATE REPORT. (OAX)
1745,250,STEELE CITY,JEFFERSON,NE,40.04,-97.02,RELAYED BY NSSL SHAVE PROJECT. (OAX)
1800,100,4 W ALEXANDRIA,THAYER,NE,40.25,-97.46,(GID)
1824,175,HOLLENBURG,WASHINGTON,KS,39.98,-96.99,(TOP)
1855,100,DINGMANS FERRY,PIKE,PA,41.22,-74.88,(BGM)
1907,175,FOLEY,BALDWIN,AL,30.41,-87.68,GOLF BALL SIZE HAIL REPORTED IN FOLEY ALONG WITH HIGH WINDS. (MOB)
1953,100,3 NNE GRAND BAY,MOBILE,AL,30.51,-88.32,BROADCAST MEDIA REPORTED NICKEL TO QUARTER SIZE HAIL AT MOBILE INTERNATIONAL SPEEDWAY. (MOB)
2005,100,CORINTH,PRESTON,WV,39.42,-79.49,1.00 INCH HAIL IN CORINTH (PBZ)
2005,100,SHIREMANSTOWN,CUMBERLAND,PA,40.22,-76.96,(CTP)
2009,100,ALFORD,BERKSHIRE,MA,42.24,-73.41,TIME ESTIMATED BY RADAR. (ALY)
2024,100,WEST STOCKBRIDGE,BERKSHIRE,MA,42.35,-73.37,(ALY)
2119,100,5 E MAULDIN,GREENVILLE,SC,34.8,-82.22,QUARTER SIZE HAIL ON SCUFFLETOWN ROAD. (GSP)
2121,100,1 NNW TIMONIUM,BALTIMORE,MD,39.46,-76.63,QUARTER SIZE HAIL NEAR INTERSECTION OF YORK RD AND E PADONIA RD (LWX)
2125,100,2 SSE PLYMOUTH,GRAFTON,NH,43.73,-71.67,(GYX)
2136,125,1 SW OWINGS MILLS,BALTIMORE,MD,39.4,-76.81,HAIL SLIGHTLY LARGER THAN THE SIZE OF QUARTERS REPORTED. (LWX)
2136,400,2 NNE TIMONIUM,BALTIMORE,MD,39.46,-76.61,(LWX)
2137,100,1 ENE SUMMIT POINT,JEFFERSON,WV,39.25,-77.94,QUARTER SIZE HAIL (LWX)
2139,100,WRENTHAM,NORFOLK,MA,42.07,-71.33,NEAR WRENTHAM FIRE DEPARTMENT (BOX)
2141,100,4 WNW ARLINGTON,DUVAL,FL,30.36,-81.67,1 INCH HAIL REPORTED NEAR GOLFAIR AND INTERSTATE 95. (JAX)
2207,175,1 SSW COCKEYSVILLE,BALTIMORE,MD,39.46,-76.64,GOLF BALL SIZE HAIL ONGOING AT THIS TIME (LWX)
2228,100,2 E LEESBURG,LOUDOUN,VA,39.1,-77.52,QUARTER SIZE HAIL (LWX)
2240,175,GLEN COVE,NASSAU,NY,40.87,-73.64,(OKX)
2245,100,1 ESE SAINT ANDREWS,RICHLAND,SC,34.04,-81.09,MULTIPLE REPORTS FROM SOCIAL MEDIA OF NICKEL TO QUARTER SIZED HAIL NEAR I20 AND BROAD RIVER ROAD. (CAE)
2245,100,HUNTINGTON,SUFFOLK,NY,40.88,-73.41,(OKX)
2255,100,2 W KEYSTONE,MCDOWELL,WV,37.41,-81.48,QUARTER SIZE HAIL REPORTED. (RLX)
0122,100,12 SW FORDER,LINCOLN,CO,38.56,-103.87,(BOU)
0130,100,2 NE MURFREESBORO,RUTHERFORD,TN,35.88,-86.36,DIME TO QUARTER SIZE HAIL REPORTED 1 MILE EAST OF MURFREESBORO AIRPORT (OHX)
0133,100,6 NW WILD HORSE POINT,LINCOLN,CO,38.63,-103.58,(BOU)
0415,175,10 E BUFFALO,JOHNSON,WY,44.35,-106.52,HAIL KNOCKED OUT A HOUSE WINDOW. (RIW)
0440,100,20 E BUFFALO,JOHNSON,WY,44.31,-106.32,(RIW)
0520,175,7 N DOWNTOWN GILLETTE,CAMPBELL,WY,44.39,-105.5,(UNR)
0542,100,HARVEST,MADISON,AL,34.86,-86.75,QUARTER SIZE HAIL (HUN)
0545,100,12 SW DOWNTOWN GILLETTE,CAMPBELL,WY,44.17,-105.67,(UNR)
0600,175,3 E ROCKYPOINT,CROOK,WY,44.9,-105.04,MULTIPLE WINDOWS BROKEN... SIDING DAMAGED ON HOUSE... LASTED 15 MINUTES (UNR)
0620,100,21 SE DOWNTOWN GILLETTE,CAMPBELL,WY,44.08,-105.2,(UNR)
0620,100,10 ENE RECLUSE,CAMPBELL,WY,44.8,-105.52,(UNR)
0630,175,7 ESE ROCKYPOINT,CROOK,WY,44.86,-104.97,(UNR)
0655,100,4 S DOWNTOWN RAPID CITY,PENNINGTON,SD,44.02,-103.23,(UNR)
0703,100,1 ESE PACTOLA RESERVOIR,PENNINGTON,SD,44.06,-103.48,(UNR)
0710,100,12 W UPTON,WESTON,WY,44.1,-104.87,(UNR)
0726,175,HISEGA,PENNINGTON,SD,44.05,-103.4,(UNR)
0753,100,8 SSE DOWNTOWN RAPID CI,PENNINGTON,SD,43.97,-103.16,(UNR)
0823,100,DOWNTOWN NEWCASTLE,WESTON,WY,43.85,-104.2,(UNR)
0830,100,12 NNW HAY SPRINGS,SHERIDAN,NE,42.84,-102.78,ESTIMATED TIME OF 230 AM MDT. (LBF)
0832,100,2 E KIRON,CRAWFORD,IA,42.2,-95.29,(DMX)
0835,100,6 N GORDON,SHERIDAN,NE,42.89,-102.2,(LBF)
0840,100,5 SSE ODEBOLT,SAC,IA,42.24,-95.22,(DMX)
0845,100,OELRICHS,FALL RIVER,SD,43.18,-103.23,(UNR)
0930,100,PRINGLE,CUSTER,SD,43.61,-103.59,(UNR)
0935,100,6 N GORDON,SHERIDAN,NE,42.89,-102.2,(LBF)
0951,175,6 NE GORDON,SHERIDAN,NE,42.87,-102.12,ALSO HAD 1 TO 1.5 INCHES OF RAIN. (LBF)
1030,175,MANDERSON,SHANNON,SD,43.24,-102.47,(UNR)
1037,150,COLSTRIP,ROSEBUD,MT,45.88,-106.62,(BYZ)
1045,100,PINE RIDGE,SHANNON,SD,43.03,-102.56,(UNR)
1125,100,18 SW VOLBORG,POWDER RIVER,MT,45.67,-105.9,TRAINED SPOTTER REPORTED QUARTER-SIZE HAIL. (BYZ)
