Time,F_Scale,Location,County,State,Lat,Lon,Comments
Time,Speed,Location,County,State,Lat,Lon,Comments
1514,UNK,3 SSE FREEPORT,WALTON,FL,30.46,-86.12,TREES DOWN ON OLD JOLLY BAY RD. (TAE)
1726,UNK,3 NNE PELHAM,MITCHELL,GA,31.17,-84.14,TREE DOWN AT THE INTERSECTION OF HIGHWAY 19 AND MICROWAVE ROAD. (TAE)
1753,UNK,4 SSW MOULTRIE,COLQUITT,GA,31.13,-83.81,SEVERAL TREES AND POWERLINES DOWN ON LOWER MEIGS RD. (TAE)
1825,UNK,TIFTON,TIFT,GA,31.45,-83.51,MULTIPLE TREES AND POWER LINES DOWN. TIME ESTIMATED FROM RADAR. (TAE)
2334,UNK,7 S VINCENNES,KNOX,IN,38.57,-87.51,TREE LIMB DOWN ON AIRPORT ROAD. ESTIMATED 50 MPH WIND. (IND)
Time,Size,Location,County,State,Lat,Lon,Comments
