Time,F_Scale,Location,County,State,Lat,Lon,Comments
Time,Speed,Location,County,State,Lat,Lon,Comments
1209,UNK,15 NW LAWRENCEBURG,LAWRENCE,TN,35.4,-87.53,A LARGE TREE FELL ON A FENCE AND SEVERAL BRANCHES WERE DOWN ALONG THE NATCHEZ TRACE. (OHX)
1648,UNK,9 SW GAINESVILLE,Alachua,FL,29.58,-82.43,FLORIDA STATE WATCH OFFICE RELAYED A REPORT FROM THE ALACHUA COUNTY SHERIFFS OFFICE OF A DOWNED TREE ALONG STATE ROAD 24 NEAR THE INTESECTION OF 91ST STREET SOUTH THAT (JAX)
1715,UNK,3 N DELWIN,ISABELLA,MI,43.74,-84.69,A FEW TREES DOWN IN THE AREA BLOCKING ROADS. ALSO A COUPLE TREES DOWN ACROSS ROADS IN THE SOUTHERN PART OF THE COUNTY. TIME ESTIMATED FROM RADAR. (GRR)
1830,UNK,1 NW SALTILLO,FAULKNER,AR,35.04,-92.34,TREES WERE BLOWN DOWN NEAR THE NORTH SHORE OF LAKE CONWAY. (LZK)
1843,UNK,5 NNE LYNCHBURG CITY,AMHERST,VA,37.48,-79.1,TREE AND OTHER LARGE BRANCHES DOWN AT AND NEAR 215 ABBITTS DRIVE. REPORT RELAYED BY LOCAL MEDIA. (RNK)
1855,UNK,VALENTINE,CHERRY,NE,42.87,-100.55,REPORT OF A 14 INCH TREE SPLIT IN HALF. REPORTS OF POWER OUTAGES WITH DOWNED POWER POLES. (LBF)
1900,UNK,MANSFIELD,WRIGHT,MO,37.11,-92.58,TREE LIMBS DOWN AND PEA SIZED HAIL IN THE MANSFIELD AREA. PICTURES RELAYED BY A AMATEUR RADIO OPERATOR. TIME APPROXIMATE BASED ON RADAR. (SGF)
1915,UNK,PLEASANT HOPE,POLK,MO,37.46,-93.27,SEVERE THUNDERSTORM WIND GUSTS DAMAGED TREES AND SOME POWER POLES. (SGF)
1915,UNK,2 ENE HUNTINGTON,HUNTINGTON,IN,40.89,-85.48,FIBER OPTIC LINE DOWN. (IWX)
1940,UNK,2 NE DOGWOOD,GRANT,AR,34.26,-92.49,TREES DOWN AND BLOCKING THE HIGHWAY ALONG AR-46 SOUTH NEAR CR-4670. TIME ESTIMATED FROM RADAR. (LZK)
1958,UNK,1 WNW CHUNKY,NEWTON,MS,32.33,-88.95,TREE DOWN ALONG RIDGE ROAD ON THE WEST SIDE OF CHUNKY. WINDS WERE SUB-SEVERE. (JAN)
2002,UNK,3 W LOMONTVILLE,ULSTER,NY,41.89,-74.18,TREE AND WIRES DOWN ON PEAK ROAD (ALY)
2010,UNK,FAYETTEVILLE,WASHINGTON,AR,36.06,-94.16,TREE DAMAGE REPORTED NEAR HOLCOMB ELEMENTARY. PHOTOS RELAYED VIA BROADCAST MEDIA SOCIAL MEDIA ACCOUNT. (TSA)
2012,UNK,2 SSE ROSE CENTER,OAKLAND,MI,42.71,-83.61,20 INCH DIAMETER TREE DOWNED ACROSS MILFORD RD. (DTX)
2014,UNK,FORT GRATIOT,ST. CLAIR,MI,43.01,-82.43,TWO TREES DOWNED AND POWER LINES DOWN NEAR THE 5000 BLOCK OF STATE RD. (DTX)
2018,UNK,1 SE LOMONTVILLE,ULSTER,NY,41.88,-74.11,TREE DOWNED ON WIRES ON MARCOTT ROAD (ALY)
2029,UNK,9 SW WHITE HALL,JEFFERSON,AR,34.19,-92.21,SPOTTER REPORTS TREES DOWN NEAR THE INTERSECTION OF LEE SPRINGS ROAD AND PROVIDENCE ROAD. (LZK)
2031,UNK,1 SE CABELL,WAYNE,KY,36.82,-84.99,LARGE TREE BRANCH DOWN NEAR THE INTERSECTION OF LOGAN BARNES ROAD AND HIGHWAY 1546. RELAYED VIA TWITTER. (JKL)
2036,59,1 NNE PORT HURON,ST. CLAIR,MI,43.01,-82.42,59 MPH WIND GUST MEASURED AT FORT GRATIOT LIGHT STATION. (DTX)
2036,UNK,ROCHESTER,MONROE,NY,43.17,-77.62,WIRE DOWN ON GARLAND AVE. (BUF)
2040,UNK,2 NE DOGWOOD,GRANT,AR,34.26,-92.49,TREES DOWN AND BLOCKING THE HIGHWAY ALONG AR-46 SOUTH NEAR CR-4670. TIME ESTIMATED FROM RADAR. (LZK)
2049,UNK,4 NNE KOSCIUSKO,ATTALA,MS,33.11,-89.57,TREE DOWN ALONG HWY 43 N. ESTIMATED SUB-SEVERE WIND. (JAN)
2055,UNK,2 ENE OLD SOMERSET,ORANGE,VA,38.23,-78.18,TREE REPORTED DOWN IN THE MONTPELIER AREA (LWX)
2102,UNK,WEBSTER,MONROE,NY,43.21,-77.43,DELAYED REPORT. A COUPLE REPORTS OF DOWNED POWERLINES IN TOWN. (BUF)
2104,UNK,POMONA,HOWELL,MO,36.87,-91.91,SEVERE THUNDERSTORM WIND GUSTS DAMAGED A SIGN AND SOME AWNING PANELS AT A GAS STATION. (SGF)
2120,UNK,2 NE NEWARK,WAYNE,NY,43.06,-77.07,TREE ON HOUSE. (BUF)
2121,UNK,MCADAMS,ATTALA,MS,33.02,-89.69,TREE DOWN ALONG HWY 12 WEST. (JAN)
2123,UNK,2 NE RUTLEDGE,GRAINGER,TN,36.29,-83.5,COUPLE OF TREES DOWN NEAR RUTLEDGE AND TO THE NORTHEAST BETWEEN RUTLEDGE AND BEAN STATION. (MRX)
2126,UNK,UNIONVILLE,ORANGE,VA,38.26,-77.97,TREE REPORTED DOWN IN UNIONVILLE AREA (LWX)
2148,UNK,5 NNE LYNCHBURG CITY,AMHERST,VA,37.48,-79.11,SEVERAL TREES DOWN ON AND AROUND HOUSE AT 257 DIXIE AIRPORT ROAD. TIME ESTIMATED FROM RADAR. (RNK)
2148,UNK,1 N POINTS,HAMPSHIRE,WV,39.46,-78.61,MANY TREES DOWN NEAR LAKE FERNDALE. 200-300 WITHOUT POWER. (LWX)
2158,UNK,ROSE,WAYNE,NY,43.15,-76.88,TREES AND WIRES DOWN ON CATCHPOLE ROAD. (BUF)
2215,UNK,3 SE MADISON,MADISON,MS,32.42,-90.08,A SAILBOAT ON ROSS BARNETT RESERVOIR WAS DAMAGED. TWO OCCUPANTS WERE IN DISTRESS BUT WERE NOT INJURED. (JAN)
2222,UNK,1 ENE FLINTON,CAMBRIA,PA,40.72,-78.49,A FEW DOWNED TREES AND POWER LINES... ONE OF WHICH FELL ON A VEHICLE ON THE 800 BLOCK OF GILL HOLLOW RD. (CTP)
2240,UNK,1 E GIRARD,CRAWFORD,KS,37.51,-94.82,SEVERE THUNDERSTORM WIND GUSTS DOWNED TREES ON THE EAST SIDE OF GIRARD. LAW ENFORCEMENT ESTIMATED 70 MPH WIND GUSTS... AND ALSO OBSERVED NICKEL SIZED HAIL. (SGF)
2247,UNK,MEADVILLE,CRAWFORD,PA,41.65,-80.15,NUMEROUS TREES DOWN ACROSS THE CITY. (CLE)
2252,UNK,5 WNW MADISON,MADISON,MS,32.48,-90.18,TREE DOWN ACROSS THE ROAD. (JAN)
2300,UNK,MORAVIA,CAYUGA,NY,42.71,-76.42,MULTIPLE REPORTS OF TREES AND WIRES DOWN MORAVIA... WEST NILES AND NEW HOPE AREAS. (BGM)
2305,72,7 ESE ROSEBUD,TODD,SD,43.2,-100.72,(UNR)
2315,76,GORDON,SHERIDAN,NE,42.81,-102.2,SUSTAIN AT 54MPH (LBF)
2325,UNK,ADVANCE,STODDARD,MO,37.1,-89.91,SPOTTER WENT AROUND TOWN. SAW SEVERAL LIMBS DOWN. SOME POWER OUTAGES. ONE TREE DOWN. TRUCKING BUSINESS ON THE WEST SIDE OF TOWN HAD DAMAGE TO ITS WINDOWS AND A DOOR. (PAH)
2342,70,6 SE GORDON,SHERIDAN,NE,42.74,-102.12,ESTIMATED 70 MPH WIND GUSTS WITH STORM. POWER IS OUT. (LBF)
2345,UNK,7 E BUDE,FRANKLIN,MS,31.44,-90.74,TREES AND POWER LINES DOWN NEAR THE INTERSECTION OF LOWER WATER BRIDGE RD AND BOGUE CHITTO RD. (JAN)
2357,60,7 E MISSION,TODD,SD,43.31,-100.53,(UNR)
0002,UNK,1 E ENTERPRISE,WARREN,PA,41.63,-79.57,1 TREE DOWN AT INTERSECTION OF ROUTE 27 AND ENTERPRISE RD (CTP)
0004,UNK,VALENTINE,CHERRY,NE,42.87,-100.55,A 1 TO 2 FOOT DIAMETER TREE BLOWN OVER IN TOWN. (LBF)
0010,80,VALENTINE,CHERRY,NE,42.87,-100.55,ESTIMATED WIND GUST OF 70 TO 80 MPH WINDS BASED ON WIND DAMAGE. NUMEROUS LARGE TREES DOWN WITH PICTURES SENT BY OUR COOP OBSERVER. (LBF)
0015,UNK,1 NE TABERG,ONEIDA,NY,43.31,-75.6,TREE DOWN ON COAL HILL ROAD. (BGM)
0030,UNK,ROME,ONEIDA,NY,43.23,-75.49,TREE DOWN ON JERVIS AVE NEAR CEMETARY. (BGM)
0035,UNK,EXCELSIOR CORNER,WARREN,PA,41.69,-79.48,UPROOTED TREE NEAR THE INTERSECTION OF TOWER LANE AND CAMPBELL HILL RD (CTP)
0035,UNK,GORDON,SHERIDAN,NE,42.81,-102.2,THREE LARGE TREES DOWN IN TOWN FROM STRONG WINDS (LBF)
0040,UNK,TRENTON,ONEIDA,NY,43.28,-75.18,TREE DOWN ON COOMBS ROAD NEAR HUGHES ROAD. (BGM)
0042,UNK,1 S BIRDIE,SPALDING,GA,33.3,-84.36,A TREE WAS REPORTED DOWN NEAR THE INTERSECTION OF FAYETTEVILLE ROAD AND CHEATHAM ROAD. (FFC)
0043,60,14 SE VALENTINE,CHERRY,NE,42.73,-100.35,WIND ESTIMATED AT 50 TO 60 MPH. (LBF)
0045,UNK,1 SSE MATTHEWS RUN,WARREN,PA,41.88,-79.34,SEVERAL LIMBS DOWN IN THE 2400 BLOCK OF MATHEWS RUN RD (CTP)
0055,UNK,JAMESTOWN,CHAUTAUQUA,NY,42.1,-79.24,TREES DOWN. (BUF)
0120,UNK,8 WNW ROCKY SPRINGS,WARREN,MS,32.14,-90.93,MULTIPLE TREES DOWN ACROSS THE SOUTHERN PORTION OF THE COUNTY. (JAN)
0120,60,5 NE MILFORD,OAKLAND,MI,42.64,-83.53,ESTIMATED 50-60 MPH WIND GUST. (DTX)
0130,UNK,1 SSE JOBS CORNERS,TIOGA,PA,41.92,-76.92,TREES DOWN ON WIRES ALONG ROUTE 549 (CTP)
0202,UNK,3 E ALDEN,GENESEE,NY,42.9,-78.43,TREE DOWN ON HARLOW RD (BUF)
0215,UNK,ARNOT,TIOGA,PA,41.66,-77.12,TREE DOWN ON 700 BLOCK OF LOWER ARNOT RD IN BLOSSBURG TOWNSHIP (CTP)
0355,58,10 SSW DUGWAY,TOOELE,UT,40.11,-112.81,DURAND ROAD WIND SESNOR ON THE DUGWAY PROVING GROUNDS MEASURED A PEAK WIND GUST OF 58 MPH (SLC)
0405,58,9 N LAKESIDE,BOX ELDER,UT,41.33,-112.85,GUNNISON ISLAND UUNET SENSOR (SLC)
0424,64,THEDFORD,THOMAS,NE,41.98,-100.57,(LBF)
0430,UNK,MELBETA,SCOTTS BLUFF,NE,41.78,-103.52,LARGE TREE LIMBS DOWN IN MELBETA. REPORT RECEIVED VIA TWITTER. (CYS)
0530,60,CROOK,LOGAN,CO,40.86,-102.8,CORRECTS PREVIOUS TSTM WND GST REPORT FROM CROOK. 0.95 INCHES OF RAIN WITH THE STORM. (BOU)
0540,58,5 SSW WEST VALLEY CITY,SALT LAKE,UT,40.64,-112.06,BACCUS/SR111 UDOT SENSOR MEASURED 58 MPH WIND GUST (SLC)
Time,Size,Location,County,State,Lat,Lon,Comments
1745,100,MIKADO,ALCONA,MI,44.57,-83.42,RELAYED REPORT OF QUARTER SIZED HAIL DAMAGING GARDEN. TIME ESTIMATED FROM RADAR. (APX)
2215,100,1 E GIRARD,CRAWFORD,KS,37.51,-94.81,QUARTER-SIZED HAIL ESTIMATED NEAR CRAWFORD HILLS GOLF COURSE; DELAYED REPORT. (SGF)
2225,150,7 ESE DOWNTOWN CUSTER,CUSTER,SD,43.72,-103.48,(UNR)
2236,175,5 S HILL CITY,PENNINGTON,SD,43.86,-103.58,DELAYED REPORT. TIME ESTIMATED FROM RADAR. SPOTTER LA33. (UNR)
2240,100,1 E GIRARD,CRAWFORD,KS,37.51,-94.81,CORRECTS PREVIOUS HAIL REPORT FROM 1 E GIRARD. QUARTER-SIZED HAIL ESTIMATED NEAR CRAWFORD HILLS GOLF COURSE; DELAYED REPORT. (SGF)
2335,100,NATRONA COUNTY AIRPORT,NATRONA,WY,42.9,-106.46,QUARTER SIZED HAIL WAS REPORTED. (RIW)
2356,100,5 WSW RUSHVILLE,SHERIDAN,NE,42.69,-102.56,PEA TO QUARTER SIZE HAIL... LOTS OF RAIN. (LBF)
0004,100,VALENTINE,CHERRY,NE,42.87,-100.55,(LBF)
0119,100,9 SW WOOD LAKE,CHERRY,NE,42.55,-100.36,(LBF)
0132,100,4 N PARKER,DOUGLAS,CO,39.56,-104.75,(BOU)
0145,175,NEW RAYMER,WELD,CO,40.61,-103.84,(BOU)
