Time,F_Scale,Location,County,State,Lat,Lon,Comments
2000,UNK,4 N AVA,DOUGLAS,MO,37.01,-92.66,NWS STORM SURVEY DETERMINED A 100 YARD WIDE EF0 TORNADO DOWNED TREES FROM FOUR MILES NORTH OF AVA TO MT. ZION. (SGF)
2005,UNK,5 NNE AVA,DOUGLAS,MO,37.02,-92.64,A NWS STORM SURVEY CONFIRMED A 100 YARD WIDE EFO HAD DOWNED TREES AND POWERLINES BEGINNING JUST WEST OF THE INTERSECTION OF COUNTY ROADS 102 AND 101 THEN NORTHWARD ALON (SGF)
2040,UNK,2 ESE FARRAGUT,LYCOMING,PA,41.28,-76.87,AN EF1 TORNADO WAS CONFIRMED NORTH OF MONTOURSVILLE. NUMEROUS SNAPPED AND UPROOTED TREES AND SEVERAL DAMAGED OUTBUILDINGS ALONG THE 1800-2000 BLOCK OF QUAKER STATE ROAD (CTP)
2055,UNK,SELINSGROVE,SNYDER,PA,40.8,-76.87,AN EF0 TORNADO WAS CONFIRMED ON THE SOUTHERN SIDE OF SELINSGROVE BOROUGH. THERE WAS SOME TREE AND CROP DAMAGE WITH SOME TREES BEING SNAPPED AND OTHER UPROOTED. (CTP)
2208,UNK,7 NE TAHLEQUAH,CHEROKEE,OK,35.99,-94.88,NWS STORM SURVEY CONFIRMED TORNADO TRAVELED NE INTO ADAIR CO. DETAILS TO FOLLOW TOMORROW. (TSA)
2240,UNK,TILDEN TWP,BERKS,PA,40.53,-76.04,*** 1 INJ *** EF-1 TORNADO WITH MAXIMUM WINDS OF 105 MPH CONFIRMED IN TILDEN TOWNSHIP. CATASTROPHIC DAMAGE TO THE BLUE MOUNTAIN ELEMENTARY SCHOOL. (PHI)
2255,UNK,GENTRY,BENTON,AR,36.27,-94.48,VIDEO FOOTAGE OF TORNADO NEAR GENTRY WEST OF MCKEY FOODS. TIME ESTIMATED BY RADAR. (TSA)
2350,UNK,MINQUADALE,NEW CASTLE,DE,39.71,-75.57,EF-0 TORNADO WITH MAXIMUM WINDS OF 65 MPH CONFIRMED IN MINQUADALE. SEVERAL BUILDINGS DAMAGED. (PHI)
Time,Speed,Location,County,State,Lat,Lon,Comments
1650,UNK,1 W FORAKER,MAGOFFIN,KY,37.66,-83.16,TREE DOWN ON RT. 1397 AT CRAFTS FORK OFF OF HWY 30. (JKL)
1653,UNK,2 NNW MUNFORDVILLE,HART,KY,37.3,-85.91,TWO TREES DOWN NORTH OF MUNFORDVILLE. (LMK)
1658,UNK,3 SE ALLENDALE,GREEN,KY,37.33,-85.55,A TREE WAS DOWNED ON HIGHWAY 61 IN SUMMERSVILLE. OTHER TREES WERE DOWNED IN GREENSBURG. (LMK)
1715,UNK,1 SW CAMPBELLSVILLE,TAYLOR,KY,37.34,-85.36,TREES DOWN IN CAMPBELLSVILLE. (LMK)
1735,UNK,HODE,MARTIN,KY,37.89,-82.43,TREE DOWN ON LITTLE ELK OF HODE ROAD. (JKL)
1737,UNK,3 W LIBERTY,CASEY,KY,37.32,-84.99,TREES DOWN ON HIGHWAY 1547. ALSO TREE DOWN ON HIGHWAY 70 EAST. (LMK)
1744,UNK,CARMICHAELS,GREENE,PA,39.9,-79.98,TREES DOWN ON TOWNSHIP ROAD IN AREA OF RT 101 IN CUMBERLAND TWP (PBZ)
1750,UNK,2 E KINGS MOUNTAIN,LINCOLN,KY,37.37,-84.66,TREES DOWN ACROSS HIGHWAY 127 NEAR KINGS MOUNTAIN. (LMK)
1754,UNK,1 SSW LAMBERTON,FAYETTE,PA,39.9,-79.89,TREES DOWN (PBZ)
1755,UNK,EUBANK,PULASKI,KY,37.28,-84.65,TREES DOWN ON HIGHWAY 27 NEAR EUBANK. REPORT VIA TWITTER. (JKL)
1755,UNK,MORGANTOWN,MONONGALIA,WV,39.64,-79.95,WIRES DOWN (PBZ)
1755,UNK,PUNXSUTAWNEY,JEFFERSON,PA,40.94,-78.98,TREE DOWN AT GREENWOOD AVE AND E MAHONING ST (PBZ)
1802,UNK,BRODHEAD,ROCKCASTLE,KY,37.4,-84.42,MULTIPLE TREES AND POWER LINES DOWN IN BRODHEAD. (JKL)
1806,UNK,1 NNE CRAB ORCHARD,LINCOLN,KY,37.47,-84.5,TREES DOWNED. (LMK)
1812,UNK,GUM SPRING,MONONGALIA,WV,39.52,-79.91,TREES DOWN ON HOUSE AT RT 119 AND GUM SPRINGS RD (PBZ)
1820,UNK,1 SW DUNBAR,FAYETTE,PA,39.96,-79.63,LARGE TREE BLOCKING PEACHEN ROAD (PBZ)
1821,UNK,BEREA,MADISON,KY,37.58,-84.29,POWER LINE DOWN IN BEREA AREA. POWER OUTAGES IN THE AREA OF 52W AND KY 595. (LMK)
1821,UNK,BRUCETON MILLS,PRESTON,WV,39.66,-79.65,TREE DOWN (PBZ)
1821,UNK,1 SSW BELLS,WESTMORELAND,PA,40.24,-79.27,TREES DOWN (PBZ)
1832,UNK,GRAY HAWK,JACKSON,KY,37.39,-83.94,LARGE TREE UPROOTED AND FELL ONTO A FENCE. REPORT VIA TWITTER. (JKL)
1835,UNK,HODE,MARTIN,KY,37.89,-82.43,TREE DOWN ON LITTLE ELK OF HODE ROAD. (JKL)
1836,UNK,CADDELL,PRESTON,WV,39.46,-79.65,TREE DOWN (PBZ)
1844,UNK,TRAVELLERS REST,OWSLEY,KY,37.45,-83.79,BROKEN POWER POLE REPORTED DUE TO THUNDERSTORM WINDS. (JKL)
1850,UNK,SANDHILL,ESTILL,KY,37.73,-84.02,TREE DOWN ON POWER LINE IN THE 2400 SECTION OF SANDHILL. (JKL)
1852,UNK,2 ESE BROOKSIDE,PRESTON,WV,39.32,-79.5,TREE DOWN (PBZ)
1900,UNK,BEATTYVILLE,LEE,KY,37.58,-83.71,TREES DOWN BLOCKING HIGHWAYS 1144 AND 587 JUST OUTSIDE OF TOWN. (JKL)
1905,UNK,WOLF COAL,BREATHITT,KY,37.4,-83.38,TREE DOWN ON HWY 1110. (JKL)
1908,UNK,CHENOWEE,BREATHITT,KY,37.54,-83.48,TREES DOWN BLOCKING HIGHWAY 52 AT CHENOWEE HILL. (JKL)
1910,UNK,CAMPTON,WOLFE,KY,37.74,-83.55,TREE DOWN ON HWY 191 ON TOWN HILL. (JKL)
1927,UNK,ROUSSEAU,BREATHITT,KY,37.59,-83.23,MULTIPLE TREES DOWN AS WELL AS POWER LINES ON RT. 30. (JKL)
1943,UNK,1 E ORDWAY,MAGOFFIN,KY,37.59,-82.94,SEVERAL TREES DOWN OFF OF RT 7 ON RT 404. (JKL)
1944,UNK,SALYERSVILLE,MAGOFFIN,KY,37.75,-83.06,TREES DOWN IN SALYERSVILLE. (JKL)
1959,UNK,PRESTONSBURG,FLOYD,KY,37.67,-82.77,TREE DOWN ON HWY 321. (JKL)
2001,UNK,HAROLD,FLOYD,KY,37.54,-82.63,TREE DOWN ON TOLERS CREEK IN THE HAROLD COMMUNITY. (JKL)
2002,UNK,5 NNE AVA,DOUGLAS,MO,37.02,-92.64,TREES AND POWERLINES REPORTED DOWN AT HIGHWAY 5 AND COUNTY ROAD 102 NORTH OF AVA. (SGF)
2010,UNK,1 NW HORATIO,JEFFERSON,PA,40.94,-79.03,TREES DOWN BLOCKING NO. 8 RD (PBZ)
2012,UNK,3 NW PIKEVILLE,PIKE,KY,37.51,-82.55,2 TREES DOWN ON ISLAND CREEK ROAD NEAR PIGEON. (JKL)
2015,UNK,VIRGIE,PIKE,KY,37.33,-82.58,TREE DOWN ON HOLLINS HWY. (JKL)
2018,UNK,3 N THEODOSIA,OZARK,MO,36.63,-92.68,TREE BLOCKING HWY 95 NORTH OF THEODOSIA. (SGF)
2019,UNK,3 NW GRADYVILLE,ADAIR,KY,37.12,-85.45,TREE ON A TELEPHONE LINE (LMK)
2030,UNK,4 WSW SOMERSET,PULASKI,KY,37.05,-84.68,A TREE DOWN ON HWY 1001 ON BOAT DOCK ROAD NEAR SARDIS. (JKL)
2030,UNK,2 SW LENORE,MINGO,WV,37.78,-82.31,TREES DOWN ALONG RTE 52 (RLX)
2038,UNK,3 N GAINESVILLE,OZARK,MO,36.65,-92.43,TREE ACROSS HWY 181 NORTH OF GAINESVILLE. (SGF)
2040,UNK,MONTOURSVILLE,LYCOMING,PA,41.25,-76.92,TREES AND WIRES DOWN IN 1800-2000 BLOCK OF QUAKER STATE ROAD. MANY FRUIT TREES DOWN AT NEARBY FARM. (CTP)
2045,UNK,DINGESS,MINGO,WV,37.87,-82.17,MULTIPLE TREES DOWN. POWER POLES AND LINES DOWN. POWER OUT. (RLX)
2050,UNK,FAYETTEVILLE,FRANKLIN,PA,39.91,-77.57,TREES DOWN IN EASTERN FRANKLIN COUNTY. (CTP)
2054,UNK,MAN,LOGAN,WV,37.74,-81.87,MULTIPLE TREES DOWN. (RLX)
2055,UNK,GILBERT,MINGO,WV,37.61,-81.87,MULTIPLE TREES DOWN. POWER POLES AND LINES DOWN. POWER OUT. (RLX)
2055,UNK,SELINSGROVE,SNYDER,PA,40.8,-76.87,TREES DOWN ON FRONT STREET. (CTP)
2056,UNK,1 SSW RUSSELL SPRINGS,RUSSELL,KY,37.03,-85.09,ROOF BLOWN OFF OF A BARN. (LMK)
2100,UNK,CHAPMANVILLE,LOGAN,WV,37.97,-82.02,MULTIPLE TREES DOWN (RLX)
2103,63,ELY AIRPORT,WHITE PINE,NV,39.3,-114.85,ASOS STATION ELY AIRPORT ASOS /ELY/ (LKN)
2103,UNK,3 SW WENKSVILLE,ADAMS,PA,39.96,-77.35,TREES DOWN ON SHIPPENSBURG ROAD AND POTATO ROAD IN MENALLEN TOWNSHIP. (CTP)
2108,UNK,CYCLONE,WYOMING,WV,37.73,-81.69,POWER OUT IN CYCLONE (RLX)
2110,UNK,3 SW WEST PLAINS,HOWELL,MO,36.7,-91.89,TREE DOWN ON AB HIGHWAY. (SGF)
2115,UNK,NATCHEZ,NATCHITOCHES,LA,31.67,-93.05,POWER LINES DOWN AND POWER POLES DOWN ON HWY 1 SOUTH. THE POWER POLES AND POWER LINES ARE ACROSS THE RAILROAD TRACKS. (SHV)
2120,UNK,1 ENE FAUBUSH,PULASKI,KY,37.07,-84.8,TREE DOWN ON HWY 1664. (JKL)
2120,UNK,DILLSBURG,YORK,PA,40.11,-77.03,TREES AND WIRES DOWN ON GROVE ROAD AND SOUTH FILEYS ROAD. (CTP)
2120,UNK,CHURCHTOWN,CUMBERLAND,PA,40.17,-77.08,TREES DOWN. (CTP)
2124,UNK,NAOMA,RALEIGH,WV,37.87,-81.49,TWO TREES DOWN ON HORSECREEK RD (RLX)
2125,UNK,1 NNW PHENIX CITY,RUSSELL,AL,32.48,-85.02,ONE TREE DOWN ON A SHED ON 18TH AVE BEHIND THE LIBRARY. WINDS ESTIMATED AT 40-50 MPH. TIME ESTIMATED FROM RADAR. (BMX)
2128,UNK,2 NNW MOUNTAIN VIEW,HOWELL,MO,37.02,-91.72,TREES UPROOTED AND SOME BROKE OFF AT THE TOPS. UNKNOWN SIZE OF TREES. ROOF OF A HOUSE WAS ROLLED UP. TIME ESTIMATED BY RADAR. (SGF)
2130,UNK,1 N COFFEEVILLE,CLARKE,AL,31.77,-88.09,COUNTY EM REPORTS MULTIPLE TREES AND POWERLINES DOWN JUST NORTH OF COFFEEVILLE... AL. (MOB)
2130,UNK,9 SE MADISON,BOONE,WV,37.97,-81.68,TREE DOWN IN GORDON. (RLX)
2137,UNK,SOMERSET,PULASKI,KY,37.08,-84.61,A FEW TREES WERE BLOWN DOWN AND ACROSS OAK HILL ROAD IN SOMERSET. (JKL)
2142,UNK,COAL CITY,RALEIGH,WV,37.68,-81.21,TREES DOWN (RLX)
2145,UNK,FORT INDIANTOWN GAP,LEBANON,PA,40.44,-76.57,TREES AND WIRES DOWN. (CTP)
2150,UNK,YORK,YORK,PA,39.96,-76.73,LARGE TREE DOWN IN 100 BLOCK OF WEST SPRINGETTSBURY AVENUE. (CTP)
2150,UNK,MOUNT GRETNA,LEBANON,PA,40.25,-76.47,TREES AND WIRES DOWN. (CTP)
2204,60,TAHLEQUAH,CHEROKEE,OK,35.92,-94.97,THUNDERSTORM WIND GUST OF 50 TO 60 MPH ESTIMATED AT THE NSU CAMPUS IN TAHLEQUAH. (TSA)
2205,UNK,CAYUGA HEIGHTS,TOMPKINS,NY,42.47,-76.49,TREE DOWN (BGM)
2210,UNK,2 N ELDON,CHEROKEE,OK,35.96,-94.84,8-10 INCH DIAMETER TREES DOWN IN PUNKIN HOLLOW AREA. (TSA)
2210,UNK,4 NE MILLERS,CARROLL,MD,39.72,-76.8,SEVERAL TREE LIMBS WERE SNAPPED. (LWX)
2215,60,4 NE MILLERS,CARROLL,MD,39.72,-76.8,(LWX)
2220,UNK,1 N HUNTER,CARTER,MO,36.91,-90.85,A LARGE LIVE OAK TREE BLOW DOWN ON HIGHWAY 21. (PAH)
2220,UNK,LITITZ,LANCASTER,PA,40.15,-76.31,TREES DOWN. (CTP)
2220,UNK,REHRERSBURG,BERKS,PA,40.46,-76.24,ROOF DAMAGE TO FIVE HOMES. (PHI)
2230,UNK,1 E WILLOW STREET,LANCASTER,PA,39.98,-76.25,TREES DOWN IN WEST LAMPETER TOWNSHIP. (CTP)
2235,UNK,1 SW WATTS,ADAIR,OK,36.1,-94.58,TREES DOWN ON CHEWY ROAD SOUTHWEST OF WATTS (TSA)
2236,UNK,TILDEN TWP,BERKS,PA,40.53,-76.04,TREES DOWN... WIRES DOWN... DAMAGE TO SCHOOL...TIME ESTIMATED FROM RADAR (PHI)
2250,UNK,4 SSW AVRA VALLEY,PIMA,AZ,32.38,-111.35,TREE HOUSE DAMAGED. (TWC)
2255,UNK,GENTRY,BENTON,AR,36.27,-94.48,REPORT OF A GARAGE BLOWN OVER AND SEVERAL OTHER STRUCTURES DAMAGED IN GENTRY. (TSA)
2255,UNK,4 E CARDIFF,HARFORD,MD,39.71,-76.26,A TREE WAS REPORTED DOWN IN THE 4500 BLOCK OF FLINTVILLE ROAD. (LWX)
2300,UNK,1 W MAGNOLIA,HARFORD,MD,39.4,-76.34,A TREE WAS REPORTED DOWN ON HAVERHILL ROAD NEAR JOPPA FARM ROAD. (LWX)
2310,UNK,MARANA,PIMA,AZ,32.41,-111.17,TREES DOWN ACROSS I-10 NEAR MARANA (TWC)
2310,UNK,PORT DEPOSIT,CECIL,MD,39.6,-76.12,TREES DOWN IN THE PORT DEPOSIT AND COLORA AREA. (PHI)
2314,UNK,SPRINGDALE,WASHINGTON,AR,36.19,-94.13,TREE DOWN IN THE TOWN OF SPRINGDALE (TSA)
2319,UNK,2 SE CROFTON,ANNE ARUNDEL,MD,38.99,-76.66,TREE DOWN ACROSS DEFENSE HWY AND HERMITAGE HILLS DR (LWX)
2320,UNK,ROGERS,BENTON,AR,36.33,-94.12,TREES DOWN ACROSS HIGHWAY 94 JUST EAST OF ROGERS. (TSA)
2320,61,14 SE WARM SPRINGS,NYE,NV,38.19,-116.42,61 MPH WIND GUST AT WARM SPRINGS SUMMIT CEMP FROM THUNDERSTORM OUTFLOW WINDS. (LKN)
2330,65,1 S SAN JON,QUAY,NM,35.1,-103.33,(ABQ)
2330,UNK,DOWNINGTOWN,CHESTER,PA,40.01,-75.7,NUMEROUS TREES AND WIRES DOWN AROUND THE COUNTY. (PHI)
2330,UNK,PLYMOUTH MEETING,MONTGOMERY,PA,40.1,-75.28,TREES AND WIRES DOWN AROUND THE COUNTY. (PHI)
2334,UNK,1 N MAYFIELD,WASHINGTON,AR,36.15,-93.94,TELEPHONE POLES KNOCKED OVER ON HIGHWAY 303 (TSA)
2335,UNK,SCOTT CITY,SCOTT,MO,37.22,-89.53,MAJOR DAMAGE TO ONE HOUSE... TREE ON ANOTHER HOUSE... NUMEROUS TREES DOWN... WIDESPREAD STREET FLOODING. (PAH)
2348,UNK,CENTER VALLEY,LEHIGH,PA,40.53,-75.39,DAMAGE TO THE GYM ROOF AND SCOREBOARDS AT DESALES UNIVERSITY (PHI)
2349,UNK,CENTREVILLE,QUEEN ANNES,MD,39.04,-76.07,TREES DOWN (PHI)
2350,UNK,2 N NEW CASTLE,NEW CASTLE,DE,39.7,-75.57,PARTIAL COLLAPSE OF THREE BUILDINGS. (PHI)
2358,UNK,5 N HUNTSVILLE,MADISON,AR,36.16,-93.74,LARGE TREE LIMBS DOWN AT WITHROW SPRING STATE PARK (TSA)
0000,UNK,ASTON ARMS,DELAWARE,PA,39.86,-75.43,TREES DOWN SEVERAL LOCATIONS AROUND THE COUNTY. (PHI)
0007,UNK,MONETT,BARRY,MO,36.92,-93.93,REPORT OF A TREE DOWN IN THE MONETT AREA DUE TO SEVERE WIND. (SGF)
0018,UNK,PHILADELPHIA,PHILADELPHIA,PA,39.95,-75.16,LARGE TREE DOWN ON A BUILDING IN WASHINGTON SQUARE (PHI)
0020,UNK,PITMAN,GLOUCESTER,NJ,39.73,-75.13,WIRES DOWN EVENT TIME ESTIMATED BY RADAR (PHI)
0030,UNK,WOODSIDE,KENT,DE,39.07,-75.57,A LARGE NUMBER OF TREES DOWN ALONG ROUTE 13 FROM WOODSIDE TO GREENWOOD. TIME ESTIMATED FROM RADAR. (PHI)
0048,UNK,WATERFORD TWP,CAMDEN,NJ,39.74,-74.82,WIRES DOWN ON US 30 AT MILE POST 20.7 (PHI)
0105,UNK,HARRISON,BOONE,AR,36.24,-93.12,TREES DOWN IN HARRISON. (LZK)
0124,61,BRANDYWINE SHOAL NOS,ANZ431,DE,38.99,-75.11,(PHI)
0156,59,LAZBUDDIE,PARMER,TX,34.39,-102.61,MEASUREBY AT HIGH SCHOOL BY KVII-TV SCHOOLNET. (LUB)
0231,74,1 SW TATUM,LEA,NM,33.25,-103.33,(MAF)
0830,UNK,8 E OWENSBORO,DAVIESS,KY,37.76,-86.97,TWO TREES ON A HOME AND ONE TREE ON A GARAGE NEAR THE INTERSECTION OF HIGHWAY 762 AND BRATCHER HILL ROAD. OWNERS OF MOBILE HOMES IN SAME AREA NOTED ROCKING OF TRAILERS. (PAH)
Time,Size,Location,County,State,Lat,Lon,Comments
2045,100,CHLORIDE,SIERRA,NM,33.34,-107.68,VFD CHIEF REPORTED QUARTER SIZE HAIL AND INTENSE RAINFALL NEAR CHLORIDE. (EPZ)
0002,150,PUEBLO WEST,PUEBLO,CO,38.35,-104.72,(PUB)
0120,175,5 SE BOISE CITY,CIMARRON,OK,36.68,-102.45,HAIL TO THE SIZE OF GOLF BALLS WAS STILL FALLING. (AMA)
0148,100,15 S STONINGTON,BACA,CO,37.09,-102.21,(PUB)
0200,100,2 E FETERITA,STEVENS,KS,37.15,-101.45,(DDC)
