Time,F_Scale,Location,County,State,Lat,Lon,Comments
Time,Speed,Location,County,State,Lat,Lon,Comments
1300,60,3 SSW ENCINO,TORRANCE,NM,34.62,-105.47,(ABQ)
1653,UNK,3 NE DILLON,DILLON,SC,34.45,-79.33,TREES DOWN ON MT CALVARY ROAD (ILM)
1713,UNK,2 SSW SOUTH OF THE BORD,DILLON,SC,34.47,-79.33,TREES DOWN ALONG HIGHWAY 301 NEAR APPLE JACK LOOP ROAD (ILM)
1740,UNK,4 NNW APOPKA,ORANGE,FL,28.74,-81.54,PART OF APOPKA AMPHITHEATER ROOF BLOWN OFF. TIME ESTIMATED BY RADAR. (MLB)
1852,UNK,3 SSE QUINBY,FLORENCE,SC,34.2,-79.71,TREE DOWN ACROSS NORTH PINE COURT CIRCLE IN THE 200 BLOCK. (ILM)
1915,UNK,4 E OCALA,MARION,FL,29.19,-82.07,STATE WARNING POINT RELAYED REPORT OF A TREE DOWN ON A HOME AT 4712 NE 7TH ST IN OCALA. NO INJUIRES WERE REPORTED. TIME IS ESTIMATED BASED ON RADAR IMAGERY. (JAX)
1915,UNK,9 ENE RAINBOW LAKES EST,MARION,FL,29.2,-82.32,STATE WARNING POINT RELAYED REPORT OF A TREE DOWN ON A MOBILE HOME AT 815 NW 120TH AVE IN OCALA. NO INJUIRES WERE REPORTED. TIME IS ESTIMATED BASED ON RADAR IMAGERY. (JAX)
1948,UNK,3 NNW HALIFAX,HALIFAX,VA,36.81,-78.95,TREE DOWN AT INTERSECTION OF MURPHY GROVE ROAD AND HIGHWAY 501 (RNK)
2005,UNK,5 NNE HOLIDAY,PASCO,FL,28.25,-82.72,NEW PORT RICHEY POLICE DEPARTMENT RELAYED REPORTS OF 3 DOWNED TREES...1 TRANSFORMER HIT BY LIGHTNING...1 TREE ON A POWERLINE...AND STREET FLOODING NEAR MAIN AND US 19 E (TBW)
2039,58,ROCHESTER INTL ARPT,MONROE,NY,43.13,-77.68,(BUF)
2040,UNK,6 SW ELLOREE,ORANGEBURG,SC,33.46,-80.64,HIGHWAY PATROL REPORTED TREES DOWN NEAR HIGHWAY 301 AND LANDSDOWNE ROAD (CAE)
2105,UNK,FAIRPORT,MONROE,NY,43.1,-77.44,LARGE TREE DOWN...REPORTED BY YNN. (BUF)
2116,UNK,1 W PAXVILLE,CLARENDON,SC,33.74,-80.39,HIGHWAY PATROL REPORTED TREES DOWN ON STATE ROAD 261 WEST OF PAXTON NEAR THE COUNTY LINE (CAE)
2125,UNK,1 NW LIVE OAK,SUWANNEE,FL,30.3,-83,THE EMERGENCY MANAGEMENT RECEIVED REPORTS OF OVER 80 TREES AND POWERLINES DOWN INCLUDING ALONG U.S. HIGHWAY 90 NEAR LIVE OAK. THE TIME GIVEN WAS BASED ON RADAR. (JAX)
2126,UNK,ROCHESTER,MONROE,NY,43.15,-77.61,MULTIPLE REPORTS OF WIRES DOWN. (BUF)
2130,UNK,FOUNTAIN,MASON,MI,44.05,-86.18,LARGE OAK TREE REPORTED TO HAVE FALLEN ON A VEHICLE ON MAIN STREET. SEVERAL LIMBS WERE DOWN. WINDS ESTIMATED TO BE 60 MPH. TIME OF INCIDENT ESTIMATED BY RADAR. (GRR)
2146,UNK,MACEDON,WAYNE,NY,43.07,-77.3,MULTIPLE REPORTS OF TREES AND WIRES DOWN. (BUF)
2152,UNK,1 SSW SHELBY CENTER,ORLEANS,NY,43.18,-78.4,LARGE TREE DOWN ON CRANE RD. (BUF)
2205,UNK,MADISON,MADISON,FL,30.47,-83.42,MULTIPLE REPORTS OF TREES DOWN NEAR THE CITY OF MADISON...AND IN THE EASTERN PART OF THE COUNTY. (TAE)
2205,UNK,NEWARK,WAYNE,NY,43.04,-77.09,MULTIPLE REPORTS OF TREES AND WIRES DOWN. (BUF)
2211,60,ST. JOHNS,APACHE,AZ,34.51,-109.38,OUTFLOW FROM HIGH BASED STORM. (FGZ)
2220,UNK,DENNISON,TUSCARAWAS,OH,40.4,-81.33,TREES AND POWER LINES DOWN. PLEASANT VALLEY RD NE. (PBZ)
2233,UNK,2 SE LYONS,WAYNE,NY,43.05,-76.97,MULTIPLE REPORTS OF WIRES AND TREES DOWN. (BUF)
2247,UNK,DENNISON,TUSCARAWAS,OH,40.4,-81.33,TREES AND POWER LINES DOWN. PLEASANT VALLEY RD NE. (PBZ)
2248,60,5 N PLEASANT HILL,CURRY,NM,34.59,-103.07,(ABQ)
2255,UNK,2 E PUNXSUTAWNEY,JEFFERSON,PA,40.94,-78.94,SCATTERED TREES DOWN IN MCCALMONT... GASKILL... AND WASHINGTON TOWNSHIPS (PBZ)
2315,UNK,2 NNW JUNCTION CITY,TRINITY,CA,40.76,-123.07,ONE TREE DOWN ON PARK ROAD IN JUNCTION CITY CAUSED BY THUNDERSTORMS MOVING THROUGH THE AREA. TIME IS ESTIMATED USING RADAR AND LIGHTNING DATA. (EKA)
2330,UNK,DOUGLAS CITY,TRINITY,CA,40.65,-122.95,THREE TREES BLOWN OVER ONTO HIGHWAY 299 IN THE DOUGLAS CITY AREA AS STORMS MOVED THROUGH THE AREA AROUND 430 PM. TIME IS ESTIMATED BASED ON RADAR. (EKA)
2333,60,GILA,GRANT,NM,32.97,-108.58,(EPZ)
2345,UNK,TALLAHASSEE,LEON,FL,30.44,-84.28,A COUPLE REPORTS OF TREES AND POWER LINES DOWN IN THE CITY OF TALLAHASSEE. (TAE)
0100,UNK,3 WSW ROCKY MOUNT,FRANKLIN,VA,36.98,-79.93,MULTIPLE TREES DOWN ON BARFOOT LANE (RNK)
0200,UNK,3 NNE STEWARTSVILLE,BEDFORD,VA,37.3,-79.79,MULTIPLE TREES DOWN ON MOUNTAIN VALLEY RD (RNK)
0245,UNK,3 S ROWLAND,TALBOT,GA,32.82,-84.42,THE PUBLIC REPORTED SEVERAL TREES DOWN ALONG HIGHWAY 36 ALONG THE TALBOT/UPSON COUNTY LINE. (FFC)
0302,UNK,5 SW SNOOK,BURLESON,TX,30.44,-96.53,MEASURED 62 MPH (HGX)
0327,60,17 SW WHITE SANDS NAT M,DONA ANA,NM,32.63,-106.39,WSMR SAMS SITE APACHE WSM02 (EPZ)
0615,63,15 WNW PROMONTORY,BOX ELDER,UT,41.7,-112.85,LOCOMOTIVE SPRINGS (SLC)
0632,UNK,4 WSW WATERLOO,LAURENS,SC,34.33,-82.12,A FEW TREES BLOWN DOWN INCLUDING AN OLD OAK NEARLY 3 FEET IN DIAMETER AT THE BASE. THE ROOF OF A FRONT PORCH WAS LIFTED FROM A RESIDENCE ON A WATERLOO ADDRESS ON THE LA (GSP)
0740,59,2 NE FRIONA,PARMER,TX,34.66,-102.7,REPORTED BY THE TEXAS TECH UNIVERSITY WEST TEXAS MESONET (LUB)
0800,59,18 ESE LAKESIDE,BOX ELDER,UT,41.07,-112.59,HAT ISLAND (SLC)
0830,69,SYRACUSE,DAVIS,UT,41.1,-112.06,(SLC)
0835,58,6 SSW ANTON,HOCKLEY,TX,33.73,-102.2,REPORTED BY THE TEXAS TECH UNIVERSITY WEST TEXAS MESONET (LUB)
0928,58,4 W LEHI,UTAH,UT,40.41,-111.93,SARATOGA SPRINGS (SLC)
Time,Size,Location,County,State,Lat,Lon,Comments
1907,100,HAMILTON,CALDWELL,MO,39.74,-94,(EAX)
2143,100,WATERPORT,ORLEANS,NY,43.32,-78.25,(BUF)
2150,150,MESCALERO,OTERO,NM,33.16,-105.78,GOLFBALL SIZE HAIL ON ROAD 244 BETWEEN MESCALERO AND CLOUDCROFT AT 350 PM...BROKEN WINDSHIELD REPORTED (EPZ)
2248,100,5 N PLEASANT HILL,CURRY,NM,34.59,-103.07,(ABQ)
2248,100,BRIDGEPORT,MONO,CA,38.26,-119.22,REPORTED BY THE MONO COUNTY SHERIFF (REV)
2310,100,2 NNE CLOVIS,CURRY,NM,34.44,-103.18,(ABQ)
2315,100,7 SSE GILA,GRANT,NM,32.87,-108.53,U.S. FOREST SERVICE PASSED ALONG A REPORT OF QUARTER SIZE HAIL ACCUMULATING TO 8 INCHES AT JUNCTION OF U.S. 180 AND HIGHWAY 211. WATER WAS FLOWING OVER THE GUARD RAILS. (EPZ)
2325,150,1 ESE CLOVIS,CURRY,NM,34.41,-103.2,(ABQ)
0005,175,SANTA ROSA,GUADALUPE,NM,34.94,-104.68,NICKEL TO GOLFBALL SIZE HAIL AT THE SANTA ROSA PD (ABQ)
0206,175,FALL RIVER MILLS,SHASTA,CA,41,-121.44,LARGE HAIL REPORTED BY SPOTTER. (STO)
0315,100,3 WNW SIERRAVILLE,SIERRA,CA,39.6,-120.42,ALSO RECEIVED 0.95 INCH OF RAIN IN 30 MINUTES. (REV)
0335,100,SPRINGFIELD,GREENE,MO,37.2,-93.29,(SGF)
