Time,F_Scale,Location,County,State,Lat,Lon,Comments
Time,Speed,Location,County,State,Lat,Lon,Comments
1212,UNK,1 ENE GOLD DALE,ORANGE,VA,38.27,-77.79,15-20 TREES DOWN ON PROPERITY AND TREES WITH TOPS RIPPED OFF THEM (LWX)
1220,UNK,3 SSE MINE RUN,SPOTSYLVANIA,VA,38.22,-77.82,TREE DOWN NEAR 14008 WEST CATHARPIN RD (LWX)
1305,UNK,4 SSE FREDERICKSBURG,SPOTSYLVANIA,VA,38.25,-77.45,TREE DOWN NEAR MINE RD AND LEES CROSSING LANE (LWX)
1646,UNK,EL DORADO SPRINGS,CEDAR,MO,37.88,-94.02,SEVERAL TREES WERE REPORTED DOWN IN THE CITY. POWER WAS REPORTED OUT. (SGF)
1719,UNK,4 W HUMANSVILLE,CEDAR,MO,37.79,-93.65,LARGE LIMBS WERE REPORTED DOWN AND A CEDAR TREE WAS UPROOTED AT THE CIRCLE OF HOPE GIRLS RANCH. (SGF)
1720,UNK,FAIR PLAY,POLK,MO,37.63,-93.57,TREES DOWN IN TOWN (SGF)
1740,UNK,HUMANSVILLE,POLK,MO,37.79,-93.58,TREES DOWN IN TOWN (SGF)
1750,UNK,MORRISVILLE,POLK,MO,37.48,-93.43,NUMEROUS TREES WERE REPORTED DOWN AND SIDING WAS ALSO PEELED OF A HOME. (SGF)
1800,UNK,FLEMINGTON,POLK,MO,37.8,-93.5,POWER POLE SNAPPED BY HIGH WINDS. (SGF)
1803,UNK,WARSAW,BENTON,MO,38.24,-93.38,SEVERAL TREES WERE REPORTED DOWN IN TOWN. POWER LINES WERE ALSO REPORTED DOWN ONE MILE SOUHTWEST OF TOWN. (SGF)
1808,UNK,LAKEVIEW HEIGHTS,BENTON,MO,38.26,-93.16,SEVERAL LARGE LIMBS DOWN. (SGF)
1812,65,PLEASANT HOPE,POLK,MO,37.46,-93.27,(SGF)
1815,UNK,CLIMAX SPRINGS,CAMDEN,MO,38.1,-93.05,A FEW LARGE TREES AND NUMEROUS 4 INCH LIMBS DOWN (SGF)
1830,UNK,2 W BUFFALO,DALLAS,MO,37.64,-93.13,SEVERAL LARGE LIMBS DOWN ALONG HIGHWAY 32. (SGF)
1832,60,4 ENE ELKLAND,WEBSTER,MO,37.47,-92.96,PENNY SIZE HAIL WAS ALSO REPORTED. (SGF)
1840,UNK,1 W ALEXANDER,GENESEE,NY,42.9,-78.28,FIRE DEPT REPORTS WINDS TOOK DOWN EXIBIT TENTS AT ALEXANDER STEAM SHOW (BUF)
1843,60,ROCKY MOUNT,MORGAN,MO,38.27,-92.72,LARGE TREE SNAPPED IN HALF. (SGF)
1850,UNK,3 NNW MARSHFIELD,WEBSTER,MO,37.38,-92.93,SEVERAL LARGE LIMBS UP TO EIGHT INCHES IN DIAMETER DOWN. (SGF)
1855,60,2 NE ROCKY MOUNT,MILLER,MO,38.29,-92.69,SMALL TREE SNAPPED (SGF)
1913,60,RICHLAND,PULASKI,MO,37.86,-92.4,(SGF)
1916,UNK,LAKE OZARK,CAMDEN,MO,38.2,-92.64,TREES DOWN ON POWER LINES. (SGF)
1929,UNK,RICHLAND,PULASKI,MO,37.86,-92.4,SEVERAL POWERLINES DOWN IN TOWN. (SGF)
1930,UNK,HARTVILLE,WRIGHT,MO,37.25,-92.51,SEVERAL POWER LINES DOWN. (SGF)
1931,UNK,META,OSAGE,MO,38.31,-92.17,TREE OF UNKNOWN SIZE BLOCKING COUNTY ROAD 542. TIME ESTIMATED FROM RADAR. (LSX)
1943,UNK,WAYNESVILLE,PULASKI,MO,37.83,-92.2,NUMEROUS TREES DOWN IN TOWN. (SGF)
2010,UNK,3 NW POTASH POINT,ESSEX,NY,44.14,-73.42,BARN ROOF TORN OFF WITH SIGNIFICANT TREE DAMAGE AT CAMP DUDLEY (BTV)
2012,UNK,ELMIRA,CHEMUNG,NY,42.09,-76.81,SEVERAL TREES DOWN. ALSO NICKEL SIZE HAIL. (BGM)
2017,UNK,8 ESE ROLLA,PHELPS,MO,37.91,-91.64,A FEW SMALL LIMBS DOWN ALONG WITH PEA SIZED HAIL. (SGF)
2023,UNK,2 WSW SALEM,DENT,MO,37.64,-91.56,HALF OF A METAL ROOF WAS BLOWN OFF OF A BUILDING NEAR HIGHWAY 32 AND HIGHWAY 72 AND TWO SIGNS WERE BLOWN DOWN NEAR HIGHWAY 72 AND HIGHWAY H. THE SALEM MISSOURI EM ESTIM (SGF)
2025,UNK,3 SSE MONTAUK,TEXAS,MO,37.4,-91.66,TREES DOWN AND BLOCKING THE ROAD NEAR HIGHWAY B AND HIGHWAY AY. (SGF)
2030,UNK,2 S ROSEBUD,GASCONADE,MO,38.36,-91.4,TWELVE INCH TREE LIMB DOWN BLOCKIGN HIGHWAY T. (LSX)
2030,UNK,HAGUE,WARREN,NY,43.75,-73.5,TRRES AND WIRES DOWN ON ROUTE 9N. (ALY)
2033,UNK,SULLIVAN,FRANKLIN,MO,38.22,-91.17,SEVERAL TREES UPROOTED ALONG AND SOUTH OF SERICE ROAD OF INTERSTATE 44. (LSX)
2042,60,SUNRISE,BROWARD,FL,26.17,-80.28,A THUNDERSTORM PRODUCED A WIND GUST OF 60 MPH IN SUNRISE. (MFL)
2045,UNK,6 SE LINESVILLE,CRAWFORD,PA,41.6,-80.34,ONE TREE DOWN. (CLE)
2045,UNK,CANDOR,TIOGA,NY,42.23,-76.34,TREES DOWN (BGM)
2050,UNK,2 SSE CLAYTON,JOHNSTON,NC,35.63,-78.45,POWERLINES DOWN AT THE INTERSECTION OF RANCH ROAD AND LITTLE CREEK CHURCH ROAD IN CLAYTON. (RAH)
2050,61,1 NNE SULLIVAN,FRANKLIN,MO,38.23,-91.16,(LSX)
2050,UNK,UNION,FRANKLIN,MO,38.45,-91.01,ESTIMATED 55 MPH WINDS WITH TWO TO THREE INCH DIAMTER TREE LIMBS DOWN. (LSX)
2100,UNK,1 W MUSKOGEE,MUSKOGEE,OK,35.75,-95.39,SEVERAL TREE LIMBS DOWN ON THE WEST SIDE OF MUSKOGEE. TIME ESTIMATED BY RADAR. (TSA)
2112,58,APALACHIN,TIOGA,NY,42.07,-76.17,ALSO PEA SIZE HAIL (BGM)
2114,UNK,4 SSE INDIAN POINT,TANEY,MO,36.59,-93.31,SEVERAL SMALL LIMBS OF 2 TO 3 INCH IN DIAMETER WERE BLOWN DOWN. (SGF)
2114,UNK,AUGUSTA,ST. CHARLES,MO,38.57,-90.88,ONE AND A HALF FOOT DIAMTER OAK TREE SNAPPED ABOUT 15 FEET UP. (LSX)
2115,UNK,1 W MUSKOGEE,MUSKOGEE,OK,35.75,-95.39,SEVERAL TREE LIMBS DOWN ON THE WEST SIDE OF MUSKOGEE. (TSA)
2115,61,3 SSE BOISE CITY,CIMARRON,OK,36.69,-102.5,(AMA)
2115,UNK,APALACHIN,TIOGA,NY,42.07,-76.17,TREES DOWN. ALSO DIME SIZE HAIL. (BGM)
2118,UNK,DOE RUN,ST. FRANCOIS,MO,37.74,-90.5,THREE TO FIVE INCH TREE LIMBS DOWN. TIME ESTIMATED FROM RADAR. (LSX)
2118,UNK,PACIFIC,FRANKLIN,MO,38.48,-90.75,SIX TO EIGHT INCH DIAMTER TREE LIMBS DOWN ON SOUTH SIDE OF PACIFIC NEAR HIGHWAY N AND WESTLAKE DRIVE. (LSX)
2118,UNK,EUREKA,ST. LOUIS,MO,38.5,-90.64,EIGHT INCH DIAMTER BRADFORD PEAR SNAPPED. (LSX)
2120,UNK,BELLEVIEW,IRON,MO,37.68,-90.75,SEVERAL REPORTS OF TREES DOWN BETWEEN BELLEVIEW AND IRONTON...TIME EST FROM RADAR (LSX)
2120,UNK,HIGH RIDGE,JEFFERSON,MO,38.46,-90.53,2 LIMBS...APPROXIMATELY 5 INCH IN DIAMETER...SNAPPED OFF BY HIGH WINDS (LSX)
2122,UNK,VESTAL,BROOME,NY,42.08,-76.05,MANY TREES AND POWER LINES DOWN. ROSS HILL ROAD AND KNIGHT ROAD AREAS. (BGM)
2125,60,8 W DELRAY BEACH,PALM BEACH,FL,26.46,-80.22,A TRAINED WEATHER SPOTTER ESTIMATED A WIND GUST OF 60 MPH 8 MILES WEST OF DELRAY BEACH ALONG US HIGHWAY 441. (MFL)
2125,UNK,ANNAPOLIS,IRON,MO,37.36,-90.7,TREE FELL ONTO HOUSE...TIME EST FROM RADAR (LSX)
2131,UNK,VAN BUREN,CARTER,MO,37.01,-91.01,POWER LINES AND TREE LIMBS DOWN (PAH)
2133,UNK,SUNSET HILLS,ST. LOUIS,MO,38.54,-90.42,SIX INCH DIAMTER TREE LIMBS DOWN. (LSX)
2135,UNK,IRONTON,IRON,MO,37.6,-90.64,SEVERAL REPORTS OF TREES DOWN BETWEEN IRONTON AND BELLEVIEW...TIME EST FROM RADAR (LSX)
2136,UNK,ROCKAWAY BEACH,TANEY,MO,36.7,-93.16,POWER LINES WERE REPORTED TO BE BLOWN DOWN IN ROCKAWAY BEACH. (SGF)
2140,UNK,PIEDMONT,WAYNE,MO,37.15,-90.7,TREE LIMBS DOWN ON ROADS. WINDS ESTIMATED AT LEAST 60 MPH. (PAH)
2140,60,OAKVILLE,ST. LOUIS,MO,38.44,-90.32,(LSX)
2150,UNK,GREENVILLE,WAYNE,MO,37.13,-90.45,NUMBEROUS TREES DOWN...IN PARTICULAR HIGHWAY HH AT CLEARWATER DAM AND HIGHWAY 143 AT SAM A. BAKER STATE PARK. (PAH)
2159,58,1 W GRIGGS,CIMARRON,OK,36.6,-102.14,WIND GUSTS WERE ESTIMATED AT 55 TO 60 MPH. (AMA)
2200,UNK,SUMNER,TALLAHATCHIE,MS,33.97,-90.37,DOWNED TREES IN AND AROUND SUMNER AND TUTWILER. (MEG)
2200,UNK,3 N TANEYVILLE,TANEY,MO,36.78,-93.03,NEW BARN DESTROYED NEAR ESSARY AND MIDDLETON ROADS (SGF)
2207,UNK,1 SW COWPENS,SPARTANBURG,SC,35.01,-81.82,CONVERSE F.D. REPORTED 1 TREE DOWN OFF BLANCH AND CATAWBA STREETS IN COWPENS AND 1 TREE DOWN OFF CHERRY HILL AND OLD SCHOOL ROADS IN CONVERSE. (GSP)
2210,UNK,4 SSE PRINCETON,WAYNE,NC,35.41,-78.13,ONE TREE BLOWN DOWN ALONG OAKLAND CHURCH ROAD. TIME ESTIMATED. (RAH)
2210,UNK,MARBLE HILL,BOLLINGER,MO,37.3,-89.98,NUMEROUS TREES DOWN IN AND AROUND THE CITY LIMITS (PAH)
2217,UNK,5 ESE GRIGGS,TEXAS,OK,36.58,-102.03,HOG BARN ROOF REMOVED AND THROWN INTO POWERLINES (AMA)
2220,UNK,PUXICO,STODDARD,MO,36.95,-90.16,SEVERAL TREES DOWN (PAH)
2223,UNK,PEA RIDGE,BENTON,AR,36.45,-94.11,STRONG THUNDERSTORM WIND BLEW DOWN TREES AND POWER LINES (TSA)
2224,60,ZALMA,BOLLINGER,MO,37.14,-90.08,SEVERAL TREES DOWN AND 1/2 INCH HAIL (PAH)
2230,UNK,BLOOMFIELD,STODDARD,MO,36.89,-89.93,SEVERAL TREES DOWN (PAH)
2236,60,1 SW PENDENNIS,LANE,KS,38.64,-100.34,(DDC)
2244,UNK,3 SE CHESTER,RANDOLPH,IL,37.89,-89.79,LARGE TREE OVER ROUTE 3 JUST SOUTH OF CHESTER. (LSX)
2250,UNK,CAPE GIRARDEAU,CAPE GIRARDEAU,MO,37.31,-89.55,TREES AND POWER LINES DOWN ON SPRIGG STREET. TIME ESTIMATED. (PAH)
2251,UNK,BLODGETT,SCOTT,MO,37,-89.53,TREE DOWN ON POWERLINE (PAH)
2300,68,GOODWELL,TEXAS,OK,36.59,-101.64,(AMA)
2305,66,HILL CITY,GRAHAM,KS,39.37,-99.85,(GLD)
2307,UNK,4 W PURDY,BARRY,MO,36.82,-93.99,ONE HUNDRED FEET OF ALUMINUM ROOFING WAS BLOWN OFF OF A LARGE METAL CHICKEN HOUSE. (SGF)
2307,UNK,MORLEY,SCOTT,MO,37.04,-89.61,POWER LINE DOWN ON A HOUSE CAUSED A HOUSE FIRE (PAH)
2320,60,FREMONT JCT,SEVIER,UT,38.76,-111.38,FREMONT JUNCTION - 6801 FT (SLC)
2321,60,4 S MONETT,BARRY,MO,36.86,-93.93,(SGF)
2335,UNK,WYATT,MISSISSIPPI,MO,36.91,-89.22,A SINGLE AXLE TRUCK BLOWN OVER ON HIGHWAY 60/62 (PAH)
2335,UNK,2 SE CAIRO,ALEXANDER,IL,36.98,-89.15,18 WHEELER BLOWN OVER ON MISSISSIPPI RIVER BRIDGE ON ILLINOIS SIDE. NO INJURIES REPORTED. (PAH)
2335,60,BOGUE,GRAHAM,KS,39.36,-99.69,ESTIMATED WIND GUST. THREE INCH DIAMTER TREE LIMBS BROKEN OFF. (GLD)
2336,65,WEBSTER STATE PARK,ROOKS,KS,39.4,-99.45,ESTIMATED 60-65 MPH WINDS WITH SMALL LIMBS DOWN (GID)
2340,UNK,10 S NESS CITY,NESS,KS,38.31,-99.91,LARGE HAY BALES WERE BLOWN OFF OF A SEMI TRAILER ON HIGHWAY 283. (DDC)
2340,UNK,8 N NESS CITY,NESS,KS,38.57,-99.91,2 POWER POLES BLOWN DOWN BY THUNDERSTORM WIND GUSTS. (DDC)
2343,60,3 W WEST PADUCAH,MCCRACKEN,KY,37.08,-88.8,AT JUNCTION OF HIGHWAY 62 AND 286 (PAH)
2345,80,13 E STRATFORD,SHERMAN,TX,36.34,-101.84,SIGNIFICANT DAMAGE TO CENTER PIVOT SYSTEM ON NORTH SIDE OF HWY 15 (AMA)
2345,UNK,CLINTON,HICKMAN,KY,36.67,-88.99,ROOF OFF 2 CHICKEN HOUSES AT POOLE ROAD AND HIGHWAY 123 (PAH)
2345,UNK,LA CENTER,BALLARD,KY,37.07,-88.97,TREE DOWN OVER THE ROADWAY (PAH)
2353,60,BARDWELL,CARLISLE,KY,36.87,-89.01,(PAH)
0000,UNK,PADUCAH,MCCRACKEN,KY,37.07,-88.64,SHINGLES BLOWN OFF HOUSE ONTO NEIGHBORS HOUSE. TREES BRANCHES DOWN. TIME ESTIMATED. LATE REPORT. RELAYED THROUGH EM. (PAH)
0002,60,PALCO,ROOKS,KS,39.25,-99.56,50 TO 60 MPH WIND GUSTS AND PEA SIZE HAIL. (GID)
0004,65,ROUND KNOB,MASSAC,IL,37.22,-88.73,(PAH)
0010,UNK,3 W HUNTSVILLE,MADISON,AR,36.09,-93.79,TREES BLOWN DOWN BY STRONG THUNDERSTORM WIND WEST OF TOWN (TSA)
0010,59,MAYFIELD,GRAVES,KY,36.74,-88.65,(PAH)
0015,UNK,METROPOLIS,MASSAC,IL,37.15,-88.71,WINDOW BLOWN OUT OF A HOUSE. POWER LINES AND TREE LIMBS DOWN. (PAH)
0015,70,5 E ALAMOTA,NESS,KS,38.43,-100.21,(DDC)
0016,UNK,VERNON,WYOMING,PA,41.45,-75.97,TREES DOWN (BGM)
0020,61,SMITH CENTER,SMITH,KS,39.78,-98.78,(GID)
0025,UNK,BREWERS,MARSHALL,KY,36.77,-88.44,TREES DOWN BLOCKING BOTH LANES AT INTERSECTION OF HIGHWAY 402 AND 58. (PAH)
0035,65,6 NNW BURDETT,PAWNEE,KS,38.28,-99.55,(DDC)
0040,UNK,HAZEL,CALLOWAY,KY,36.51,-88.33,ON-LINE NEWSPAPER REPORTS TREE AND POWER LINE DOWN IN THE SOUTHWESTERN PART OF CALLOWAY COUNTY. ALSO REPORTED A CAR RAN INTO A TREE JUST NORTHWEST OF MURRAY. TIME ESTIM (PAH)
0041,60,MORSE,HANSFORD,TX,36.06,-101.48,(AMA)
0105,62,DUCHESNE,DUCHESNE,UT,40.17,-110.49,US-40 @ STARVATION - 5720 FT (SLC)
0107,UNK,CHERRY HILL,POLK,AR,34.58,-94,TREES DOWNED AT CHERRY HILL ON POLK COUNTY ROAD 70. (LZK)
0110,UNK,1 N DOVER,STEWART,TN,36.5,-87.84,TREE BLOWN DOWN ON LEATHERWOOD ROAD (OHX)
0115,60,10 W JETMORE,HODGEMAN,KS,38.08,-100.08,(DDC)
0135,60,8 SSE MASTERSON,POTTER,TX,35.54,-101.9,(AMA)
0215,UNK,SOUTHAVEN,DESOTO,MS,34.97,-90,SEVERAL TREES DOWN IN AREA. (MEG)
0545,UNK,1 W CAIRO,PRATT,KS,37.64,-98.56,STRONG WINDS BLEW DOWN TREE LIMBS UP TO 14 INCHES IN DIAMETER. THE HIGH WIND WAS ACCOMPANIED BY TORRENTIAL RAIN AND APPEARS TO HAVE BEEN THE RESULT OF A WET MICROBURST. (DDC)
0700,UNK,2 W LAUREL,MARSHALL,IA,41.88,-92.96,TWO 1 FT DIAMETER TREES DOWNED ALONG WITH SEVERAL LARGE LIMBS. TIME ESTIMATED FROM RADAR. (DMX)
0700,UNK,WSW POMEROY,CALHOUN,IA,42.55,-94.69,NUMEROUS LARGE TREE BRANCHES GREATER THAN SIX INCHES IN DIAMETER DOWNED THROUGHOUT TOWN. LOOSE METAL SHEETING FROM AN UNKNOWN SOURCE ALSO OBSEVRED BLOWING THROUGH TOWN. (DMX)
0744,UNK,TULPEHOCKEN TWP,BERKS,PA,40.44,-76.25,WIRES DOWN ACROSS DECK ROAD IN TULPEHOCKEN TWP. (PHI)
0820,UNK,6 ESE COLUMBUS JUNCTION,LOUISA,IA,41.25,-91.26,12 FOOT FRUIT TREE DOWN (DVN)
0820,60,CEDAR RAPIDS MUNICIPAL,LINN,IA,41.88,-91.72,FROM ASOS. (DVN)
Time,Size,Location,County,State,Lat,Lon,Comments
1200,100,3 NE VERDIERSVILLE,ORANGE,VA,38.3,-77.87,QUARTER SIZE HAIL (LWX)
1935,100,CANTON,BRADFORD,PA,41.66,-76.85,(BGM)
1941,100,TRUMANSBURG,TOMPKINS,NY,42.54,-76.66,(BGM)
2000,100,CANTON,BRADFORD,PA,41.66,-76.85,(BGM)
2013,125,1 NE POTOSI,WASHINGTON,MO,37.95,-90.77,HAIL NOW UP TO HALF DOLLAR SIZE AT INTERSECTION OF HIGHWAY 21 AND HIGHWAY E. (LSX)
2013,100,TOMPKINS CORNERS,CHEMUNG,NY,42.2,-76.88,(BGM)
2030,100,STATE COLLEGE,CENTRE,PA,40.79,-77.86,QUARTER-SIZED HAIL REPORTED ON NORTH ATHERTON STREET IN STATE COLLEGE. (CTP)
2035,175,HORSEHEADS,CHEMUNG,NY,42.17,-76.83,QUARTER TO GOLFBALL SIZE HAIL LASTED FOR 10 MINUTES (BGM)
2050,175,ELMIRA,CHEMUNG,NY,42.09,-76.81,ALSO HIGH WINDS. A TRAMPOLINE WAS BLOWN 1 2 MILE AND SHATTERED (BGM)
2055,150,OWEGO,TIOGA,NY,42.1,-76.26,(BGM)
2100,100,WAVERLY,TIOGA,NY,42.01,-76.54,(BGM)
2105,100,CHEMUNG,CHEMUNG,NY,42,-76.62,(BGM)
2115,100,3 W FESTUS,JEFFERSON,MO,38.22,-90.46,HALF INCH TO ONE INCH HAIL. (LSX)
2115,200,SAYRE,BRADFORD,PA,41.99,-76.52,(BGM)
2120,175,WAVERLY,TIOGA,NY,42.01,-76.54,(BGM)
2135,100,FRIENDSVILLE,SUSQUEHANNA,PA,41.92,-76.05,(BGM)
2136,100,5 NW MORAVIA,CAYUGA,NY,42.76,-76.49,(BGM)
2150,175,SAYRE,BRADFORD,PA,41.99,-76.52,(BGM)
2215,100,SAYRE,BRADFORD,PA,41.99,-76.52,(BGM)
2236,100,1 SW PENDENNIS,LANE,KS,38.64,-100.34,(DDC)
2238,250,6 ESE PENDENNIS,NESS,KS,38.61,-100.24,MOST HAIL WAS BETWEEN PING PONG TO GOLF BALL IN SIZE WITH ONLY A FEW HEN EGG TO TENNIS BALL IN SIZE. (DDC)
2242,125,5 NE ALMA,HARLAN,NE,40.15,-99.3,HALF DOLLAR SIZE HAIL (GID)
2300,100,BLODGETT,SCOTT,MO,37,-89.53,(PAH)
2303,100,3 N NAPONEE,FRANKLIN,NE,40.12,-99.14,HAIL COVERED THE GROUND (GID)
2315,175,8 S ARNOLD,NESS,KS,38.51,-100.07,(DDC)
2315,175,TRUMANSBURG,TOMPKINS,NY,42.54,-76.66,(BGM)
2330,175,LANSING,TOMPKINS,NY,42.49,-76.49,(BGM)
2335,175,2 S FRANKLIN,FRANKLIN,NE,40.07,-98.95,(GID)
2337,100,MESHOPPEN,WYOMING,PA,41.61,-76.05,(BGM)
2350,100,2 S NESS CITY,NESS,KS,38.43,-99.9,(DDC)
2359,100,ONEONTA,OTSEGO,NY,42.45,-75.07,AT SUNY ONEONTA (BGM)
0030,100,8 S FT. DODGE,FORD,KS,37.62,-99.95,(DDC)
0050,100,12 SSW NESS CITY,NESS,KS,38.29,-99.95,(DDC)
0055,100,PITTSTON,LUZERNE,PA,41.33,-75.79,(BGM)
0125,100,4 SW HANSTON,HODGEMAN,KS,38.08,-99.77,(DDC)
0128,100,LURTON,NEWTON,AR,35.77,-93.08,(LZK)
0158,175,BRANSON,TANEY,MO,36.64,-93.22,RECEIVED TWO REPORTS OF GOLF BALL SIZED HAIL NEAR THE INTERSECTION OF HIGHWAY 165 AND HIGHWAY 76. (SGF)
0225,100,2 E GRANVILLE,O'BRIEN,IA,42.98,-95.84,PEA TO QUARTER SIZE (FSD)
0245,100,3 WNW LARRABEE,CHEROKEE,IA,42.88,-95.61,NICKEL TO QUARTER SIZE (FSD)
0321,100,LAKE OZARK,CAMDEN,MO,38.2,-92.64,(SGF)
0348,175,NEWELL,BUENA VISTA,IA,42.61,-95,(FSD)
0430,100,5 NNE LAKE CITY,CALHOUN,IA,42.34,-94.71,DIME TO QUARTER HAIL LASTED ABOUT 5 MINUTES. (DMX)
0510,150,2 ESE CHURDAN,GREENE,IA,42.14,-94.44,SOME HAIL STONES POSSIBLY LARGER. (DMX)
0550,150,EVERLY,CLAY,IA,43.16,-95.32,MOSTLY MARBLE SIZE...THOUGH A FEW PING PONG SIZE. (FSD)
0628,175,2 S BOXHOLM,BOONE,IA,42.14,-94.11,EMERGENCY MANAGER REPORTS PING PONG TO GOLF BALL HAIL. (DMX)
0644,150,3 SW FRASER,BOONE,IA,42.1,-94.02,(DMX)
0700,100,3 SSE BOONE AIRPORT,BOONE,IA,42.01,-93.83,MINOR CAR DAMAGE NOTED. QUARTER SIZE HAIL WAS THE LARGEST OBSERVED...BUT MAY HAVE BEEN LARGER. TIME ESTIMATED FROM RADAR. (DMX)
0712,100,2 SSE HILLS,JOHNSON,IA,41.55,-91.53,MAINLY NICKEL SIZE HAIL...SOME QUARTERS. (DVN)
0805,100,2 S STRATFORD,WEBSTER,IA,42.24,-93.93,TIME ESTIMATED FROM RADAR. (DMX)
0821,100,NEWTON,JASPER,IA,41.7,-93.05,PUBLIC REPORTED NICKEL TO QUARTER SIZED HAIL IN DOWNTOWN NEWTON. (DMX)
0855,150,MILLERSBURG,IOWA,IA,41.57,-92.16,(DVN)
0917,100,1 N THORNBURG,KEOKUK,IA,41.47,-92.33,TIME OF EVENT ESTIMATED USING RADAR DATA (DVN)
